"STATION","NAME","LATITUDE","LONGITUDE","ELEVATION","DATE","CDSD","CDSD_ATTRIBUTES","DSND","DSND_ATTRIBUTES","DSNW","DSNW_ATTRIBUTES","EMNT","EMNT_ATTRIBUTES","EMSD","EMSD_ATTRIBUTES","EMSN","EMSN_ATTRIBUTES","EMXP","EMXP_ATTRIBUTES","EMXT","EMXT_ATTRIBUTES","HDSD","HDSD_ATTRIBUTES","PRCP","PRCP_ATTRIBUTES","SNOW","SNOW_ATTRIBUTES","TAVG","TAVG_ATTRIBUTES","TMAX","TMAX_ATTRIBUTES","TMIN","TMIN_ATTRIBUTES"
"USC00027187","ROBSON RANCH, AZ US","32.8118","-111.6313","455.7","2020","4224",,"        0",,"         0","7","22","7,0205, ","0"," ,7,1231,+","0.0"," ,7,1231,+","0.50"," ,7,0319, ","115","7,0814,+","1392","5","2.97"," ,7","0.0"," ,7","72.5","7","88.9","7","56.1","7"
"USC00028396","TACNA 3 NE, AZ US","32.7225","-113.9191","98.8","2020","4585",,"        0",,"         0","7","28","7,1205, ","0"," ,7,1231,+","0.0"," ,7,1231,+","0.74"," ,7,0312, ","122","7,0905, ","1223","5","3.11"," ,7","0.0"," ,7","74.1","7","91.8","7","56.4","7"
"US1AZMR0484","PARADISE VALLEY 2.4 NNE, AZ US","33.56355","-111.93105","400.5","2020",,,,,,,,,,,,,"1.07"," ,N,0211, ",,,,,"5.50"," ,N",,,,,,,,
"USS0011P13S","FRY, AZ US","35.07","-111.84","2194.6","2020","290",,"      119",,,,"7","T,0112, ","32"," ,T,0109, ",,,"1.50"," ,T,0318, ","93","T,0815, ","5941","6","13.17"," ,T",,,"50.4","T","64.2","T","36.6","T"
"US1AZYV0098","PRESCOTT 3.2 WSW, AZ US","34.524528","-112.512326","1770.3","2020",,,,,,,,,,,,,"1.95"," ,N,0311, ",,,,,"16.22"," ,N",,,,,,,,
"USC00027619","SASABE, AZ US","31.483","-111.5436","1094.2","2020","2803",,,,,,"20","7,0206,+",,,,,"1.25"," ,7,0811, ","109","7,0809, ","1836","2","7.12"," ,7",,,"67.5","7","85.3","7","49.7","7"
"US1AZMR0245","GOODYEAR 2.9 W, AZ US","33.434876","-112.400436","297.2","2020",,,,,,,,,,,,,"0.92"," ,N,0312, ",,,,,"5.88"," ,N",,,,,,,,
"US1AZPM0273","TUCSON 11.3 WNW, AZ US","32.304529","-111.084797","722.4","2020",,,,,,,,,,,,,"0.83"," ,N,0319, ",,,,,"5.15"," ,N",,,,,,,,
"USC00027855","SHOW LOW AIRPORT, AZ US","34.2639","-110.0075","1954.1","2020","989",,"        9",,"        10","7","5","7,1213,+","3"," ,7,1027,+","3.0"," ,7,0319,+","1.25"," ,7,0204, ","95","7,0815,+","4741","7","11.24"," ,7","18.4"," ,7","55.3","7","68.8","7","41.8","7"
"USR0000AGUN","GUNSIGHT ARIZONA, AZ US","36.7044","-112.5833","1609.3","2020","1711",,,,,,"10","U,0204, ",,,,,,,"104","U,0817, ","4142","2",,,,,"58.7","U","72.1","U","45.2","U"
"USC00029359","WILLIAMS, AZ US","35.2413","-112.1929","2105.9","2020","513",,"       50",,"         7","7","6","7,0204, ","9"," ,7,0101, ","6.0"," ,7,0319, ","1.18"," ,7,0313, ","96","7,0818,+","5352","4","10.41"," ,7","22.0"," ,7","52.1","7","67.8","7","36.4","7"
"USR0000AGUT","GUTHRIE ARIZONA, AZ US","32.8819","-109.3092","1097.3","2020","1855",,,,,,"20","U,0205, ",,,,,,,"99","U,0730, ","3529","8",,,,,"61.2","U","70.0","U","52.4","U"
"USR0000ARIN","RINCON ARIZONA, AZ US","32.2056","-110.5481","2511.6","2020","542",,,,,,"11","U,0205, ",,,,,,,"89","U,0712, ","4900","4",,,,,"53.7","U","63.5","U","43.9","U"
"USW00003029","WINDOW ROCK AIRPORT, AZ US","35.6575","-109.06139","2054.0","2020",,,,,,,,,,,,,,,,,"5859","8",,,,,,,,,,
"USR0000AMOS","MOSS BASIN ARIZONA, AZ US","35.0336","-113.8925","1804.4","2020","1151",,,,,,"17","U,0205, ",,,,,,,"100","U,0815, ","4295","0",,,,,"57.3","U","69.7","U","45.0","U"
"US1AZMR0470","FOUNTAIN HILLS 3.6 SW, AZ US","33.576277286346","-111.75691924095","538.3","2020",,,,,,,,,,,,,"1.52"," ,N,0211, ",,,,,"5.94"," ,N",,,,,,,,
"US1AZMR0352","TEMPE 4.0 SW, AZ US","33.3707122802734","-111.950317382813","366.7","2020",,,,,,,,,,,,,"0.86"," ,N,0223, ",,,,,"4.74"," ,N",,,,,,,,
"USR0000AFAP","MOUNTAIN LION ARIZONA, AZ US","33.7011","-109.7058","1671.2","2020","550",,,,,,"6","U,0205, ",,,,,,,"95","U,0815, ",,,,,,,"53.5","U","67.7","U","39.2","U"
"USR0000AFRA","FRAZIER WELLS ARIZONA, AZ US","35.8456","-113.055","2063.5","2020","1171",,,,,,"11","U,0205,+",,,,,,,"96","U,0906,+","4919","7",,,,,"55.7","U","66.2","U","45.1","U"
"USS0009S02S","MAVERICK FORK, AZ US","33.92","-109.46","2804.2","2020","10",,,,,,"-3","T,0205, ",,,,,"1.50"," ,T,0222, ","81","T,0712, ","7318","7","18.45"," ,T",,,"45.9","T","57.4","T","34.4","T"
"USW00003145","YUMA MCAS, AZ US","32.65","-114.61667","64.9","2020",,,,,,,"39","W,1231,+",,,,,"1.15"," ,W,0310, ",,,"744","3","4.14"," ,W",,,,,,,"63.3","W"
"US1AZMR0357","GILBERT 9.1 SSE, AZ US","33.2203636169434","-111.749015808105",,"2020",,,,,,,,,,,,,"0.91"," ,N,0830, ",,,,,"5.44"," ,N",,,,,,,,
"US1AZPM0148","TUCSON 5.0 NNW, AZ US","32.2806","-110.9672","710.2","2020",,,,,,,,,,,,,"1.93"," ,N,0724, ",,,,,"5.92"," ,N",,,,,,,,
"US1AZPM0145","TUCSON 4.9 E, AZ US","32.2163","-110.8363","795.8","2020",,,,,,,,,,,,,"0.55"," ,N,0319, ",,,,,"4.72"," ,N",,,,,,,,
"US1AZMR0111","LAVEEN 3.0 SE, AZ US","33.33644","-112.149714","340.8","2020",,,,,,,,,,,,,"1.05"," ,N,0313, ",,,,,"5.90"," ,N",,,,,,,,
"US1AZMR0232","SCOTTSDALE 17.7 N, AZ US","33.754","-111.847","817.8","2020",,,,,"         0","N",,,,,"0.0"," ,N,1231,+","1.48"," ,N,0211, ",,,,,"7.76"," ,N","0.0"," ,N",,,,,,
"US1AZPM0265","TUCSON 13.8 NW, AZ US","32.347345","-111.101542","660.5","2020",,,,,,,,,,,,,"0.79"," ,N,0319, ",,,,,"5.05"," ,N",,,,,,,,
"US1AZGH0002","PIMA 0.7 ESE, AZ US","32.8857183","-109.810003","869.0","2020",,,,,,,,,,,,,"1.62"," ,N,0830, ",,,,,"6.84"," ,N",,,,,,,,
"US1AZMR0477","TEMPE 3.6 SSW, AZ US","33.362882","-111.925358","362.4","2020",,,,,,,,,,,,,"0.58"," ,N,0312, ",,,,,"3.87"," ,N",,,,,,,,
"US1AZPM0147","TUCSON 1.3 NW, AZ US","32.231778","-110.93631","750.7","2020",,,,,,,,,,,,,"0.53"," ,N,0319, ",,,,,"4.42"," ,N",,,,,,,,
"US1AZPM0146","TUCSON 11.8 ENE, AZ US","32.303011","-110.743755","867.2","2020",,,,,,,,,,,,,"0.82"," ,N,0319, ",,,,,"5.08"," ,N",,,,,,,,
"US1AZPM0141","ORO VALLEY 3.1 NNW, AZ US","32.4289","-110.9872","866.5","2020",,,,,,,,,,,,,"1.02"," ,N,0319, ",,,,,"5.32"," ,N",,,,,,,,
"US1AZPM0261","TUCSON 5.0 ENE, AZ US","32.2554856404608","-110.844934612517","766.6","2020",,,,,,,,,,,,,"1.17"," ,N,0724, ",,,,,"6.16"," ,N",,,,,,,,
"US1AZPM0143","TUCSON 11.7 ENE, AZ US","32.254321","-110.723271","827.8","2020",,,,,,,,,,,,,"1.10"," ,N,0724, ",,,,,"6.56"," ,N",,,,,,,,
"US1AZPM0263","TUCSON 10.7 NNW, AZ US","32.351275","-111.016325","730.3","2020",,,,,,,,,,,,,"0.72"," ,N,0319, ",,,,,"4.17"," ,N",,,,,,,,
"USC00028499","TEMPE ASU, AZ US","33.4258","-111.9216","355.7","2020",,,"        0",,"         0","7","30","7,0206,+","0"," ,7,1231,+","0.0"," ,7,1231,+","0.94"," ,7,0222, ","115","7,0731,+",,,"5.15"," ,7","0.0"," ,7","74.0","7","90.1","7","58.0","7"
"USC00029464","WITTMANN 1 SE, AZ US","33.7776","-112.523","513.0","2020",,,,,,,,,,,,,,,,,,,,,,,,,,,,
"USC00026194","PAINTED ROCK DAM, AZ US","33.0772","-113.0316","173.1","2020",,,"        0",,"         0","7",,,"0"," ,7,1231,+","0.0"," ,7,1231,+",,,,,,,,,"0.0"," ,7",,,,,,
"US1AZYM0001","YUMA 13.8 ESE, AZ US","32.63412","-114.405648","121.3","2020",,,,,,,,,,,,,"1.43"," ,N,0311, ",,,,,"4.71"," ,N",,,,,,,,
"USC00027281","ROOSEVELT 1 S, AZ US","33.649","-111.1088","794.0","2020",,,"        0",,"         0","7",,,"0"," ,7,1231,+","0.0"," ,7,1231,+",,,,,,,,,"0.0"," ,7",,,,,,
"US1AZMR0261","MESA 1.6 ENE, AZ US","33.430492","-111.795578","384.4","2020",,,,,,,,,,,,,"0.85"," ,N,0222, ",,,,,"4.84"," ,N",,,,,,,,
"USC00026190","PAINTED DESERT NATIONAL PARK, AZ US","35.068","-109.7688","1755.6","2020","1185",,,,"         3","7","5","7,0102, ",,,"2.0"," ,7,1128,+","1.15"," ,7,0413, ","101","7,0816,+","4660","1","6.98"," ,7","6.0"," ,7","55.7","7","71.7","7","39.7","7"
"US1AZMR0264","SCOTTSDALE 11.6 NNW, AZ US","33.646773","-111.987213","453.8","2020",,,,,,,,,,,,,"1.00"," ,N,0313, ",,,,,"6.25"," ,N",,,,,,,,
"US1AZAP0007","NUTRIOSO 1.9 WSW, AZ US","33.941751","-109.241205","2432.3","2020",,,,,,,,,,,,,"0.97"," ,N,0223, ",,,,,"13.88"," ,N",,,,,,,,
"US1AZMR0260","MESA 4.3 SW, AZ US","33.36797","-111.862241","367.3","2020",,,,,,,,,,,,,"0.82"," ,N,0222, ",,,,,"4.33"," ,N",,,,,,,,
"US1AZPM0137","ORO VALLEY 5.8 N, AZ US","32.474517","-110.957964","914.4","2020",,,,,,,,,,,,,"1.16"," ,N,0817, ",,,,,"6.75"," ,N",,,,,,,,
"USR0000AMOL","MORMON LAKE ARIZONA, AZ US","34.9067","-111.445","2255.5","2020","260",,,,,,"-11","U,1110, ",,,,,,,"92","U,0816,+","6434","5",,,,,"48.4","U","64.0","U","32.8","U"
"US1AZPM0139","ORO VALLEY 2.1 NNW, AZ US","32.416632","-110.975786","834.5","2020",,,,,,,,,,,,,"0.96"," ,N,0319, ",,,,,"5.61"," ,N",,,,,,,,
"US1AZMR0387","SCOTTSDALE 8.0 N, AZ US","33.6159362792969","-111.88614654541","444.4","2020",,,,,,,,,,,,,"1.22"," ,N,0211, ",,,,,"6.26"," ,N",,,,,,,,
"US1AZMR0386","GILBERT 3.9 SE, AZ US","33.312348","-111.730722","392.6","2020",,,,,,,,,,,,,"0.66"," ,N,0311, ",,,,,"3.60"," ,N",,,,,,,,
"USC00025418","MC NEAL, AZ US","31.6016","-109.6686","1271.0","2020","2150",,,,,,"15","7,1231, ",,,,,"0.78"," ,7,0308, ","109","7,0712, ",,,"6.47"," ,7",,,"64.9","7","83.3","7","46.6","7"
"USC00027716","SELIGMAN, AZ US","35.3322","-112.8797","1600.2","2020",,,,,,,,,,,,,,,,,,,,,,,,,,,,
"US1AZPM0135","TUCSON 7.3 WNW, AZ US","32.270915","-111.02957","703.2","2020",,,,,,,,,,,,,"1.59"," ,N,0724, ",,,,,"6.00"," ,N",,,,,,,,
"USC00026865","QUARTZSITE, AZ US","33.665","-114.2272","266.7","2020","4757",,"        0",,"         0","7","29","7,1205, ","0"," ,7,1231,+","0.0"," ,7,1231,+","0.67"," ,7,0312, ","120","7,0905,+","1353","8","3.48"," ,7","0.0"," ,7","74.7","7","90.1","7","59.4","7"
"US1AZPM0132","TUCSON 8.5 NE, AZ US","32.291831","-110.802731","796.4","2020",,,,,,,,,,,,,"0.85"," ,N,0319, ",,,,,"5.17"," ,N",,,,,,,,
"USC00025412","MC NARY 2 N, AZ US","34.1141","-109.8588","2237.2","2020","321",,"       47",,"        11","7","3","7,0205, ","9"," ,7,0102,+","8.0"," ,7,0319, ","1.64"," ,7,0223, ","92","7,0713, ","5988","6","14.67"," ,7","37.6"," ,7","50.1","7","64.3","7","36.0","7"
"USR0000AHUM","HUMBUG CREEK ARIZONA, AZ US","34.1164","-112.3006","1600.2","2020","2362",,,,,,"22","U,0205,+",,,,,,,"103","U,0730, ","2779","8",,,,,"63.8","U","72.4","U","55.2","U"
"USR0000AHUR","HURRICANE ARIZONA, AZ US","36.6992","-113.2072","1659.6","2020","1815",,,,,,"13","U,0205, ",,,,,,,"102","U,0817,+","4452","3",,,,,"58.6","U","70.1","U","47.1","U"
"USC00027398","SAGUARO NATIONAL PARK, AZ US","32.1794","-110.7363","938.8","2020",,,,,,,,,,,,,"0.60"," ,7,0211, ",,,,,"5.70"," ,7",,,,,,,,
"USC00029334","WILLCOX, AZ US","32.2553","-109.8369","1271.0","2020","1931",,,,,,"15","7,1231, ",,,,,"0.74"," ,7,0830, ","110","7,0712, ","2982","7","8.36"," ,7",,,"62.2","7","80.8","7","43.6","7"
"USR0000AOAK","OAK CREEK ARIZONA, AZ US","34.9417","-111.7517","1500.8","2020","1732",,,,,,"21","U,1224,+",,,,,,,"107","U,0730, ","3564","8",,,,,"60.5","U","74.5","U","46.5","U"
"USR0000AGRE","GREER ARIZONA, AZ US","34.06","-109.45","2499.4","2020","225",,,,,,"-4","U,1213, ",,,,,,,"89","U,0711, ","6308","3",,,,,"49.1","U","62.8","U","35.3","U"
"US1AZCN0069","PAGE 0.2 N, AZ US","36.912539","-111.450108","1330.8","2020",,,,,,,,,,,,,"0.32"," ,N,0223, ",,,,,"2.28"," ,N",,,,,,,,
"USS0010R04S","HEBER, AZ US","34.31","-110.75","2328.7","2020",,,"       76",,,,,,"18"," ,T,0101, ",,,"2.20"," ,T,0801, ",,,"5319","2","19.18"," ,T",,,,,,,,
"USC00020080","AJO, AZ US","32.3698","-112.8599","533.7","2020","4827",,,,,,"29","7,0206, ",,,,,"1.00"," ,7,0813, ","115","7,0906,+","1135","6","7.16"," ,7",,,"75.2","7","88.8","7","61.6","7"
"US1AZYV0091","PRESCOTT 2.6 E, AZ US","34.534057","-112.415512","1832.2","2020",,,,,,,,,,,,,"1.52"," ,N,0319, ",,,,,"11.60"," ,N",,,,,,,,
"USW00003162","PAGE MUNICIPAL AIRPORT, AZ US","36.92611","-111.44778","1313.7","2020","2644",,,,,,"20","W,0205, ",,,,,"0.34"," ,W,0311, ","108","W,0824,+","3734","6","2.00"," ,W",,,"62.4","W","74.5","W","50.2","W"
"US1AZCN0066","FLAGSTAFF 2.0 ENE, AZ US","35.20437","-111.61868","2094.3","2020",,,"       29",,"         5","N",,,"6"," ,N,0319, ","6.5"," ,N,0319, ","1.02"," ,N,0823, ",,,,,"10.35"," ,N","15.2"," ,N",,,,,,
"US1AZMR0010","MESA 0.6 NNW, AZ US","33.426727","-111.743212","401.1","2020",,,,,,,,,,,,,"0.85"," ,N,0211, ",,,,,"5.30"," ,N",,,,,,,,
"US1AZMR0131","PHOENIX 3.8 NNW, AZ US","33.503911","-112.088196","342.9","2020",,,,,,,,,,,,,"1.27"," ,N,0313, ",,,,,"6.65"," ,N",,,,,,,,
"US1AZMR0494","GILBERT 7.3 SE, AZ US","33.27337","-111.69302","413.6","2020",,,,,,,,,,,,,"0.68"," ,N,0319, ",,,,,"4.43"," ,N",,,,,,,,
"US1AZCN0061","FLAGSTAFF 2.1 SSW, AZ US","35.163248","-111.666654","2119.0","2020",,,,,,,,,,,,,"0.90"," ,N,0311, ",,,,,"7.79"," ,N",,,,,,,,
"USS0009S04S","NUTRIOSO, AZ US","33.9","-109.16","2590.8","2020","126",,"       57",,,,"6","T,0205, ","7"," ,T,0318, ",,,"0.60"," ,T,0724, ","85","T,0711, ","5782","5","6.38"," ,T",,,"50.3","T","61.5","T","39.1","T"
"US1AZMR0017","CAVE CREEK 2.9 SSW, AZ US","33.785962","-111.977444","596.5","2020",,,,,,,,,,,,,"1.02"," ,N,0211, ",,,,,"6.67"," ,N",,,,,,,,
"US1AZMR0016","SCOTTSDALE 2.3 NE, AZ US","33.709972","-111.841463","781.2","2020",,,,,,,,,,,,,"1.45"," ,N,0211, ",,,,,"8.33"," ,N",,,,,,,,
"US1AZMR0379","GLENDALE 2.5 ENE, AZ US","33.54864","-112.14254","363.9","2020",,,,,,,,,,,,,"1.08"," ,N,0314, ",,,,,"6.34"," ,N",,,,,,,,
"US1AZPM0005","TUCSON 5.0 NNW, AZ US","32.25993","-110.933136","732.1","2020",,,,,,,,,,,,,"1.35"," ,N,0724, ",,,,,"4.99"," ,N",,,,,,,,
"US1AZPM0247","TUCSON 10.3 WNW, AZ US","32.30096","-111.06799","707.7","2020",,,,,,,,,,,,,"1.05"," ,N,0724, ",,,,,"5.59"," ,N",,,,,,,,
"US1AZYV0087","DEWEY HUMBOLDT 1.4 SE, AZ US","34.5140151977539","-112.224105834961","1390.8","2020",,,,,,,,,,,,,"1.04"," ,N,0313, ",,,,,"7.04"," ,N",,,,,,,,
"USC00020632","BARTLETT DAM, AZ US","33.8097","-111.6497","502.9","2020",,,"        0",,"         0","7",,,"0"," ,7,1231,+","0.0"," ,7,1231,+",,,,,,,,,"0.0"," ,7",,,,,,
"USR0000AWAR","WARM SPRINGS CANYON ARIZONA, AZ US","36.7","-112.23","2441.4","2020","430",,,,,,"-1","U,0205, ",,,,,,,"91","U,0819,+","6358","4",,,,,"49.4","U","62.4","U","36.4","U"
"US1AZPM0244","TUCSON 9.9 NW, AZ US","32.322036","-111.03852","680.9","2020",,,,,,,,,,,,,"1.12"," ,N,0724, ",,,,,"5.10"," ,N",,,,,,,,
"USC00026616","PIPE SPRING NATIONAL MONUMENT, AZ US","36.8626","-112.7374","1499.6","2020",,,"        0",,"         0","7",,,"0","T,7,1228,+","0.4"," ,7,1109, ","1.04"," ,7,1109, ",,,,,"5.54"," ,7","0.7"," ,7",,,,,,
"US1AZCH0003","SIERRA VISTA 0.4 ESE, AZ US","31.56396","-110.316334","1407.0","2020",,,,,,,,,,,,,"0.63"," ,N,0319, ",,,,,"6.76"," ,N",,,,,,,,
"US1AZMR0496","GILBERT 1.2 ESE, AZ US","33.3447","-111.7595","383.7","2020",,,,,,,,,,,,,"0.64"," ,N,0223, ",,,,,"4.11"," ,N",,,,,,,,
"US1AZPM0003","TUCSON 11.7 NNW, AZ US","32.347742","-110.980251","773.6","2020",,,,,,,,,,,,,"0.77"," ,N,0318, ",,,,,"4.26"," ,N",,,,,,,,
"US1AZPM0124","TUCSON 5.2 NNW, AZ US","32.282869","-110.968863","708.4","2020",,,,,,,,,,,,,"1.75"," ,N,0724, ",,,,,"5.69"," ,N",,,,,,,,
"US1AZPM0245","TUCSON 8.1 E, AZ US","32.204713","-110.782382","855.6","2020",,,,,,,,,,,,,"0.56"," ,N,0211, ",,,,,"5.19"," ,N",,,,,,,,
"US1AZYM0004","YUMA 9.7 ESE, AZ US","32.68316667","-114.4585","71.6","2020",,,,,,,,,,,,,"1.46"," ,N,0311, ",,,,,"5.10"," ,N",,,,,,,,
"USS0010S01S","WORKMAN CREEK, AZ US","33.81","-110.92","2103.1","2020",,,"       50",,,,"10","T,1216, ","17"," ,T,0103,+",,,"2.90"," ,T,0222, ",,,,,"17.16"," ,T",,,,,,,"42.3","T"
"USR0000AYEL","YELLOW JOHN MOUNTAIN ARIZONA, AZ US","36.1542","-113.5417","1877.6","2020","321",,,,,,"0","U,1224, ",,,,,,,"101","U,0816, ","6257","1",,,,,"49.2","U","69.1","U","29.2","U"
"USC00020871","BLUE RIDGE RANGER STATION, AZ US","34.6108","-111.1922","2097.0","2020",,,,,,,,,,,,,,,,,,,,,,,,,,,,
"USC00021282","CAREFREE, AZ US","33.8161","-111.9019","771.1","2020","3838",,"        0",,"         0","7","26","7,0204, ","0"," ,7,1231,+","0.0"," ,7,1231,+","1.20"," ,7,0211, ","114","7,0731,+","1314","9","8.27"," ,7","0.0"," ,7","72.9","7","86.3","7","59.5","7"
"USC00023582","GRAND CANYON VISITOR CENTER, AZ US","36.0597","-112.1098","2158.9","2020",,,,,,,,,,,,,,,,,,,,,,,,,,,,
"US1AZYM0007","YUMA 7.7 SE, AZ US","32.643211","-114.523034","64.0","2020",,,,,,,,,,,,,"1.50"," ,N,0311, ",,,,,"4.90"," ,N",,,,,,,,
"USC00023584","GRAND CANYON EAST ENTRANCE, AZ US","36.0353","-111.8304","2279.9","2020",,,,,,,,,,,,,,,,,"5559","5","8.23"," ,7",,,,,,,,
"USR0000AHBR","HEBER ARIZONA, AZ US","34.3978","-110.5644","2022.3","2020","549",,,,,,"4","U,1224, ",,,,,,,"95","U,0816,+","5626","6",,,,,"51.6","U","68.0","U","35.3","U"
"USW00003195","GRAND CANYON NATIONAL PARK AIRPORT, AZ US","35.94611","-112.15472","2013.5","2020","214",,,,,,"-7","W,1213, ",,,,,"0.65"," ,W,0313, ","97","W,0731, ","6683","0","5.89"," ,W",,,"47.4","W","66.9","W","28.0","W"
"US1AZCN0033","FLAGSTAFF 2.2 SW, AZ US","35.17041","-111.681546","2146.7","2020",,,,,"         7","N",,,,,"7.7"," ,N,0319, ","1.14"," ,N,0319, ",,,,,"11.31"," ,N","27.2"," ,N",,,,,,
"US1AZCN0154","FLAGSTAFF 10.5 E, AZ US","35.217705","-111.467064","1967.5","2020",,,,,,,,,,,,,"1.05"," ,N,0718, ",,,,,"7.46"," ,N",,,,,,,,
"USS0009S11S","HANNAGAN MEADOWS, AZ US","33.65","-109.31","2749.3","2020",,,"      123",,,,"4","T,0205, ","32"," ,T,0213,+",,,"1.20"," ,T,0318,+",,,,,"18.07"," ,T",,,,,,,"33.7","T"
"USW00003196","NOGALES INTERNATIONAL AIRPORT, AZ US","31.42083","-110.84583","1198.5","2020","2555",,,,,,"18","W,0205, ",,,,,"0.77"," ,W,0802, ","110","W,0712, ","1969","1","9.16"," ,W",,,"66.5","W","83.4","W","49.6","W"
"US1AZMR0280","GILBERT 2.4 NW, AZ US","33.372","-111.812","372.5","2020",,,,,,,,,,,,,"0.68"," ,N,0223, ",,,,,"3.70"," ,N",,,,,,,,
"US1AZPM0119","TUCSON 2.0 ENE, AZ US","32.231868","-110.889304","768.1","2020",,,,,,,,,,,,,"1.20"," ,N,0723, ",,,,,"6.17"," ,N",,,,,,,,
"US1AZYV0055","CORNVILLE 0.8 SSE, AZ US","34.70633","-111.91855","1012.2","2020",,,,,,,,,,,,,"1.27"," ,N,0312, ",,,,,"8.82"," ,N",,,,,,,,
"US1AZPM0118","TUCSON 10.3 SE, AZ US","32.116925","-110.793624","890.0","2020",,,,,,,,,,,,,"0.47"," ,N,0211, ",,,,,"3.91"," ,N",,,,,,,,
"US1AZYV0052","PRESCOTT 11.1 SW, AZ US","34.43488611","-112.607875","1466.4","2020",,,,,,,,,,,,,"1.97"," ,N,0313, ",,,,,"10.55"," ,N",,,,,,,,
"USR0000AEMP","EMPIRE ARIZONA, AZ US","31.7806","-110.6347","1417.3","2020","1805",,,,,,"15","U,0205, ",,,,,,,"102","U,0814,+","2783","1",,,,,"62.4","U","78.3","U","46.6","U"
"US1AZMR0046","GLENDALE 3.5 S, AZ US","33.533929","-112.195661","347.2","2020",,,,,,,,,,,,,"0.87"," ,N,0313, ",,,,,"5.03"," ,N",,,,,,,,
"US1AZMR0288","MESA 13.4 E, AZ US","33.431117","-111.588467","507.5","2020",,,,,,,,,,,,,"0.91"," ,N,0223, ",,,,,"4.37"," ,N",,,,,,,,
"US1AZPM0112","TUCSON 14.5 NNW, AZ US","32.4223","-110.9843","844.3","2020",,,,,,,,,,,,,"1.01"," ,N,0319, ",,,,,"5.65"," ,N",,,,,,,,
"US1AZPM0233","TUCSON 8.3 WSW, AZ US","32.1710472106934","-111.050018310547","848.6","2020",,,,,,,,,,,,,"2.30"," ,N,0724, ",,,,,"5.92"," ,N",,,,,,,,
"US1AZMR0045","SCOTTSDALE 5.3 NNW, AZ US","33.756639","-111.904578","694.3","2020",,,,,,,,,,,,,"1.20"," ,N,0211, ",,,,,"7.07"," ,N",,,,,,,,
"US1AZMR0287","SURPRISE 10.9 NE, AZ US","33.7375","-112.19035","458.1","2020",,,,,,,,,,,,,"1.56"," ,N,0313, ",,,,,"7.37"," ,N",,,,,,,,
"US1AZPM0111","TUCSON 10.5 ESE, AZ US","32.139041","-110.76738","886.1","2020",,,,,,,,,,,,,"0.59"," ,N,0814, ",,,,,"5.72"," ,N",,,,,,,,
"USC00028904","TUZIGOOT, AZ US","34.7705","-112.0263","1057.7","2020",,,"        0",,"         0","7",,,"0"," ,7,1231,+","0.0"," ,7,1231,+","1.25"," ,7,0313, ",,,,,"5.24"," ,7","0.0"," ,7",,,,,,
"USR0000ANOO","NOON CREEK ARIZONA, AZ US","32.6678","-109.7881","1501.1","2020","2624",,,,,,"23","U,0205, ",,,,,,,"107","U,0711, ","2609","3",,,,,"65.3","U","76.7","U","54.0","U"
"US1AZMR0048","MESA 7.9 WSW, AZ US","33.358007","-111.856276","367.3","2020",,,,,"         0","N",,,,,"0.0"," ,N,1231,+","0.59"," ,N,0222, ",,,,,"3.97"," ,N","0.0"," ,N",,,,,,
"USC00025635","MONTEZUMA CASTLE NM, AZ US","34.6105","-111.838","969.3","2020",,,"        0",,"         0","7",,,"0"," ,7,1231,+","0.0"," ,7,1231,+","0.94"," ,7,0319, ",,,,,"7.19"," ,7","0.0"," ,7",,,,,,
"USC00026603","PINNACLE PEAK, AZ US","33.7275","-111.8605","781.8","2020",,,"        0",,"         0","7",,,"0"," ,7,1231,+","0.0"," ,7,1231,+","1.45"," ,7,0313, ","110","7,0814,+",,,"9.05"," ,7","0.0"," ,7",,,"85.2","7",,
"USR0000AFOU","FOUR SPRINGS ARIZONA, AZ US","36.7939","-112.0422","1999.5","2020","1309",,,,,,"9","U,0205, ",,,,,,,"99","U,0819, ","5231","9",,,,,"54.9","U","66.1","U","43.8","U"
"USW00003192","SCOTTSDALE MUNICIPAL AIRPORT, AZ US","33.62278","-111.91056","449.0","2020","4813",,,,,,"32","W,0204, ",,,,,"0.92"," ,W,0222, ","117","W,0730, ","1122","5","5.91"," ,W",,,"75.0","W","87.6","W","62.5","W"
"US1AZPM0231","CATALINA 2.5 ESE, AZ US","32.489208","-110.884141","1020.5","2020",,,,,,,,,,,,,"1.14"," ,N,0817, ",,,,,"7.50"," ,N",,,,,,,,
"USC00028468","TEEC NOS POS, AZ US","36.9233","-109.09","1612.4","2020",,,"        1",,"         3","7",,,"4"," ,7,1026, ","5.0"," ,7,1026, ","0.42"," ,7,0910, ",,,,,"5.21"," ,7","9.0"," ,7",,,,,,
"USR0000AHAV","HAVASU ARIZONA, AZ US","34.7872","-114.5617","144.8","2020","3779",,,,,,"19","U,1205, ",,,,,,,"123","U,0815,+","1725","1",,,,,"70.5","U","90.9","U","50.1","U"
"US1AZMR0031","CAREFREE 2.1 E, AZ US","33.8186","-111.8818","804.7","2020",,,,,,,,,,,,,"1.28"," ,N,0211, ",,,,,"8.55"," ,N",,,,,,,,
"USW00003184","PHOENIX DEER VALLEY MUNICIPAL AIRPORT, AZ US","33.68833","-112.08167","443.5","2020","4425",,,,,,"33","W,1204,+",,,,,"0.88"," ,W,0222, ","116","W,0730, ",,,"5.26"," ,W",,,"73.5","W","86.4","W","60.6","W"
"US1AZMR0032","TEMPE 3.3 S, AZ US","33.340431","-111.930331","361.2","2020",,,,,,,,,,,,,"0.96"," ,N,0223, ",,,,,"4.91"," ,N",,,,,,,,
"USR0000ALIM","LIMESTONE CANYON ARIZONA, AZ US","34.1789","-110.2736","2072.6","2020","1167",,,,,,"9","U,0205, ",,,,,,,"97","U,0814, ","4624","8",,,,,"56.2","U","66.8","U","45.6","U"
"US1AZPM0347","GREEN VALLEY 1.4 NNW, AZ US","31.8731","-111.00455","912.6","2020",,,,,,,,,,,,,"0.65"," ,N,0901, ",,,,,"4.85"," ,N",,,,,,,,
"US1AZPM0107","TUCSON 18.6 WNW, AZ US","32.34265","-111.204087","671.5","2020",,,,,,,,,,,,,"0.64"," ,N,0723, ",,,,,"5.96"," ,N",,,,,,,,
"US1AZMH0006","LAKE HAVASU 3.5 NE, AZ US","34.520972","-114.280222","451.4","2020",,,,,,,,,,,,,"1.47"," ,N,0319, ",,,,,"4.10"," ,N",,,,,,,,
"US1AZPM0106","TUCSON 7.2 NW, AZ US","32.3025","-110.99611","700.1","2020",,,,,,,,,,,,,"2.12"," ,N,0724, ",,,,,"6.33"," ,N",,,,,,,,
"USR0000APAY","PAYSON ARIZONA, AZ US","34.2431","-111.3028","1516.4","2020","1947",,,,,,"19","U,0204, ",,,,,,,"104","U,0730, ","3255","1",,,,,"62.0","U","75.0","U","48.8","U"
"US1AZMR0035","LITCHFIELD PARK 1.1 E, AZ US","33.504106","-112.339877","316.7","2020",,,,,,,,,,,,,"0.72"," ,N,0312, ",,,,,"5.85"," ,N",,,,,,,,
"US1AZPM0101","ORO VALLEY 1.3 W, AZ US","32.393336","-110.98187","759.6","2020",,,,,,,,,,,,,"0.85"," ,N,0319, ",,,,,"5.54"," ,N",,,,,,,,
"USR0000ACHR","CHIRICAHUA ARIZONA, AZ US","32.0","-109.35","1645.9","2020","1847",,,,,,"16","U,0205, ",,,,,,,"103","U,0710, ","2856","8",,,,,"62.5","U","75.8","U","49.2","U"
"USR0000APRO","PROMONTORY ARIZONA, AZ US","34.3694","-111.025","2377.4","2020","489",,,,,,"3","U,0205, ",,,,,,,"91","U,0712, ","5801","9",,,,,"51.4","U","62.4","U","40.4","U"
"US1AZYV0061","CHINO VALLEY 4.7 WNW, AZ US","34.7741","-112.5278","1503.3","2020",,,,,,,,,,,,,"1.45"," ,N,0311, ",,,,,"9.65"," ,N",,,,,,,,
"USC00021027","BUCKEYE 5 N, AZ US","33.44769","-112.56516","351.1","2020",,,,,,,,,,,,,,,,,,,,,,,,,,,,
"USS0011R06S","BAKER BUTTE, AZ US","34.46","-111.41","2225.0","2020","758",,"       82",,,,"14","T,0205, ","23"," ,T,0102,+",,,"1.40"," ,T,0318,+","94","T,0816, ","4794","3","12.48"," ,T",,,"54.9","T","64.0","T","45.7","T"
"US1AZMR0157","CHANDLER 6.6 SE, AZ US","33.221277","-111.775611","385.6","2020",,,,,"         0","N",,,,,"0.0"," ,N,1231,+","0.81"," ,N,0830, ",,,,,"3.93"," ,N","0.0"," ,N",,,,,,
"USC00023448","GISELA, AZ US","34.1111","-111.2758","883.9","2020",,,"        0",,"         0","7",,,"0"," ,7,1231,+","0.0"," ,7,1231,+","1.40"," ,7,0225, ",,,,,"8.13"," ,7","0.0"," ,7",,,,,,
"USR0000APAR","PARIA POINT ARIZONA, AZ US","36.7278","-111.8219","2205.2","2020","1145",,,,,,"7","U,0205, ",,,,,,,"96","U,0819,+","5335","8",,,,,"54.2","U","65.3","U","43.2","U"
"USC00024534","KARTCHNER CAVERNS, AZ US","31.8352","-110.3552","1429.5","2020",,,,,,,,,,,,,"1.21"," ,7,0802, ",,,,,"10.52"," ,7",,,,,,,,
"USR0000ACHE","CHERRY ARIZONA, AZ US","34.5964","-112.0481","1554.5","2020","1262",,,,,,"16","U,1110, ",,,,,,,"104","U,0816,+","4074","2",,,,,"58.0","U","73.9","U","42.0","U"
"USC00028214","STEWART MOUNTAIN DAM, AZ US","33.5575","-111.5358","433.4","2020",,,"        0",,"         0","7",,,"0"," ,7,1231,+","0.0"," ,7,1231,+",,,,,,,,,"0.0"," ,7",,,,,,
"US1AZYV0068","PRESCOTT 0.8 WSW, AZ US","34.53401","-112.47139","1637.1","2020",,,,,,,,,,,,,,,,,,,"12.36"," ,N",,,,,,,,
"USC00029542","WUPATKI NM, AZ US","35.5247","-111.3702","1496.0","2020","1999",,"        0",,"         0","7","12","7,0205, ","0"," ,7,1231,+","0.0","T,7,1229,+","0.60"," ,7,0413, ","104","7,0817,+","3802","5","3.10"," ,7","0.0","T,7","60.0","7","74.0","7","46.0","7"
"US1AZNV0009","TAYLOR 3.2 WNW, AZ US","34.47272","-110.14355","1745.6","2020",,,,,,,,,,,,,"1.07"," ,N,0728, ",,,,,"8.47"," ,N",,,,,,,,
"US1AZNV0007","PINETOP LAKESIDE 4.0 ESE, AZ US","34.110928","-109.900314","2193.0","2020",,,,,,,,,,,,,"1.75"," ,N,0223, ",,,,,"15.88"," ,N",,,,,,,,
"USR0000ABUC","BUCKSKIN MOUNTAIN ARIZONA, AZ US","36.9306","-112.1997","1950.7","2020","921",,,,,,"2","U,1213, ",,,,,,,"100","U,0819,+","5654","0",,,,,"52.9","U","67.9","U","37.8","U"
"US1AZPM0339","TUCSON 9.9 WNW, AZ US","32.2841","-111.0709","736.7","2020",,,,,"         0","N",,,,,"0.0"," ,N,1231,+","2.33"," ,N,0724, ",,,,,"6.99"," ,N","0.0"," ,N",,,,,,
"USS0009S01S","BALDY, AZ US","33.98","-109.5","2781.3","2020","18",,"      107",,,,"-2","T,0205, ","27"," ,T,0116, ",,,"0.90"," ,T,0222, ","83","T,0711, ","7024","4","18.14"," ,T",,,"46.6","T","59.8","T","33.4","T"
"USC00022109","CORDES, AZ US","34.305","-112.165","1149.4","2020",,,,,,,,,,,,,,,,,"2894","7",,,,,,,,,,
"US1AZMR0503","GILBERT 5.2 SE, AZ US","33.30046","-111.71133","402.3","2020",,,,,,,,,,,,,"0.70"," ,N,0319, ",,,,,"4.13"," ,N",,,,,,,,
"USR0000AGOO","GOODWIN MESA ARIZONA, AZ US","34.75","-113.3","1280.2","2020","2324",,,,,,"22","U,0205,+",,,,,,,"106","U,0815,+","2969","3",,,,,"63.7","U","76.0","U","51.3","U"
"US1AZYV0030","SEDONA 9.0 WSW, AZ US","34.797274","-111.900034","1122.6","2020",,,,,,,,,,,,,"1.08"," ,N,0313, ",,,,,"6.61"," ,N",,,,,,,,
"USC00025737","MOUNT LEMMON WILLOW CANYON, AZ US","32.3859","-110.69799","2141.8","2020",,,,,,,,,,,,,"1.60"," ,7,0212, ",,,,,"14.08"," ,7",,,,,,,,
"USS0011R05S","HAPPY JACK, AZ US","34.75","-111.41","2325.6","2020","348",,"      124",,,,"11","T,0205, ","16"," ,T,0102,+",,,"1.10"," ,T,1108,+","92","T,0815, ","5667","5","15.16"," ,T",,,"51.3","T","63.1","T","39.5","T"
"USC00025732","MOUNT LEMMON FIRE DEPARTMENT, AZ US","32.4487","-110.75454","2403.7","2020",,,,,,,,,,,,,,,,,,,,,,,,,,,,
"USC00028326","SUNRISE MOUNTAIN, AZ US","33.9733","-109.563","2856.0","2020",,,,,,,,,,,,,,,,,,,,,,,,,,,,
"USR0000ARUC","RUCKER ARIZONA, AZ US","31.7611","-109.3486","1737.4","2020","1410",,,,,,"15","U,0205, ",,,,,,,"102","U,0712, ","3224","3",,,,,"60.5","U","75.3","U","45.7","U"
"USC00020288","APACHE JUNCTION 5 NE, AZ US","33.4625","-111.4813","630.9","2020","4151",,"        0",,"         0","7","24","7,0204, ","0"," ,7,1231,+","0.0"," ,7,1231,+","1.31"," ,7,0223, ","114","7,0817,+","1287","2","6.98"," ,7","0.0"," ,7","72.9","7","87.9","7","58.0","7"
"USC00020287","ANVIL RANCH, AZ US","31.9793","-111.3837","840.9","2020","2980",,,,,,"15","7,0205, ",,,,,"1.10"," ,7,0723, ","111","7,0712, ","2018","2","4.69"," ,7",,,"67.6","7","85.3","7","49.9","7"
"USC00024761","LAKE HAVASU CITY, AZ US","34.5031","-114.3604","136.9","2020","4630",,,,,,"34","7,0215, ",,,,,"1.35"," ,7,0319, ","121","7,0801, ","1076","8","3.73"," ,7",,,"74.8","7","89.5","7","60.1","7"
"US1AZMR0506","PHOENIX 6.0 NNE, AZ US","33.522527","-112.040585","363.9","2020",,,,,,,,,,,,,"0.94"," ,N,0312, ",,,,,"5.48"," ,N",,,,,,,,
"US1AZYV0034","PAULDEN 2.3 SSE, AZ US","34.8559","-112.45172","1348.1","2020",,,,,,,,,,,,,"1.02"," ,N,0311, ",,,,,"6.57"," ,N",,,,,,,,
"US1AZNV0012","SNOWFLAKE 5.6 W, AZ US","34.4969","-110.1668","1770.0","2020",,,,,,,,,,,,,"0.89"," ,N,0718, ",,,,,"8.17"," ,N",,,,,,,,
"USW00093084","SAFFORD MUNICIPAL AIRPORT, AZ US","32.85472","-109.63528","968.0","2020","3351",,,,,,"19","W,0205, ",,,,,"0.56"," ,W,1210, ","115","W,0711, ","2185","7","3.81"," ,W",,,"68.2","W","84.1","W","52.3","W"
"US1AZNV0010","SHOW LOW 6.5 WNW, AZ US","34.282461","-110.126559","1906.8","2020",,,,,,,,,,,,,"1.36"," ,N,0223, ",,,,,"10.13"," ,N",,,,,,,,
"US1AZNV0018","SHOW LOW 2.3 W, AZ US","34.245696","-110.059395","1962.0","2020",,,,,,,,,,,,,"1.34"," ,N,0223, ",,,,,"12.26"," ,N",,,,,,,,
"US1AZMR0170","GOODYEAR 5.9 WSW, AZ US","33.406601","-112.448525","276.1","2020",,,,,,,,,,,,,"1.25"," ,N,0313, ",,,,,"5.58"," ,N",,,,,,,,
"US1AZPM0328","TUCSON 5.1 NE, AZ US","32.272289","-110.858273","767.2","2020",,,,,,,,,,,,,,,,,,,"6.15"," ,N",,,,,,,,
"US1AZCN0140","FLAGSTAFF 9.8 NNE, AZ US","35.3090705871582","-111.554145812988","2088.5","2020",,,,,,,,,,,,,"0.85"," ,N,0413, ",,,,,"7.44"," ,N",,,,,,,,
"US1AZCN0020","WILLIAMS 3.3 SSE, AZ US","35.19341","-112.1765","2209.8","2020",,,,,"         7","N",,,,,"9.0"," ,N,0319, ","1.20"," ,N,0223, ",,,,,"11.63"," ,N","31.5"," ,N",,,,,,
"USC00020159","ALPINE, AZ US","33.8492","-109.1469","2453.6","2020",,,,,,,,,,,,,,,,,,,,,,,,,,,,
"US1AZMH0027","DOLAN SPRINGS 1.4 NNE, AZ US","35.612592","-114.26617","1063.1","2020",,,,,,,,,,,,,"0.90"," ,N,0313, ",,,,,"4.60"," ,N",,,,,,,,
"US1AZPM0206","TUCSON 12.3 NW, AZ US","32.3585","-111.0515","713.5","2020",,,,,,,,,,,,,"0.75"," ,N,0319, ",,,,,"5.05"," ,N",,,,,,,,
"US1AZSC0013","RIO RICO 4.4 WSW, AZ US","31.437","-111.0396","1184.8","2020",,,,,,,,,,,,,"2.91"," ,N,0724, ",,,,,"10.72"," ,N",,,,,,,,
"US1AZYV0042","PRESCOTT 4.6 N, AZ US","34.6062","-112.4623","1599.0","2020",,,,,,,,,,,,,"1.11"," ,N,0311, ",,,,,"8.73"," ,N",,,,,,,,
"US1AZSC0012","SIERRA VISTA 10.1 W, AZ US","31.55517","-110.471399","1511.2","2020",,,,,,,,,,,,,"0.90"," ,N,0816, ",,,,,"9.83"," ,N",,,,,,,,
"US1AZPM0202","TUCSON 9.9 ENE, AZ US","32.2824434190989","-110.768314898014","819.6","2020",,,,,,,,,,,,,"0.77"," ,N,0319, ",,,,,"4.71"," ,N",,,,,,,,
"US1AZPM0323","GREEN VALLEY 1.5 NW, AZ US","31.875219","-111.009087","928.7","2020",,,,,,,,,,,,,"0.65"," ,N,0901, ",,,,,"5.06"," ,N",,,,,,,,
"USC00021248","CANYON DE CHELLY, AZ US","36.1533","-109.5394","1709.9","2020",,,,,,,,,,,,,,,,,,,,,,,,,,,,
"US1AZPM0201","TUCSON 5.3 WNW, AZ US","32.246410369873","-111.004592895508","704.7","2020",,,,,,,,,,,,,"0.83"," ,N,0724, ",,,,,"6.15"," ,N",,,,,,,,
"US1AZPM0322","CATALINA 1.6 S, AZ US","32.477619","-110.917184","935.1","2020",,,,,,,,,,,,,"2.20"," ,N,0817, ",,,,,"8.21"," ,N",,,,,,,,
"US1AZSC0010","TUBAC 2.9 SW, AZ US","31.5883194","-111.0876102","1125.0","2020",,,,,,,,,,,,,"1.71"," ,N,0724, ",,,,,"12.22"," ,N",,,,,,,,
"USC00023668","GREEN VALLEY, AZ US","31.893","-110.9977","883.9","2020","3470",,,,,,"24","7,0206, ",,,,,"0.56"," ,7,0318, ","109","7,0905,+","1651","5","4.33"," ,7",,,"69.9","7","85.6","7","54.2","7"
"USR0000AFLG","FLAGSTAFF ARIZONA, AZ US","35.145","-111.675","2133.6","2020","285",,,,,,"3","U,1110,+",,,,,,,"93","U,0906,+","6447","8",,,,,"48.8","U","65.7","U","32.0","U"
"USR0000AHPI","HOPI ARIZONA, AZ US","35.8103","-110.2069","1885.5","2020","1126",,,,,,"4","U,1224, ",,,,,,,"103","U,0819, ","4981","5",,,,,"54.8","U","72.8","U","36.7","U"
"USR0000ASES","SELLES ARIZONA, AZ US","31.91","-111.8975","721.2","2020","3900",,,,,,"22","U,0205, ",,,,,,,"112","U,0904, ","1349","4",,,,,"71.9","U","86.8","U","56.9","U"
"USC00021001","BRIGHT ANGEL RANGER STATION, AZ US","36.2147","-112.0619","2438.4","2020","164",,,,,,"-1","7,0205, ",,,,,,,"89","7,0819,+","7714","7",,,,,"45.2","7","57.8","7","32.5","7"
"US1AZYV0049","PRESCOTT 0.8 S, AZ US","34.5287895202637","-112.461120605469","1731.0","2020",,,,,,,,,,,,,"1.50"," ,N,0319, ",,,,,"11.52"," ,N",,,,,,,,
"USR0000AIRO","IRON SPRINGS ARIZONA, AZ US","34.5853","-112.5019","1804.4","2020","1029",,,,,,"14","U,1224, ",,,,,,,"101","U,0816,+","4393","6",,,,,"56.5","U","71.9","U","41.1","U"
"USR0000AHPK","HOPKINS ARIZONA, AZ US","31.6753","-110.88","2170.2","2020","1606",,,,,,"18","U,0205, ",,,,,,,"97","U,0712, ","3072","5",,,,,"61.4","U","72.4","U","50.5","U"
"US1AZNV0020","PINETOP LAKESIDE 1.4 NNW, AZ US","34.1588745117188","-109.969276428223","2051.0","2020",,,,,,,,,,,,,"1.86"," ,N,0724, ",,,,,"15.75"," ,N",,,,,,,,
"US1AZCN0113","FLAGSTAFF 2.7 SW, AZ US","35.162781","-111.68373","2115.0","2020",,,,,,,,,,,,,"0.99"," ,N,0319, ",,,,,"12.13"," ,N",,,,,,,,
"USW00023160","TUCSON INTERNATIONAL AIRPORT, AZ US","32.1313","-110.9552","776.9","2020","4098",,"        0",,"         0","W","24","W,0205, ","0"," ,W,1231,+","0.0"," ,W,1231,+","0.78"," ,W,0820, ","113","W,0712, ","1296","1","4.18"," ,W","0.0"," ,W","72.5","W","86.8","W","58.2","W"
"US1AZNV0024","OVERGAARD 1.4 ENE, AZ US","34.397","-110.529","2025.7","2020",,,,,,,,,,,,,"1.62"," ,N,0223, ",,,,,"8.80"," ,N",,,,,,,,
"USS0011R03S","MORMON MOUNTAIN, AZ US","34.94","-111.52","2286.0","2020","283",,"       89",,,,"10","T,0203, ","18"," ,T,0109, ",,,"1.10"," ,T,0319,+","93","T,0731, ","5835","7","13.14"," ,T",,,"50.6","T","63.0","T","38.1","T"
"US1AZMR0082","PHOENIX 9.2 NE, AZ US","33.572013","-112.013225","447.8","2020",,,,,,,,,,,,,"1.27"," ,N,0313, ",,,,,"7.13"," ,N",,,,,,,,
"US1AZPM0318","VALENCIA WEST 1.1 E, AZ US","32.129715","-111.129873","758.6","2020",,,,,,,,,,,,,"1.88"," ,N,0724, ",,,,,"5.92"," ,N",,,,,,,,
"USC00021357","CATALINA STATE PARK, AZ US","32.4177","-110.9302","825.1","2020","2725",,,,,,"17","7,0206,+",,,,,"1.25"," ,7,0712, ","112","7,0713, ","2146","2","8.14"," ,7",,,"66.7","7","86.5","7","47.0","7"
"USR0000AHOR","HORSE CAMP CANYON ARIZONA, AZ US","32.9375","-110.4961","1231.4","2020","3196",,,,,,"27","U,0205, ",,,,,,,"107","U,0731, ","2150","2",,,,,"68.0","U","79.1","U","57.0","U"
"USR0000ASUN","SUNSET POINT ARIZONA, AZ US","34.1953","-112.1417","902.2","2020","3350",,,,,,"28","U,0205,+",,,,,,,"112","U,0730, ","2086","9",,,,,"68.6","U","81.3","U","55.9","U"
"US1AZYV0018","COTTONWOOD 1.4 WSW, AZ US","34.7231466","-112.0237581","1068.0","2020",,,,,,,,,,,,,"1.00"," ,N,0313, ",,,,,"6.52"," ,N",,,,,,,,
"USR0000ATWE","TWEEDS POINT ARIZONA, AZ US","36.5819","-113.7319","1585.0","2020","2250",,,,,,"16","U,0205,+",,,,,,,"102","U,0817,+","3847","1",,,,,"61.3","U","69.7","U","52.8","U"
"USW00093026","DOUGLAS BISBEE INTERNATIONAL AIRPORT, AZ US","31.4583","-109.6061","1251.2","2020",,,,,,,,,,,,,,,,,,,,,,,,,,,,
"USW00093027","ST JOHNS INDUSTRIAL AIR PARK, AZ US","34.51833","-109.37917","1747.4","2020","1199",,,,,,"6","W,1224, ",,,,,"0.57"," ,W,0825, ","101","W,0816,+","4648","5","5.41"," ,W",,,"55.9","W","73.0","W","38.7","W"
"US1AZPN0008","APACHE JUNCTION 5.3 ESE, AZ US","33.362861","-111.46983","535.5","2020",,,,,"         0","N",,,,,"0.0"," ,N,1231,+","1.80"," ,N,0223, ",,,,,"6.24"," ,N","0.0"," ,N",,,,,,
"USC00020380","ARIVACA, AZ US","31.57669","-111.31709","1112.2","2020",,,,,,,,,,,,,"1.34"," ,7,0901, ",,,,,"9.99"," ,7",,,,,,,,
"US1AZYV0136","CAMP VERDE 3.2 NNW, AZ US","34.5997","-111.8778","952.5","2020",,,,,,,,,,,,,"0.91"," ,N,0223, ",,,,,"8.23"," ,N",,,,,,,,
"USC00029634","YOUNGTOWN, AZ US","33.595","-112.3014","345.9","2020","4552",,"        0",,"         0","7","29","7,0204, ","0"," ,7,1231,+","0.0"," ,7,1231,+","2.10"," ,7,0312, ","118","7,0730, ","1447","8","5.91"," ,7","0.0"," ,7","73.5","7","87.5","7","59.4","7"
"USW00053146","FORT HUACHUCA PIONEER AIRFIELD, AZ US","31.60722","-110.42806","1453.3","2020","2128",,,,,,"21","W,0205, ",,,,,"1.21"," ,W,0831, ","102","W,0731,+","2335","5","10.22"," ,W",,,"64.5","W","78.7","W","50.3","W"
"US1AZYV0135","COTTONWOOD 1.8 SE, AZ US","34.7112236022949","-111.976974487305","989.4","2020",,,,,,,,,,,,,"1.03"," ,N,0312, ",,,,,"8.56"," ,N",,,,,,,,
"USC00026242","PARADISE, AZ US","31.9352","-109.2187","1664.2","2020","1249",,,,,,"13","7,1223, ",,,,,,,"102","7,0713, ","3763","7",,,,,"58.7","7","74.9","7","42.4","7"
"US1AZCN0003","WILLIAMS 0.4 SW, AZ US","35.2431992","-112.1950529","2080.6","2020",,,,,,,,,,,,,"1.27"," ,N,0313, ",,,,,"12.54"," ,N",,,,,,,,
"USR0000ANIX","NIXON FLATS ARIZONA, AZ US","36.39","-113.1522","1981.2","2020","562",,,,,,"3","U,1213, ",,,,,,,"98","U,0816, ","5883","3",,,,,"51.1","U","66.5","U","35.7","U"
"US1AZPN0017","APACHE JUNCTION 3.5 ESE, AZ US","33.384251","-111.48793","529.1","2020",,,,,,,,,,,,,"1.76"," ,N,0223, ",,,,,"7.45"," ,N",,,,,,,,
"USR0000ABRK","BLACK ROCK ARIZONA, AZ US","36.7944","-113.7567","2158.0","2020","981",,,,,,"8","U,0204, ",,,,,,,"95","U,0819,+","5516","7",,,,,"53.2","U","61.8","U","44.6","U"
"US1AZCH0066","HEREFORD 1.9 WSW, AZ US","31.437007","-110.129613","1304.5","2020",,,,,,,,,,,,,"0.73"," ,N,0901, ",,,,,"8.05"," ,N",,,,,,,,
"US1AZMR0075","GILBERT 3.8 NW, AZ US","33.374088","-111.805307","373.4","2020",,,,,,,,,,,,,"0.71"," ,N,0222, ",,,,,"3.94"," ,N",,,,,,,,
"USR0000ATUS","TUSAYAN ARIZONA, AZ US","35.99","-112.12","2042.2","2020","316",,,,,,"-4","U,1230, ",,,,,,,"97","U,0906,+","6294","8",,,,,"49.2","U","67.7","U","30.6","U"
"US1AZCH0064","BENSON 3.4 W, AZ US","31.9550647735596","-110.348320007324","1255.2","2020",,,,,,,,,,,,,"1.38"," ,N,0821, ",,,,,"8.57"," ,N",,,,,,,,
"US1AZMR0197","CHANDLER 3.8 N, AZ US","33.355208","-111.846137","368.2","2020",,,,,,,,,,,,,"0.48"," ,N,0312,+",,,,,"3.98"," ,N",,,,,,,,
"US1AZMR0071","SCOTTSDALE 7.8 SSW, AZ US","33.474109","-111.939508","387.4","2020",,,,,,,,,,,,,"0.77"," ,N,0312, ",,,,,"4.80"," ,N",,,,,,,,
"US1AZYV0022","PRESCOTT 4.4 ENE, AZ US","34.56133094","-112.38633683","1648.4","2020",,,,,,,,,,,,,"1.38"," ,N,0319, ",,,,,"8.94"," ,N",,,,,,,,
"US1AZMR0511","GILBERT 0.8 SSE, AZ US","33.339392","-111.775322","380.7","2020",,,,,,,,,,,,,"0.50"," ,N,0311, ",,,,,"3.74"," ,N",,,,,,,,
"USR0000AGLO","GLOBE ARIZONA, AZ US","33.3503","-110.6519","1112.5","2020","2960",,,,,,"26","U,0205, ",,,,,,,"108","U,0711, ","2474","5",,,,,"66.6","U","78.0","U","55.1","U"
"USR0000ASTH","STRAY HORSE ARIZONA, AZ US","33.5406","-109.3169","2139.7","2020","683",,,,,,"15","U,0205, ",,,,,,,"90","U,0815,+","4833","3",,,,,"54.5","U","64.1","U","44.9","U"
"USC00020498","ASHURST HAYDEN DAM, AZ US","33.09864","-111.24702","492.3","2020",,,,,,,,,,,,,"0.85"," ,7,0319, ",,,,,"4.03"," ,7",,,,,,,,
"USC00025825","NATURAL BRIDGE, AZ US","34.322","-111.4532","1404.5","2020","1722",,"        0",,"         0","7","10","7,0205, ","0","T,7,0327, ","0.3"," ,7,0327, ","1.30"," ,7,0311, ","103","7,0730, ","3397","3","10.82"," ,7","0.3"," ,7","60.9","7","75.4","7","46.5","7"
"USS0011P08S","SNOWSLIDE CANYON, AZ US","35.34","-111.65","2965.7","2020","4",,"      197",,,,"-7","T,0204, ","61"," ,T,0327, ",,,"1.60"," ,T,0318, ","78","T,0731, ","8321","0","21.08"," ,T",,,"43.0","T","53.9","T","32.0","T"
"USC00024977","LITCHFIELD PARK, AZ US","33.4991","-112.363","317.0","2020",,,"        0",,"         0","7",,,"0"," ,7,1231,+","0.0"," ,7,1231,+","0.95"," ,7,1210, ",,,"1017","0","5.73"," ,7","0.0"," ,7",,,,,,
"USC00026117","ORACLE STATE PARK, AZ US","32.61","-110.7317","1400.6","2020","2594",,,,,,"17","7,0205, ",,,,,"0.72"," ,7,0319, ","106","7,0820, ","2753","2","6.38"," ,7",,,"64.7","7","79.3","7","50.2","7"
"USW00053154","YUMA 27 ENE, AZ US","32.835","-114.1884","189.0","2020","4575",,,,,,"32","R,1205, ",,,,,"0.97"," ,R,0312, ","119","R,0905, ","1046","9","3.86"," ,R",,,"74.6","R","89.2","R","59.9","R"
"USW00053155","WILLIAMS 35 NNW, AZ US","35.7552","-112.3374","1825.8","2020","795",,,,,,"4","R,1213, ",,,,,"0.65"," ,R,0313, ","100","R,0731, ","5250","7","6.78"," ,R",,,"53.7","R","69.2","R","38.1","R"
"USR0000ASTA","STANTON ARIZONA, AZ US","34.1667","-112.7333","1097.3","2020","3540",,,,,,"27","U,0205,+",,,,,,,"108","U,0731,+","1914","1",,,,,"69.7","U","79.1","U","60.3","U"
"USW00093139","PAYSON, AZ US","34.2326","-111.3446","1478.3","2020","1160",,"        0",,"         0","7","17","7,1224,+","0"," ,7,1231,+","0.8"," ,7,0110, ","1.25"," ,7,0311, ","102","7,0801,+",,,"12.04"," ,7","1.7"," ,7","57.9","7","74.7","7","41.0","7"
"USR0000AOLA","OLAF KNOLLS ARIZONA, AZ US","36.5072","-113.8161","883.9","2020","3597",,,,,,"23","U,0204, ",,,,,,,"113","U,0816, ","2254","0",,,,,"68.8","U","80.5","U","57.1","U"
"US1AZPN0025","FLORENCE 9.1 NW, AZ US","33.1080011","-111.507232","465.4","2020",,,,,"         0","N",,,,,"0.0"," ,N,1231,+","0.77"," ,N,0223, ",,,,,"4.07"," ,N","0.0"," ,N",,,,,,
"US1AZNV0042","SHOW LOW 4.2 S, AZ US","34.189592","-110.013096","2009.9","2020",,,"       25",,"         8","N",,,"10"," ,N,0102,+","5.1"," ,N,0319, ","0.98"," ,N,0223, ",,,,,"12.38"," ,N","24.7"," ,N",,,,,,
"USC00026471","PHANTOM RANCH, AZ US","36.1066","-112.0947","771.1","2020",,,"        0",,"         0","7",,,"0"," ,7,1231,+","0.0"," ,7,1231,+","0.48"," ,7,0310, ",,,,,"2.87"," ,7","0.0"," ,7",,,,,,
"US1AZPN0029","SADDLEBROOKE 1.5 ESE, AZ US","32.530375","-110.859303","976.9","2020",,,,,,,,,,,,,"1.03"," ,N,0817, ",,,,,"6.18"," ,N",,,,,,,,
"US1AZPN0027","APACHE JUNCTION 3.2 N, AZ US","33.4563","-111.5425","582.2","2020",,,,,,,,,,,,,"1.00"," ,N,0223, ",,,,,"5.43"," ,N",,,,,,,,
"USS0011R13S","BAR M, AZ US","34.86","-111.61","1948.6","2020",,,"       44",,,,"10","T,0112, ","11"," ,T,0102,+",,,"1.20"," ,T,0222, ",,,"4803","4","12.96"," ,T",,,,,,,"36.1","T"
"US1AZPN0020","APACHE JUNCTION 2.5 WSW, AZ US","33.396045","-111.580659","485.2","2020",,,,,,,,,,,,,"0.81"," ,N,0223, ",,,,,"4.35"," ,N",,,,,,,,
"USC00022782","EAST MESA, AZ US","33.4191","-111.6444","462.7","2020","4520",,"        0",,"         0","7","26","7,0204, ","0"," ,7,1231,+","0.0"," ,7,1231,+","0.95"," ,7,0311, ","116","7,0730, ","1206","1","4.57"," ,7","0.0"," ,7","73.8","7","89.1","7","58.6","7"
"USC00026468","PETRIFIED FOREST NATIONAL PARK, AZ US","34.7994","-109.885","1659.9","2020","1318",,,,"         1","7","3","7,1224, ",,,"3.0"," ,7,0211, ","0.89"," ,7,0413, ","103","7,0713, ","4365","8","5.90"," ,7","3.5"," ,7","56.5","7","73.4","7","39.6","7"
"USC00027435","SAINT JOHNS, AZ US","34.5172","-109.4028","1764.8","2020","1196",,,,"         6","7","5","7,1224, ",,,"6.0"," ,7,1127, ","0.92"," ,7,0211, ","101","7,0731, ","4506","4","5.17"," ,7","14.5"," ,7","56.3","7","73.1","7","39.5","7"
"USR0000ASAG","SAGUARO ARIZONA, AZ US","32.3167","-110.8133","944.9","2020","3932",,,,,,"22","U,0205, ",,,,,,,"112","U,0712, ","1389","9",,,,,"71.8","U","87.7","U","55.8","U"
"US1AZPN0033","CASA GRANDE 6.5 NNW, AZ US","32.960318","-111.784072","453.2","2020",,,,,,,,,,,,,"0.69"," ,N,0821, ",,,,,"2.91"," ,N",,,,,,,,
"USC00023190","FOUNTAIN HILLS, AZ US","33.6027","-111.713","481.6","2020","4244",,"        0",,"         0","7","31","7,0206, ","0"," ,7,1231,+","0.0"," ,7,1231,+","1.50"," ,7,0223, ","115","7,0731, ",,,"5.95"," ,7","0.0"," ,7","73.9","7","86.4","7","61.4","7"
"USW00093167","KINGMAN AIRPORT, AZ US","35.2577","-113.933","1042.4","2020","2666",,,,,,"19","W,1230,+",,,,,"0.91"," ,W,0412, ","112","W,0731, ","3032","3","4.68"," ,W",,,"64.1","W","79.8","W","48.4","W"
"US1AZMR0096","MESA 1.5 SSW, AZ US","33.397783","-111.750085","386.2","2020",,,,,,,,,,,,,"0.72"," ,N,0223, ",,,,,"5.32"," ,N",,,,,,,,
"USR0000ACAN","BRIGHT ANGEL ARIZONA, AZ US","36.2047","-112.0622","2479.2","2020","393",,,,,,"4","U,0203, ",,,,,,,"94","U,0731, ","6462","2",,,,,"49.2","U","62.1","U","36.2","U"
"USS0011R12S","MORMON MOUNTAIN SUMMIT, AZ US","34.97","-111.51","2590.8","2020","381",,"      126",,,,"7","T,0205, ","28"," ,T,0109, ",,,"1.20"," ,T,0319, ","88","T,0731, ",,,"14.07"," ,T",,,"50.6","T","59.1","T","42.0","T"
"USR0000APLE","PLEASANT VALLEY ARIZONA, AZ US","34.0933","-110.9333","1539.2","2020","1482",,,,,,"15","U,0205, ",,,,,,,"105","U,0730, ","3745","6",,,,,"59.4","U","74.8","U","44.0","U"
"USS0012P01S","CHALENDER, AZ US","35.26","-112.06","2164.1","2020",,,"       82",,,,,,"17"," ,T,0112,+",,,"1.20"," ,T,0318, ",,,,,"9.77"," ,T",,,,,,,,
"USC00022659","DOUGLAS, AZ US","31.345","-109.5394","1231.4","2020",,,,,,,,,,,,,,,,,,,,,,,,,,,,
"USC00023501","GLOBE NUMBER 3, AZ US","33.3947","-110.7933","1115.6","2020","2704",,"        0",,"         0","7","22","7,1224, ","0"," ,7,1231,+","0.0","T,7,0101, ","1.30"," ,7,0223, ","110","7,0801, ","2812","0","7.15"," ,7","0.0","T,7","64.9","7","78.7","7","51.2","7"
"USC00025924","NOGALES 6 N, AZ US","31.4554","-110.968","1054.9","2020","2029",,,,,,"14","7,0205, ",,,,,"1.45"," ,7,0715, ","108","7,0712, ","2407","2","9.49"," ,7",,,"63.9","7","83.0","7","44.8","7"
"USC00028998","VAIL 7 N, AZ US","32.1263","-110.7247","908.3","2020",,,,,,,,,,,,,"0.51"," ,7,0121, ",,,,,"5.58"," ,7",,,,,,,,
"US1AZPM0087","TUCSON 8.9 E, AZ US","32.200881","-110.769093","880.0","2020",,,,,,,,,,,,,"0.57"," ,N,0724,+",,,,,"5.50"," ,N",,,,,,,,
"US1AZYV0005","MAYER 8.5 SSE, AZ US","34.2825578","-112.1991239","981.5","2020",,,,,,,,,,,,,"1.15"," ,N,0211, ",,,,,"9.26"," ,N",,,,,,,,
"USR0000ACRO","CROWN KING ARIZONA, AZ US","34.2083","-112.3333","1798.3","2020","1319",,,,,,"16","U,0205,+",,,,,,,"99","U,0816,+","4063","0",,,,,"58.1","U","70.1","U","46.1","U"
"US1AZPM0082","TUCSON 5.8 ENE, AZ US","32.22607","-110.79839","805.9","2020",,,,,,,,,,,,,"0.70"," ,N,0723, ",,,,,"4.90"," ,N",,,,,,,,
"USR0000ASAS","SASABE ARIZONA, AZ US","31.6908","-111.45","1066.8","2020","2504",,,,,,"14","U,0205, ",,,,,,,"110","U,0712, ","2261","3",,,,,"65.4","U","84.2","U","46.6","U"
"US1AZYV0001","PRESCOTT VALLEY 1.1 ESE, AZ US","34.6016","-112.3043","1523.1","2020",,,,,,,,,,,,,"1.12"," ,N,0313, ",,,,,"8.61"," ,N",,,,,,,,
"USS0009S07S","CORONADO TRAIL, AZ US","33.8","-109.15","2560.3","2020","35",,"       71",,,,"4","T,0205, ","11"," ,T,0116, ",,,"0.70"," ,T,0318, ","87","T,0711, ","6432","6","10.65"," ,T",,,"48.2","T","62.2","T","34.2","T"
"USC00029166","WALNUT GROVE, AZ US","34.3117","-112.5619","1147.3","2020",,,"        0",,"         0","7",,,"0"," ,7,1231,+","0.0"," ,7,1231,+","2.40"," ,7,0312, ",,,,,"8.87"," ,7","0.0"," ,7",,,,,,
"US1AZPN0049","ORACLE 1.1 WSW, AZ US","32.6058449","-110.7894298","1375.3","2020",,,,,,,,,,,,,"0.69"," ,N,0319, ",,,,,"6.67"," ,N",,,,,,,,
"USR0000ALBE","LINDBERGH HILL ARIZONA, AZ US","36.2858","-112.0794","2682.2","2020","285",,,,,,"-4","U,0205, ",,,,,,,"93","U,0731, ","6971","6",,,,,"47.6","U","61.0","U","34.2","U"
"US1AZCH0017","SIERRA VISTA 1.3 E, AZ US","31.5489898005297","-110.277607440948","1391.7","2020",,,,,,,,,,,,,"0.50"," ,N,1210, ",,,,,"7.04"," ,N",,,,,,,,
"US1AZMR0448","WADDELL 0.2 W, AZ US","33.5762748718262","-112.453590393066","382.2","2020",,,,,,,,,,,,,"1.62"," ,N,0319, ",,,,,"10.37"," ,N",,,,,,,,
"US1AZMR0326","PHOENIX 6.3 SSW, AZ US","33.350355","-112.094526","399.6","2020",,,,,,,,,,,,,"1.03"," ,N,0312, ",,,,,"5.72"," ,N",,,,,,,,
"USS0012P02S","WHITE HORSE LAKE, AZ US","35.14","-112.15","2188.5","2020","474",,"       78",,,,"11","T,0204, ","18"," ,T,0109, ",,,"1.10"," ,T,0313, ","95","T,0712, ","5216","6","11.56"," ,T",,,"52.9","T","66.3","T","39.4","T"
"US1AZMR0442","MESA 4.3 SW, AZ US","33.37021","-111.864501","367.0","2020",,,,,,,,,,,,,"0.72"," ,N,0223, ",,,,,"4.30"," ,N",,,,,,,,
"USR0000AMUS","MUSIC MOUNTAIN ARIZONA, AZ US","35.6147","-113.7939","1652.0","2020","1611",,,,,,"17","U,0204, ",,,,,,,"103","U,0905, ","4005","9",,,,,"59.1","U","72.0","U","46.1","U"
"USC00028865","TUMACACORI NM, AZ US","31.5677","-111.0497","995.8","2020",,,,,,,,,,,,,"2.02"," ,7,0724, ","106","7,0713, ",,,"13.94"," ,7",,,,,"81.9","7",,
"US1AZMR0207","SCOTTSDALE 3.7 SSW, AZ US","33.451361","-111.918187","363.3","2020",,,,,,,,,,,,,"0.74"," ,N,0312, ",,,,,"5.20"," ,N",,,,,,,,
"USC00020100","ALAMO DAM, AZ US","34.228","-113.5777","393.2","2020","3919",,"        0",,"         0","7","24","7,0111, ","0"," ,7,1231,+","0.0"," ,7,1231,+","1.24"," ,7,0313, ","121","7,0801, ",,,"4.97"," ,7","0.0"," ,7","71.0","7","89.4","7","52.5","7"
"USR0000ACAA","CARR ARIZONA, AZ US","31.445","-110.28","1645.9","2020","2192",,,,,,"21","U,0205,+",,,,,,,"102","U,0712, ","2684","0",,,,,"63.9","U","76.9","U","51.0","U"
"US1AZPM0072","TUCSON 8.3 NE, AZ US","32.275441","-110.784505","808.9","2020",,,,,,,,,,,,,"0.74"," ,N,0319, ",,,,,"4.79"," ,N",,,,,,,,
"US1AZPM0193","TUCSON 10.7 WNW, AZ US","32.2988","-111.076956","714.8","2020",,,,,,,,,,,,,"0.93"," ,N,0724, ",,,,,"5.75"," ,N",,,,,,,,
"USC00027530","SAN MANUEL, AZ US","32.60135","-110.62908","1042.4","2020","3343",,,,,,"26","7,0205, ",,,,,"0.63"," ,7,0211, ","108","7,0731,+","1988","6","4.72"," ,7",,,"68.8","7","81.2","7","56.4","7"
"USC00029158","WALNUT CREEK, AZ US","34.9281","-112.8097","1551.4","2020","850",,"        0",,"         0","7","11","7,1223,+","0"," ,7,1231,+","0.0"," ,7,1231,+","1.02"," ,7,0712,+","107","7,0706, ","4565","0","9.60"," ,7","0.0"," ,7","55.5","7","75.8","7","35.3","7"
"USR0000AMUL","MULESHOE RANCH ARIZONA, AZ US","32.4","-110.2708","1272.5","2020","2456",,,,,,"19","U,0205, ",,,,,,,"106","U,0712, ","2431","8",,,,,"65.1","U","78.7","U","51.5","U"
"USS0009S18S","WILDCAT, AZ US","33.76","-109.48","2392.7","2020",,,,,,,,,,,,,,,,,"5468","8",,,,,,,,,,
"USW00003103","FLAGSTAFF AIRPORT, AZ US","35.1441","-111.6663","2134.5","2020","259",,"       36",,"         8","W","2","W,0110, ","11"," ,W,0111, ","7.6"," ,W,0319, ","1.00"," ,W,0318, ","93","W,0816, ","6649","9","9.63"," ,W","33.1"," ,W","48.3","W","64.2","W","32.4","W"
"USS0009S06S","BEAVER HEAD, AZ US","33.69","-109.22","2435.4","2020","61",,"       65",,,,"3","T,0205, ","11"," ,T,0318, ",,,"1.00"," ,T,0318, ","88","T,0711, ","6252","2","11.55"," ,T",,,"48.7","T","63.2","T","34.2","T"
"USR0000ADRL","DRY LAKE ARIZONA, AZ US","33.3597","-109.8331","2264.1","2020",,,,,,,,,,,,,,,"93","U,0730, ","4579","9",,,,,,,"66.5","U",,
"US1AZCH0022","WHETSTONE 2.6 SW, AZ US","31.686728","-110.380604","1373.7","2020",,,,,,,,,,,,,"1.17"," ,N,0901, ",,,,,"7.64"," ,N",,,,,,,,
"USR0000ASOL","SOLLERS ARIZONA, AZ US","32.4033","-110.7117","2377.4","2020","1143",,,,,,"15","U,0205, ",,,,,,,"93","U,0712, ","3835","4",,,,,"57.9","U","68.3","U","47.6","U"
"USR0000ALAK","LAKESIDE ARIZONA, AZ US","34.16","-109.98","2133.6","2020",,,,,,,,,,,,,,,,,"5454","8",,,,,,,,,,
"USS0011R10S","PROMONTORY, AZ US","34.37","-111.01","2417.1","2020",,,"      128",,,,,,"27"," ,T,0102,+",,,,,,,"5294","9",,,,,,,,,,
"USS0009N05S","BEAVER SPRING, AZ US","36.33","-109.06","2804.2","2020","166",,"      138",,,,"-1","T,0205, ","31"," ,T,0127, ",,,"1.10"," ,T,0121, ","86","T,0820, ","7059","6","13.46"," ,T",,,"46.8","T","56.4","T","37.1","T"
"US1AZMR0313","PHOENIX 10.2 S, AZ US","33.293836","-112.088809","365.5","2020",,,,,,,,,,,,,"1.12"," ,N,0223, ",,,,,"5.44"," ,N",,,,,,,,
"USC00021306","CASA GRANDE, AZ US","32.8875","-111.7147","426.7","2020","4282",,"        0",,"         0","7","27","7,0205, ","0"," ,7,1231,+","0.0"," ,7,1231,+","0.44"," ,7,1210, ","116","7,0712, ",,,"2.40"," ,7","0.0"," ,7","73.6","7","89.9","7","57.2","7"
"US1AZMR0437","WICKENBURG 2.6 WSW, AZ US","33.94779","-112.76271","718.7","2020",,,,,,,,,,,,,"1.18"," ,N,0313, ",,,,,"5.61"," ,N",,,,,,,,
"US1AZCH0027","SIERRA VISTA 7.2 SE, AZ US","31.466052","-110.226688","1390.2","2020",,,,,,,,,,,,,"0.81"," ,N,0319, ",,,,,"7.66"," ,N",,,,,,,,
"USC00021664","CHIRICAHUA NATIONAL MONUMENT, AZ US","32.0061","-109.3572","1615.4","2020",,,,,,,,,,,,,"2.20"," ,7,0727, ",,,,,"12.25"," ,7",,,,,,,,
"USC00028619","TOMBSTONE, AZ US","31.7119","-110.0686","1420.1","2020",,,,,,,,,,,,,"1.79"," ,7,0723, ",,,,,"9.85"," ,7",,,,,,,,
"USC00022754","DUNCAN, AZ US","32.748","-109.1213","1115.6","2020","2159",,,,,,"9","7,1204, ",,,,,"0.67"," ,7,1210, ","113","7,0730,+","2963","4","5.78"," ,7",,,"62.8","7","82.8","7","42.8","7"
"USR0000ADRY","DRY PARK ARIZONA, AZ US","36.45","-112.24","2653.6","2020","176",,,,,,"1","U,0205,+",,,,,,,"89","U,0905,+","7370","3",,,,,"46.5","U","59.6","U","33.3","U"
"US1AZPM0063","FLOWING WELLS 3.1 W, AZ US","32.28607","-111.06222","713.8","2020",,,,,"         0","N",,,,,"0.0"," ,N,1231,+","2.27"," ,N,0724, ",,,,,"6.74"," ,N","0.0"," ,N",,,,,,
"US1AZPM0184","TUCSON 6.2 ENE, AZ US","32.2483","-110.82","774.5","2020",,,,,,,,,,,,,"0.93"," ,N,0724, ",,,,,"5.79"," ,N",,,,,,,,
"USC00023961","HEBER BLACK MESA RANGER STATION, AZ US","34.3925","-110.558","2008.6","2020",,,,,"         5","7",,,,,"4.5"," ,7,1109, ","1.31"," ,7,0222, ",,,"5481","1","11.85"," ,7","14.0"," ,7",,,,,,
"USR0000AALP","ALPINE ARIZONA, AZ US","33.8417","-109.1222","2447.8","2020","263",,,,,,"5","U,0205, ",,,,,,,"88","U,0815,+","5661","9",,,,,"50.8","U","63.7","U","38.0","U"
"USR0000AMTL","MOUNT LOGAN ARIZONA, AZ US","36.3472","-113.1989","2194.6","2020","845",,,,,,"5","U,0204, ",,,,,,,"91","U,0817, ","5567","9",,,,,"52.5","U","60.5","U","44.6","U"
"USC00026796","PRESCOTT, AZ US","34.5706","-112.4322","1586.5","2020","1173",,"        4",,"         3","7","9","7,0205, ","5"," ,7,0211, ","4.8"," ,7,0211, ","1.30"," ,7,0319, ","103","7,0801, ","4436","3","9.05"," ,7","10.4"," ,7","56.6","7","72.9","7","40.3","7"
"US1AZPM0062","TUCSON 8.0 NW, AZ US","32.276347","-110.990448","705.6","2020",,,,,,,,,,,,,"1.85"," ,N,0723, ",,,,,"6.29"," ,N",,,,,,,,
"USR0000ATRA","TRAIL CABIN ARIZONA, AZ US","33.2667","-109.3683","1913.8","2020","1484",,,,,,"18","U,0205, ",,,,,,,"99","U,0711,+","3726","9",,,,,"59.4","U","71.1","U","47.8","U"
"USR0000AVER","VERDE ARIZONA, AZ US","34.5539","-111.8492","944.9","2020","2366",,,,,,"16","U,1204, ",,,,,,,"114","U,0731,+","2823","6",,,,,"63.8","U","83.0","U","44.7","U"
"USC00027880","SIERRA VISTA, AZ US","31.53699","-110.28073","1403.9","2020","2032",,,,,,"17","7,0206,+",,,,,"0.46"," ,7,0723, ","104","7,0828,+","2751","1","6.54"," ,7",,,"63.0","7","79.9","7","46.1","7"
"USW00023184","PRESCOTT LOVE FIELD, AZ US","34.65167","-112.42083","1536.8","2020","1269",,,,,,"11","W,1213, ",,,,,"0.95"," ,W,0310, ","102","W,0731, ","4063","4","6.71"," ,W",,,"57.7","W","72.8","W","42.6","W"
"USW00023183","PHOENIX AIRPORT, AZ US","33.4277","-112.0038","337.4","2020","5362",,,,,,"35","W,0205,+",,,,,"1.04"," ,W,0222, ","118","W,0730, ","860","0","5.00"," ,W",,,"77.2","W","89.5","W","64.9","W"
"US1AZMR0220","PHOENIX 12.8 N, AZ US","33.625797","-112.059055","444.1","2020",,,,,"         0","N",,,,,"0.0"," ,N,1231,+","1.09"," ,N,0313, ",,,,,"5.36"," ,N","0.0"," ,N",,,,,,
"US1AZCN0092","FLAGSTAFF 8.2 NE, AZ US","35.268021","-111.541389","2041.9","2020",,,,,,,,,,,,,"1.00"," ,N,1229,+",,,,,"8.26"," ,N",,,,,,,,
"US1AZMR0343","PHOENIX 5.4 NE, AZ US","33.4912185668945","-111.999328613281","366.1","2020",,,,,,,,,,,,,"0.83"," ,N,0821, ",,,,,"6.04"," ,N",,,,,,,,
"US1AZMR0342","MESA 13.6 ESE, AZ US","33.3476109802723","-111.599920392036","448.7","2020",,,,,,,,,,,,,"0.81"," ,N,0223, ",,,,,"4.50"," ,N",,,,,,,,
"US1AZMR0103","SUN CITY 1.2 NNW, AZ US","33.632146","-112.290324","365.2","2020",,,,,,,,,,,,,"1.73"," ,N,0313, ",,,,,"7.64"," ,N",,,,,,,,
"US1AZMR0466","BUCKEYE 13.7 W, AZ US","33.39289","-112.815469","287.1","2020",,,,,,,,,,,,,"1.59"," ,N,0313, ",,,,,"6.32"," ,N",,,,,,,,
"USR0000AHIL","HILLTOP ARIZONA, AZ US","33.6183","-110.42","1743.5","2020","706",,,,,,"6","U,0101, ",,,,,,,"101","U,0711, ","5156","5",,,,,"53.3","U","71.8","U","34.9","U"
"US1AZMR0344","AVONDALE 3.8 NE, AZ US","33.47435","-112.301731","308.2","2020",,,,,,,,,,,,,"1.19"," ,N,0313, ",,,,,"4.96"," ,N",,,,,,,,
"US1AZPM0294","ORO VALLEY 9.9 SW, AZ US","32.306854","-111.098115","744.6","2020",,,,,,,,,,,,,"0.69"," ,N,0319, ",,,,,"4.52"," ,N",,,,,,,,
"USR0000ACOL","COLUMBINE ARIZONA, AZ US","32.7039","-109.9139","2902.0","2020","29",,,,,,"-1","U,0205, ",,,,,,,"83","U,0730, ","7250","9",,,,,"46.4","U","57.6","U","35.2","U"
"USC00020683","BENSON 6 SE, AZ US","31.8805","-110.2403","1124.7","2020",,,,,,,,,,,,,"1.38"," ,7,0909, ",,,,,"8.24"," ,7",,,,,,,,
"US1AZPM0051","TUCSON 2.5 WNW, AZ US","32.214423","-110.928991","752.9","2020",,,,,,,,,,,,,"0.65"," ,N,0724, ",,,,,"5.06"," ,N",,,,,,,,
"US1AZPM0172","GREEN VALLEY 3.9 NE, AZ US","31.894198","-110.946107","872.6","2020",,,,,,,,,,,,,"0.47"," ,N,0319, ",,,,,"5.03"," ,N",,,,,,,,
"US1AZPM0050","TUCSON 4.1 NNW, AZ US","32.253568","-110.907488","743.7","2020",,,,,,,,,,,,,"1.17"," ,N,0723, ",,,,,"5.00"," ,N",,,,,,,,
"USW00003125","YUMA PROVING GROUND, AZ US","32.8356","-114.3942","98.8","2020","4857",,"        0",,"         0","7","34","7,1205, ","0"," ,7,1231,+","0.0"," ,7,1231,+","1.47"," ,7,0312, ","120","7,0905, ","933","3","3.59"," ,7","0.0"," ,7","75.7","7","89.9","7","61.5","7"
"USR0000ABLA","BLACK HILLS ARIZONA, AZ US","33.0867","-109.9506","1005.8","2020","3528",,,,,,"26","U,1224, ",,,,,,,"113","U,0730, ","2115","0",,,,,"69.0","U","82.3","U","55.7","U"
"US1AZPN0077","QUEEN VALLEY 0.2 E, AZ US","33.29818","-111.2866","627.9","2020",,,,,,,,,,,,,"1.10"," ,N,0319, ",,,,,"5.99"," ,N",,,,,,,,
"USC00023150","FORT THOMAS 2 SW, AZ US","33.0094","-109.9855","864.1","2020","2776",,,,,,"16","7,1225,+",,,,,"0.71"," ,7,0117, ","114","7,0713, ","2735","7","4.55"," ,7",,,"65.1","7","83.7","7","46.4","7"
"USW00023194","WINSLOW AIRPORT, AZ US","35.0281","-110.7208","1489.3","2020","1581",,,,,,"3","W,1204, ",,,,,"0.69"," ,W,0413, ","105","W,0731,+","4240","7","4.32"," ,W",,,"57.8","W","75.7","W","39.8","W"
"US1AZPN0071","SADDLEBROOKE 0.7 S, AZ US","32.52596","-110.886221","1004.3","2020",,,,,,,,,,,,,,,,,,,"6.64"," ,N",,,,,,,,
"USS0011P02S","FORT VALLEY, AZ US","35.27","-111.74","2240.3","2020","95",,"       47",,,,"2","T,1213, ","7"," ,T,0102,+",,,"0.90"," ,T,0313, ","91","T,0816, ","6694","8","8.35"," ,T",,,"47.6","T","64.3","T","30.7","T"
"US1AZPN0075","FLORENCE 2.9 N, AZ US","33.07185","-111.383026","470.9","2020",,,,,,,,,,,,,"0.85"," ,N,0319, ",,,,,"4.12"," ,N",,,,,,,,
"US1AZPN0073","QUEEN CREEK 3.9 ENE, AZ US","33.260615","-111.567608","448.1","2020",,,,,,,,,,,,,"1.01"," ,N,0821, ",,,,,"6.48"," ,N",,,,,,,,
"US1AZMR0456","MORRISTOWN 1.5 NE, AZ US","33.872428","-112.602688","641.9","2020",,,,,,,,,,,,,"1.70"," ,N,0313, ",,,,,"9.93"," ,N",,,,,,,,
"US1AZPM0049","FLOWING WELLS 3.9 W, AZ US","32.302094","-111.075168","708.1","2020",,,,,,,,,,,,,"0.90"," ,N,0319, ",,,,,"5.04"," ,N",,,,,,,,
"US1AZMR0337","MESA 12.1 E, AZ US","33.4064937","-111.610318","476.1","2020",,,,,,,,,,,,,"1.00"," ,N,0223, ",,,,,"4.83"," ,N",,,,,,,,
"US1AZMR0211","PHOENIX 8.8 NNW, AZ US","33.5511","-112.14659","363.3","2020",,,,,,,,,,,,,"1.02"," ,N,0211, ",,,,,"5.54"," ,N",,,,,,,,
"US1AZPM0046","FLOWING WELLS 2.1 NW, AZ US","32.318","-111.031","682.1","2020",,,,,,,,,,,,,"1.28"," ,N,0724, ",,,,,"5.22"," ,N",,,,,,,,
"US1AZPM0047","FLOWING WELLS 6.4 NNW, AZ US","32.382661","-111.037893","756.2","2020",,,,,,,,,,,,,"1.03"," ,N,0821, ",,,,,"5.43"," ,N",,,,,,,,
"USC00020678","BELLEMONT WEATHER FORECAST OFFICE, AZ US","35.2302","-111.8221","2179.9","2020","72",,"       37",,"        10","7","-8","7,0111, ","10"," ,7,0111,+","7.2"," ,7,0319, ","0.88"," ,7,0313, ","92","7,0816,+","7255","5","10.31"," ,7","33.7"," ,7","45.8","7","64.3","7","27.3","7"
"USW00053131","TUCSON 11 W, AZ US","32.2395","-111.1696","833.0","2020","3955",,,,,,"25","R,0205, ",,,,,"0.58"," ,R,0318, ","112","R,0712, ","1450","6","4.12"," ,R",,,"71.7","R","85.7","R","57.8","R"
"US1AZPM0162","ORO VALLEY 4.0 NNW, AZ US","32.446347","-110.973298","888.5","2020",,,,,,,,,,,,,"1.09"," ,N,0817, ",,,,,"6.75"," ,N",,,,,,,,
"USW00053132","ELGIN 5 S, AZ US","31.5907","-110.5087","1466.4","2020","1548",,,,,,"12","R,0205, ",,,,,"1.24"," ,R,0831, ","101","R,0731, ","2957","0","12.58"," ,R",,,"61.2","R","77.8","R","44.5","R"
"US1AZPM0285","ORO VALLEY 5.0 N, AZ US","32.461993","-110.967916","916.8","2020",,,,,,,,,,,,,"1.23"," ,N,0817, ",,,,,"7.22"," ,N",,,,,,,,
"USC00027622","SASABE 7 NW, AZ US","31.6036","-111.6022","1165.9","2020",,,,,,,,,,,,,"1.05"," ,7,0318, ",,,,,"6.93"," ,7",,,,,,,,
"US1AZMR0218","GILBERT 3.6 ENE, AZ US","33.367131","-111.720364","395.3","2020",,,,,,,,,,,,,"0.59"," ,N,0223, ",,,,,"3.90"," ,N",,,,,,,,
"USC00026653","PLEASANT VALLEY, AZ US","34.1003","-110.9659","1579.8","2020","1002",,"        0",,"         0","7","11","7,0204, ","0"," ,7,1231,+","0.6"," ,7,0210,+","1.43"," ,7,0222, ","101","7,0731,+","4427","6","9.94"," ,7","1.2"," ,7","56.5","7","72.5","7","40.5","7"
"US1AZPM0160","TUCSON 10.3 NNW, AZ US","32.353122","-111.000341","743.1","2020",,,,,,,,,,,,,"0.78"," ,N,0319, ",,,,,"4.82"," ,N",,,,,,,,
