"STATION","NAME","LATITUDE","LONGITUDE","ELEVATION","DATE","CDSD","CDSD_ATTRIBUTES","DSND","DSND_ATTRIBUTES","DSNW","DSNW_ATTRIBUTES","EMNT","EMNT_ATTRIBUTES","EMSD","EMSD_ATTRIBUTES","EMSN","EMSN_ATTRIBUTES","EMXP","EMXP_ATTRIBUTES","EMXT","EMXT_ATTRIBUTES","HDSD","HDSD_ATTRIBUTES","PRCP","PRCP_ATTRIBUTES","SNOW","SNOW_ATTRIBUTES","TAVG","TAVG_ATTRIBUTES","TMAX","TMAX_ATTRIBUTES","TMIN","TMIN_ATTRIBUTES"
"USR0000CDIA","DIABLO GRANDE CALIFORNIA, CA US","37.3292","-121.2939","563.9","2007","1398",,,,,,"28","U,0113, ",,,,,,,"102","U,0706, ","2460","7",,,,,"61.8","U","71.2","U","52.5","U"
"USR0000CTHO","THOMES CREEK CALIFORNIA, CA US","39.8644","-122.6097","317.0","2007","2304",,,,,,"28","U,0113, ",,,,,,,"112","U,0704, ","2233","7",,,,,"65.1","U","76.7","U","53.5","U"
"USC00049099","TWENTYNINE PALMS, CA US","34.128","-116.0369","602.0","2007",,,"        0",,"         0","0","19","0,0114, ","0"," ,0,1231,+","0.0"," ,0,1231,+","1.27"," ,0,1201, ",,,"1401","1","3.54"," ,0","0.0"," ,0",,,,,"57.5","0"
"USR0000CRDR","READER RANCH CALIFORNIA, CA US","39.3036","-121.1172","599.8","2007","1395",,,,,,"23","U,0114, ",,,,,,,"110","U,0705, ","2781","1",,,,,"60.9","U","74.6","U","47.3","U"
"USR0000CTHS","THOUSAND OAKS CALIFORNIA, CA US","34.21","-118.87","242.3","2007","639",,,,,,"27","U,0114, ",,,,,,,"99","U,0902, ","1862","2",,,,,"61.2","U","70.9","U","51.6","U"
"USR0000CBEA","BEAR PEAK CALIFORNIA, CA US","35.8842","-118.0517","2507.9","2007","270",,,,,,"0","U,0112, ",,,,,,,"86","U,0705,+","5956","9",,,,,"48.6","U","56.8","U","40.4","U"
"USR0000CABS","ARBUCKLE BASIN CALIFORNIA, CA US","40.3983","-122.8333","579.1","2007","1666",,,,,,"23","U,0112, ",,,,,,,"110","U,0704, ","2826","8",,,,,"61.6","U","72.2","U","51.0","U"
"USR0000CSFD","SANTA FE DAM CALIFORNIA, CA US","34.1208","-117.9458","152.4","2007","1763",,,,,,"31","U,0115, ",,,,,,,"112","U,0902, ",,,,,,,"66.8","U","80.7","U","52.8","U"
"USR0000CBDY","BRADLEY CALIFORNIA, CA US","35.8644","-120.8031","163.7","2007","1220",,,,,,"9","U,0114, ",,,,,,,"117","U,0705, ","2389","4",,,,,"61.9","U","81.2","U","42.7","U"
"USR0000CJUA","JUANITA LAKE CALIFORNIA, CA US","41.7861","-122.0056","1645.9","2007","339",,,,,,"5","U,0112, ",,,,,,,"97","U,0705,+",,,,,,,"49.1","U","60.5","U","37.6","U"
"USC00041244","BUTTONWILLOW, CA US","35.4028","-119.47","68.6","2007","1949",,"        0",,"         0","0","16","0,0114, ","0"," ,0,1231,+","0.0"," ,0,1231,+","0.27"," ,0,1030, ","110","0,0706, ","2256","1","2.44"," ,0","0.0"," ,0","64.0","0","78.1","0","50.0","0"
"USC00047902","SANTA BARBARA, CA US","34.4167","-119.6844","4.9","2007",,,"        0",,"         0","0",,,"0"," ,0,1231,+","0.0"," ,0,1231,+",,,,,,,,,"0.0"," ,0",,,,,,
"USR0000CBEN","BENTON CALIFORNIA, CA US","37.8431","-118.4778","1661.2","2007","839",,,,,,"1","U,0113, ",,,,,,,"104","U,0705,+","5060","1",,,,,"53.2","U","71.4","U","34.9","U"
"USC00042214","CULVER CITY, CA US","34.005","-118.4139","28.0","2007",,,"        0",,"         0","0",,,"0"," ,0,1231,+","0.0"," ,0,1231,+","1.20"," ,0,1219, ",,,,,"5.14"," ,0","0.0"," ,0",,,,,,
"USC00042456","DOBBINS 1 S, CA US","39.3575","-121.2011","499.9","2007","787",,"        0",,"         0","0","17","0,0116,+","0"," ,0,1231,+","0.0"," ,0,1231,+","2.69"," ,0,0209, ","105","0,0705, ","3084","1","32.00"," ,0","0.0"," ,0","58.4","0","74.0","0","42.9","0"
"USC00045721","MITCHELL CAVERNS, CA US","34.9436","-115.5469","1325.9","2007",,,"        0",,"         0","0",,,"0","T,0,0223, ","0.0","T,0,1208,+","2.26"," ,0,1201, ","105","0,0706, ",,,"8.39"," ,0","0.0","T,0",,,"72.4","0",,
"USR0000CGOR","GORDON CALIFORNIA, CA US","40.7586","-120.8961","1889.8","2007","144",,,,,,"-1","U,0112, ",,,,,,,"97","U,0705, ","6893","5",,,,,"45.3","U","58.6","U","32.0","U"
"USC00044997","LIVERMORE, CA US","37.68194","-121.75139","161.2","2007","822",,"        0",,"         0","0","22","0,0114,+","0"," ,0,1231,+","0.0"," ,0,1231,+","0.78"," ,0,0210, ","108","0,0705, ","2420","6","9.41"," ,0","0.0"," ,0","60.5","0","73.6","0","47.4","0"
"USC00043669","GROVELAND 2, CA US","37.8444","-120.2258","853.4","2007",,,"        0",,"         0","0",,,"0"," ,0,1231,+","0.0"," ,0,1231,+","2.00"," ,0,0227, ",,,,,"24.12"," ,0","0.0"," ,0",,,,,,
"USR0000CREA","REDDING AIRPORT CALIFORNIA, CA US","40.5158","-122.2906","152.4","2007","1804",,,,,,"20","U,0114, ",,,,,,,"114","U,0704, ","2556","1",,,,,"62.8","U","77.6","U","48.0","U"
"USR0000CWOF","WOFFORD HEIGHTS CALIFORNIA, CA US","35.7217","-118.4989","960.1","2007","1491",,,,,,"6","U,0112, ",,,,,,,"108","U,0704, ","2969","6",,,,,"60.3","U","73.0","U","47.6","U"
"USR0000CJUN","JUNIPER CREEK CALIFORNIA, CA US","41.3322","-120.4725","1332.6","2007","404",,,,,,"1","U,1231,+",,,,,,,"106","U,0705, ","6061","2",,,,,"48.9","U","63.9","U","33.9","U"
"USR0000CLYO","LYONS VALLEY CALIFORNIA, CA US","39.1258","-123.0736","975.4","2007","917",,,,,,"24","U,0112,+",,,,,,,"101","U,0705, ","3704","9",,,,,"56.5","U","65.2","U","47.8","U"
"USR0000CJUL","JULIAN CALIFORNIA, CA US","33.0758","-116.5908","1292.4","2007","1279",,,,,,"18","U,0114, ",,,,,,,"107","U,0705, ","3087","8",,,,,"59.6","U","70.8","U","48.5","U"
"USR0000CGOO","GOOSE VALLEY CALIFORNIA, CA US","33.0736","-116.8458","466.3","2007","1094",,,,,,"22","U,0114, ",,,,,,,"107","U,0901, ","1931","8",,,,,"62.3","U","78.3","U","46.4","U"
"USR0000CLYT","LYTLE CREEK CALIFORNIA, CA US","34.2339","-117.4803","851.0","2007","1451",,,,,,"23","U,0114, ",,,,,,,"109","U,0829, ","2154","9",,,,,"62.6","U","76.6","U","48.7","U"
"USC00042574","DUNSMUIR TREATMENT PLANT, CA US","41.1831","-122.28167","661.1","2007","589",,"       16",,,,"18","0,0113, ","6"," ,0,0227, ",,,,,"105","0,0705,+","4007","2",,,,,"54.5","0","69.9","0","39.1","0"
"USR0000CSEC","SECRET TOWN CALIFORNIA, CA US","39.1836","-120.8847","861.4","2007","1055",,,,,,"15","U,0113, ",,,,,,,"107","U,0705, ","3181","2",,,,,"58.9","U","74.2","U","43.6","U"
"USR0000CRCH","RANCHITA CALIFORNIA, CA US","33.2222","-116.4975","1345.7","2007","1574",,,,,,"18","U,0114, ",,,,,,,"101","U,0705, ","2996","4",,,,,"60.8","U","70.4","U","51.1","U"
"USW00023213","SANTA ROSA SONOMA CO AIRPORT, CA US","38.5038","-122.8102","34.7","2007","356",,,,,,"20","0,0115, ",,,,,"1.52"," ,0,0208, ","102","0,0723, ","3076","9","21.22"," ,0",,,"57.4","0","71.7","0","43.2","0"
"USC00041497","CANYON DAM, CA US","40.1705","-121.0886","1389.9","2007","219",,"       44",,"        15","0","7","0,0113, ","35"," ,0,0301,+","12.0"," ,0,0225, ","1.50"," ,0,0209, ","98","0,0705, ","5846","9","24.04"," ,0","67.8"," ,0","48.4","0","62.3","0","34.4","0"
"USC00042346","DELANO, CA US","35.7683","-119.26","92.0","2007",,,,,,,,,,,,,"0.73"," ,0,0321, ",,,,,"4.62"," ,0",,,,,,,,
"USC00042467","DONNER MEMORIAL ST PARK, CA US","39.3239","-120.2331","1809.6","2007",,,,,,,,,,,,,,,,,,,,,,,,,,,,
"USC00040161","ALTURAS, CA US","41.4901","-120.5437","1334.4","2007",,,"        0",,"         0","0",,,"0"," ,0,1231,+","0.0"," ,0,1231,+",,,,,,,,,"0.0"," ,0",,,,,,
"USC00041018","BOWMAN DAM, CA US","39.4539","-120.6556","1641.3","2007",,,"       78",,"        18","0",,,"52"," ,0,0228, ","14.0"," ,0,0422,+",,,"94","0,0708, ",,,"49.87"," ,0","152.0"," ,0",,,"62.6","0",,
"USC00047916","SANTA CRUZ, CA US","36.98785","-121.99952","21.3","2007","104",,"        0",,"         0","0","26","0,0115,+","0"," ,0,1231,+","0.0"," ,0,1231,+","1.46"," ,0,1218, ","89","0,1024,+","2997","1","15.23"," ,0","0.0"," ,0","57.0","0","67.2","0","46.8","0"
"USC00046946","PIT RIVER PH 5, CA US","40.9869","-121.9772","444.4","2007",,,"        4",,"         1","0",,,"1"," ,0,0302,+","2.0"," ,0,0228, ","3.11"," ,0,1019, ",,,,,"52.66"," ,0","2.0"," ,0",,,,,,
"USC00046826","PETALUMA AIRPORT, CA US","38.2577","-122.6077","6.1","2007",,,"        0",,"         0","0","21","0,0115,+","0"," ,0,1231,+","0.0"," ,0,1231,+","0.85"," ,0,0210, ",,,,,"14.28"," ,0","0.0"," ,0",,,,,"45.0","0"
"USC00043551","GRANT GROVE, CA US","36.73751","-118.96197","2005.6","2007","166",,"      124",,"        23","0","3","0,0115, ","42"," ,0,0301, ","22.0"," ,0,0224, ","3.02"," ,0,1219, ","90","0,0706,+","5997","8","25.69"," ,0","111.4"," ,0","47.8","0","58.6","0","37.0","0"
"USC00046940","PIRU 2 ESE, CA US","34.4061","-118.7569","217.0","2007",,,"        0",,"         0","0",,,"0"," ,0,1231,+","0.0"," ,0,1231,+",,,,,,,,,"0.0"," ,0",,,,,,
"USC00044881","LEE VINING, CA US","37.9567","-119.1194","2071.7","2007",,,,,,,,,,,,,,,,,,,,,,,,,,,,
"USR0000CUHL","UHL HOT SPRINGS, CA US","35.8889","-118.6333","1133.9","2007","1073",,,,,,"18","U,0114,+",,,,,,,"109","U,0706, ","3538","5",,,,,"57.6","U","70.5","U","44.8","U"
"USW00093210","OROVILLE MUNICIPAL AIRPORT, CA US","39.49","-121.61833","57.9","2007","1647",,,,,,"25","W,0114, ",,,,,"1.10"," ,W,0208, ","109","W,0705, ","2383","7","15.92"," ,W",,,"62.9","W","75.6","W","50.3","W"
"USC00046719","PASADENA, CA US","34.1483","-118.1447","263.3","2007","1505",,"        0",,"         0","0","31","0,0114, ","0"," ,0,1231,+","0.0"," ,0,1231,+","1.50"," ,0,1219,+","106","0,0903,+",,,"9.80"," ,0","0.0"," ,0","66.4","0","77.2","0","55.6","0"
"USR0000CSDC","SODA CREEK CALIFORNIA, CA US","39.425","-122.9772","540.4","2007","647",,,,,,"12","U,0113, ",,,,,,,"110","U,0705, ","3973","4",,,,,"55.4","U","73.6","U","37.1","U"
"USC00044534","KETTLEMAN CITY, CA US","36.0067","-119.96","73.2","2007","2013",,"        0",,"         0","0","15","0,0114, ","0"," ,0,1231,+","0.0"," ,0,1231,+","0.50"," ,0,1220, ","112","0,0707, ",,,"3.09"," ,0","0.0"," ,0","64.2","0","78.3","0","50.2","0"
"USC00045866","MORRO BAY FIRE DEPARTMENT, CA US","35.367","-120.8447","36.0","2007",,,"        0",,"         0","0",,,"0"," ,0,1231,+","0.0"," ,0,1231,+",,,,,,,,,"0.0"," ,0",,,,,,
"USW00093209","PASO ROBLES MUNICIPAL AIRPORT, CA US","35.6697","-120.6283","246.9","2007","959",,,,,,"12","0,0113, ",,,,,"1.13"," ,0,1218, ","110","0,0705, ","2723","0","4.20"," ,0",,,"60.1","0","77.3","0","42.8","0"
"USC00042598","EAGLE MOUNTAIN, CA US","33.8089","-115.4508","296.6","2007","4227",,"        0",,"         0","0","28","0,0114, ","0"," ,0,1231,+","0.0"," ,0,1231,+","0.86"," ,0,1201, ","114","0,0706,+","1101","9","2.20"," ,0","0.0"," ,0","73.5","0","83.9","0","63.1","0"
"USC00044412","JULIAN CDF, CA US","33.0763","-116.5925","1284.7","2007",,,,,,,,,,,,,,,,,,,,,,,,,,,,
"USR0000CHOR","HORSE THIEF SPRINGS CALIFORNIA, CA US","35.7706","-115.9092","1524.0","2007","2005",,,,,,"11","U,0113, ",,,,,,,"104","U,0705,+","3146","6",,,,,"61.4","U","71.0","U","51.9","U"
"USC00045502","MECCA FIRE STATION, CA US","33.5697","-116.073","-55.8","2007",,,"        0",,"         0","0",,,"0","T,0,0117, ","0.0"," ,0,1231,+","0.91"," ,0,1130, ",,,,,"1.61"," ,0","0.0"," ,0",,,,,,
"USC00041149","BUCKHORN, CA US","40.87972","-121.93168","1127.8","2007",,,"        0",,"         0","0",,,"0"," ,0,1231,+","0.0"," ,0,1231,+","2.56"," ,0,0422, ",,,,,"50.42"," ,0","0.0"," ,0",,,,,,
"USC00042239","CUYAMACA, CA US","32.9897","-116.5872","1414.3","2007","558",,,,"         4","0","9","0,0115,+",,,"3.0"," ,0,0421,+","3.47"," ,0,1201, ","103","0,0706, ","4311","2","17.43"," ,0","11.9"," ,0","53.7","0","67.8","0","39.6","0"
"USR0000CDGR","DEVILS GARDEN CALIFORNIA, CA US","41.53","-120.6714","1530.7","2007","362",,,,,,"2","U,1221,+",,,,,,,"102","U,0705, ","6301","7",,,,,"47.7","U","60.4","U","35.0","U"
"USR0000CBCN","BELL CANYON CALIFORNIA, CA US","33.5417","-117.5917","213.4","2007",,,,,,,,,,,,,,,,,"1264","3",,,,,,,,,,
"USC00044890","LEMON COVE, CA US","36.3817","-119.0264","156.4","2007","1861",,"        0",,"         0","0","23","0,0115, ","0"," ,0,1231,+","0.0"," ,0,1231,+","1.68"," ,0,0321, ","113","0,0707, ","2252","0","10.47"," ,0","0.0"," ,0","63.8","0","78.4","0","49.2","0"
"USC00045983","MOUNT SHASTA, CA US","41.32191","-122.31777","1101.2","2007","315",,"       45",,"        19","0","9","0,0115,+","12"," ,0,0228,+","8.0"," ,0,1202, ","2.80"," ,0,0221, ","102","0,0705, ","5349","8","27.71"," ,0","56.2"," ,0","50.2","0","64.5","0","35.9","0"
"USR0000CHOO","HOOPA CALIFORNIA, CA US","41.0478","-123.6714","114.3","2007","649",,,,,,"21","U,0114, ",,,,,,,"103","U,0824,+","3341","9",,,,,"57.4","U","69.7","U","45.1","U"
"USW00093205","MARYSVILLE AIRPORT ASOS, CA US","39.1019","-121.5677","18.9","2007",,,,,,,,,,,,,"0.89"," ,0,0210, ",,,"2611","5","12.56"," ,0",,,,,,,,
"USW00093206","SAN LUIS OBISPO MCCHESNEY FIELD, CA US","35.23722","-120.64139","61.0","2007","262",,,,,,"21","W,0114, ",,,,,"2.40"," ,W,1218, ","105","W,0902, ","2232","0","8.93"," ,W",,,"59.3","W","71.9","W","46.7","W"
"USR0000CHOL","HORSE LAKE CALIFORNIA, CA US","40.6306","-120.5028","1554.5","2007","284",,,,,,"-2","U,1231,+",,,,,,,"103","U,0705, ","6625","8",,,,,"47.0","U","63.0","U","31.1","U"
"USS0020H12S","DISMAL SWAMP, CA US","41.99","-120.18","2243.3","2007","11",,"      199",,,,"-4","T,0113, ","85"," ,T,0227, ",,,"2.30"," ,T,1019, ","86","T,0705, ","8694","8","38.76"," ,T",,,"40.3","T","50.3","T","30.4","T"
"USR0000CSCI","SANTA CRUZ ISLAND CALIFORNIA, CA US","33.9958","-119.7222","76.2","2007","581",,,,,,"27","U,0114, ",,,,,,,"104","U,0903,+","1835","4",,,,,"61.1","U","74.2","U","48.1","U"
"USR0000CSCN","SCORPION CALIFORNIA, CA US","41.1117","-122.6967","1341.1","2007","927",,,,,,"18","U,0113,+",,,,,,,"106","U,0705, ",,,,,,,"55.8","U","68.6","U","43.0","U"
"USR0000CBAR","BARNABY CALIFORNIA, CA US","38.0281","-122.7022","378.0","2007","205",,,,,,"31","U,0114, ",,,,,,,"95","U,0829, ","3122","2",,,,,"56.5","U","66.8","U","46.2","U"
"USR0000CFIV","FIVE MILE CALIFORNIA, CA US","35.8717","-117.9183","1264.9","2007","2714",,,,,,"18","U,0113, ",,,,,,,"109","U,0705, ","2173","0",,,,,"66.1","U","76.0","U","56.1","U"
"USR0000CDES","DESCANSO CALIFORNIA, CA US","32.8569","-116.6222","1060.7","2007","1202",,,,,,"17","U,0114, ",,,,,,,"104","U,0706,+","2816","7",,,,,"60.3","U","75.8","U","44.9","U"
"USR0000CBAT","BATTERSON CALIFORNIA, CA US","37.2319","-119.5083","963.2","2007","1702",,,,,,"19","U,0113, ",,,,,,,"108","U,0705, ","2960","6",,,,,"61.2","U","73.9","U","48.5","U"
"USR0000CYOL","YOLLA BOLLA CALIFORNIA, CA US","40.3375","-123.0656","1378.8","2007","605",,,,,,"12","U,0112, ",,,,,,,"102","U,0704, ","4622","0",,,,,"53.3","U","66.7","U","39.9","U"
"USC00041277","CALAVERAS BIG TREES, CA US","38.2769","-120.3113","1431.0","2007","257",,,,"        17","0","12","0,0113, ",,,"16.0"," ,0,0227, ","2.79"," ,0,0227, ","93","0,0706, ","5489","5","34.82"," ,0","86.1"," ,0","50.3","0","60.5","0","40.0","0"
"USC00044303","IRVINE RANCH, CA US","33.72","-117.723","164.6","2007","1307",,"        0",,"         0","0","30","0,0114, ","0"," ,0,1231,+","0.0"," ,0,1231,+","1.92"," ,0,1130, ","107","0,0902, ","1058","8","5.65"," ,0","0.0"," ,0","65.4","0","78.6","0","52.2","0"
"USC00047813","SAN JACINTO, CA US","33.7965","-116.9753","464.8","2007",,,,,"         0","0",,,,,"0.0"," ,0,1231,+","2.90"," ,0,1201, ",,,,,"7.16"," ,0","0.0"," ,0",,,,,,
"USC00047933","SANTA MARGARITA BOOST, CA US","35.3741","-120.6375","349.9","2007",,,"        0",,"         0","0",,,"0"," ,0,1231,+","0.0"," ,0,1231,+","3.36"," ,0,1219, ",,,,,"16.54"," ,0","0.0"," ,0",,,,,,
"USC00041159","BUCKS CREEK, CA US","39.9372","-121.3147","576.4","2007",,,"        0",,"         0","0",,,"0"," ,0,1231,+","0.0"," ,0,1231,+",,,,,,,,,"0.0"," ,0",,,,,,
"USC00043578","GRATON, CA US","38.4305","-122.8647","61.0","2007","322",,"        0",,"         0","0","19","0,0114, ","0"," ,0,1231,+","0.0"," ,0,1231,+","2.40"," ,0,0209, ","102","0,0903, ","3099","8","27.31"," ,0","0.0"," ,0","57.5","0","73.9","0","41.1","0"
"USC00046602","PACOIMA DAM FC33A E, CA US","34.3294","-118.4005","472.4","2007",,,"        0",,"         0","0",,,"0"," ,0,1231,+","0.0"," ,0,1231,+","1.10"," ,0,1219, ",,,,,"8.96"," ,0","0.0"," ,0",,,,,,
"USC00048904","THOUSAND OAKS 1 SW, CA US","34.18194","-118.89861","238.7","2007","866",,"        0",,"         0","0","25","0,0114, ","0"," ,0,1231,+","0.0"," ,0,1231,+","0.52"," ,0,0127, ","103","0,0903,+","1721","3","4.77"," ,0","0.0"," ,0","62.2","0","74.0","0","50.3","0"
"USR0000CHNM","HUNTER MOUNTAIN CALIFORNIA, CA US","36.5625","-117.4736","2097.0","2007","708",,,,,,"3","U,0113, ",,,,,,,"96","U,0705,+","5293","6",,,,,"52.0","U","63.4","U","40.6","U"
"USR0000CRAV","RAVENDALE CALIFORNIA, CA US","40.7308","-120.3164","1614.8","2007","381",,,,,,"-4","U,1231, ",,,,,,,"102","U,0705, ","6396","3",,,,,"47.8","U","62.5","U","33.1","U"
"USC00044422","JUNCAL DAM, CA US","34.4908","-119.5069","688.8","2007",,,"        0",,"         0","0",,,"0"," ,0,1231,+","0.0"," ,0,1231,+","4.60"," ,0,1218, ",,,,,"12.74"," ,0","0.0"," ,0",,,,,,
"USC00046960","PLACERVILLE, CA US","38.6955","-120.8244","563.9","2007",,,"        0",,,,,,"0"," ,0,1231,+",,,"3.38"," ,0,0212, ",,,,,"24.67"," ,0",,,,,,,,
"USW00024216","RED BLUFF MUNICIPAL AIRPORT, CA US","40.1519","-122.2536","107.6","2007","1795",,,,,,"20","X,0114, ",,,,,"1.31"," ,X,0210, ","111","X,0706,+","2528","5","12.29"," ,X",,,"63.0","X","76.5","X","49.4","X"
"USW00023129","LONG BEACH DAUGHERTY AIRPORT, CA US","33.8116","-118.1463","9.4","2007","1176",,,,,,"31","0,0115,+",,,,,"0.91"," ,0,1130, ","103","0,0903, ","1163","1","4.31"," ,0",,,"64.9","0","74.0","0","55.9","0"
"USW00023244","MOFFETT FEDERAL AIRFIELD, CA US","37.4058","-122.0481","11.9","2007","358",,,,,,"27","W,0115, ",,,,,"0.69"," ,W,1012, ","92","W,0507, ","2370","7","7.80"," ,W",,,"59.4","W","68.8","W","49.9","W"
"USW00024215","MOUNT SHASTA, CA US","41.3325","-122.33278","1077.5","2007","300",,,,,,"11","W,0115, ",,,,,"2.55"," ,W,0221, ","100","W,0705, ","5312","2","24.17"," ,W",,,"50.4","W","63.9","W","37.0","W"
"USW00024213","EUREKA WEATHER FORECAST OFFICE WOODLEY ISLAND, CA US","40.8097","-124.1602","6.1","2007","7",,"        0",,"         0","0","25","0,0113, ","0","T,0,1226, ","0.0","T,0,1226,+","2.32"," ,0,0221, ","74","0,1023,+","4746","6","36.48"," ,0","0.0","T,0","52.3","0","58.9","0","45.7","0"
"USC00041288","CALEXICO, CA US","32.6881","-115.4644","3.7","2007",,,"        0",,"         0","0",,,"0"," ,0,1231,+","0.0"," ,0,1231,+","1.07"," ,0,1130, ",,,,,"1.59"," ,0","0.0"," ,0",,,,,,
"USC00044555","KING CITY, CA US","36.2069","-121.1377","97.5","2007",,,"        0",,"         0","0","17","0,0114,+","0"," ,0,1231,+","0.0"," ,0,1231,+","0.50"," ,0,0222, ",,,,,"4.31"," ,0","0.0"," ,0",,,,,"44.1","0"
"USR0000CFIS","FISH CREEK MOUNTAIN CALIFORNIA, CA US","32.9903","-116.0669","231.6","2007","5428",,,,,,"36","U,0114, ",,,,,,,"117","U,0704, ","519","2",,,,,"78.1","U","87.6","U","68.6","U"
"USC00048917","THREE RIVERS EDISON PH 1, CA US","36.465","-118.8619","347.5","2007",,,,,"         0","0",,,,,"0.0"," ,0,1231,+",,,,,,,,,"0.0"," ,0",,,,,,
"USC00040192","ANAHEIM, CA US","33.8647","-117.8425","71.6","2007",,,,,,,,,,,,,,,,,"744","3",,,,,,,,,,
"USR0000CBAL","BALD MOUNTAIN LOC CALIFORNIA, CA US","38.9056","-120.6972","1426.5","2007","1122",,,,,,"14","U,0113, ",,,,,,,"102","U,0705, ",,,,,,,"57.3","U","67.9","U","46.7","U"
"USR0000CBAC","BACKBONE CALIFORNIA, CA US","40.8892","-123.1422","1432.6","2007","757",,,,,,"15","U,0112, ",,,,,,,"100","U,0705, ","4615","9",,,,,"53.7","U","64.5","U","42.9","U"
"USC00043463","GLENNVILLE, CA US","35.7269","-118.7006","957.1","2007","457",,"        0",,"         0","0","10","0,0113, ","0"," ,0,1231,+","0.4"," ,0,1228, ","1.20"," ,0,0415, ","104","0,0707, ","4113","1","14.70"," ,0","0.4"," ,0","54.0","0","70.2","0","37.8","0"
"USC00044673","LAKE BERRYESSA, CA US","38.57944","-122.25","138.7","2007",,,"        0",,"         0","0",,,"0"," ,0,1231,+","0.0"," ,0,1231,+",,,,,,,,,"0.0"," ,0",,,,,,
"USC00045400","MATHER, CA US","37.885","-119.8561","1374.6","2007",,,,,,,,,,,,,,,,,,,,,,,,,,,,
"USC00046610","PAICINES 4 W, CA US","36.715","-121.34917","275.8","2007",,,,,,,,,,,,,,,,,,,,,,,,,,,,
"USC00042012","CORCORAN IRRIGATION DIST., CA US","36.0975","-119.5817","61.0","2007","2021",,"        0",,"         0","0","19","0,0114,+","0"," ,0,1231,+","0.0"," ,0,1231,+","0.58"," ,0,0210, ","111","0,0706,+","2250","9","4.50"," ,0","0.0"," ,0","64.2","0","78.7","0","49.8","0"
"USC00046730","PASO ROBLES, CA US","35.6277","-120.6855","222.5","2007","885",,"        0",,"         0","0","13","0,0115,+","0"," ,0,1231,+","0.0"," ,0,1231,+","1.45"," ,0,1219, ","108","0,0830,+","2856","9","7.78"," ,0","0.0"," ,0","59.6","0","77.3","0","41.8","0"
"USW00023130","VAN NUYS AIRPORT, CA US","34.20972","-118.48917","234.7","2007","1614",,,,,,"26","W,0114, ",,,,,"0.60"," ,W,1130,+","110","W,0902, ","1198","7","5.52"," ,W",,,"65.7","W","77.7","W","53.7","W"
"USR0000COZE","OZENA CALIFORNIA, CA US","34.6819","-119.3539","1118.6","2007","1079",,,,,,"7","U,0113, ",,,,,,,"110","U,0705, ","3093","1",,,,,"59.1","U","78.1","U","40.1","U"
"USR0000CWIL","WILEY RIDGE CALIFORNIA, CA US","34.3717","-118.8408","501.4","2007","1568",,,,,,"30","U,0114, ",,,,,,,"107","U,0902,+","1566","9",,,,,"64.5","U","74.5","U","54.6","U"
"USW00023254","CONCORD BUCHANAN FIELD, CA US","37.9917","-122.055","5.5","2007","867",,,,,,"24","0,0113, ",,,,,"0.93"," ,0,0210, ","104","0,0704, ","2336","8","9.38"," ,0",,,"60.8","0","73.2","0","48.4","0"
"USR0000CHLD","HOPLAND CALIFORNIA, CA US","39.0308","-123.0806","817.5","2007","889",,,,,,"26","U,0112, ",,,,,,,"102","U,0705, ","3363","1",,,,,"57.8","U","67.5","U","47.9","U"
"USR0000CIND","INDIAN WELL CALIFORNIA, CA US","41.7417","-121.5383","1453.9","2007","453",,,,,,"5","U,0112, ",,,,,,,"102","U,0705, ","5620","0",,,,,"50.0","U","62.9","U","37.0","U"
"USR0000CCAR","CARRIZO CALIFORNIA, CA US","35.0964","-119.7728","759.0","2007","1736",,,,,,"23","U,0113, ",,,,,,,"109","U,0705, ","2328","4",,,,,"62.8","U","74.0","U","51.7","U"
"USW00023259","MONTEREY PENINSUL AIRPORT, CA US","36.5881","-121.8453","50.3","2007","47",,,,,,"25","W,0113, ",,,,,"0.55"," ,W,0222, ","88","W,0926, ","3323","4","6.08"," ,W",,,"56.5","W","64.4","W","48.5","W"
"USR0000CSAD","SADDLEBACK BUTTE CALIFORNIA, CA US","34.6847","-117.8208","789.4","2007","1999",,,,,,"3","U,0113, ",,,,,,,"113","U,0705, ","2830","4",,,,,"62.7","U","80.1","U","45.3","U"
"USW00023258","MODESTO AIRPORT, CA US","37.6241","-120.9505","22.3","2007","1808",,,,,,"23","0,0114, ",,,,,"0.55"," ,0,1012, ","110","0,0705, ","2161","8","7.39"," ,0",,,"64.2","0","77.4","0","51.0","0"
"USR0000CCAS","CASE SPRINGS CALIFORNIA, CA US","33.445","-117.4181","707.1","2007","1347",,,,,,"32","U,0114, ",,,,,,,"101","U,0903, ","2120","9",,,,,"62.4","U","70.8","U","54.0","U"
"USR0000CSAC","SACRAMENTO NWR CALIFORNIA, CA US","39.4172","-122.1825","36.6","2007","1410",,,,,,"25","U,0116,+",,,,,,,"105","U,0705, ","2247","5",,,,,"62.6","U","75.8","U","49.4","U"
"USW00023136","CAMARILLO AIRPORT, CA US","34.21667","-119.08333","23.5","2007","420",,,,,,"27","W,0114, ",,,,,"0.85"," ,W,0127, ","99","W,1024, ","2056","0","3.44"," ,W",,,"60.3","W","71.0","W","49.6","W"
"USW00023257","MERCED MUNICIPAL AIRPORT, CA US","37.28472","-120.51278","46.3","2007","1375",,,,,,"19","W,0115, ",,,,,"0.64"," ,W,1012, ","106","W,0705, ","2724","4","6.02"," ,W",,,"61.2","W","75.4","W","46.9","W"
"USC00042147","CRESCENT CITY, CA US","41.7958","-124.2147","13.1","2007","4",,"        0",,"         0","0","24","0,0113,+","0"," ,0,1231,+","0.0"," ,0,1231,+","2.83"," ,0,1019, ","80","0,0829, ","5076","2","64.30"," ,0","0.0"," ,0","51.4","0","58.6","0","44.2","0"
"USR0000CFHL","FORT HUNTER LIGGET CALIFORNIA, CA US","36.0117","-121.2417","335.3","2007","1113",,,,,,"16","U,0114, ",,,,,,,"111","U,0705, ","2503","7",,,,,"61.2","U","80.0","U","42.4","U"
"USC00046624","PALMDALE, CA US","34.5883","-118.0938","796.1","2007",,,"        0",,"         0","0","11","0,1227, ","0"," ,0,1231,+","0.0"," ,0,1231,+","0.75"," ,0,1130, ",,,"2392","7","1.94"," ,0","0.0"," ,0",,,,,"48.6","0"
"USR0000CSAW","SAWYERS BAR CALIFORNIA, CA US","41.3003","-123.1322","668.1","2007",,,,,,,,,,,,,,,,,"4004","4",,,,,,,,,,
"USC00046508","ORLEANS, CA US","41.3088","-123.5316","122.8","2007","761",,"        5",,"         6","0","22","0,0115,+","4"," ,0,0227, ","6.2"," ,0,0227, ","3.08"," ,0,1019, ","103","0,0829, ","3555","0","48.04"," ,0","15.5"," ,0","57.1","0","69.2","0","45.0","0"
"USC00046506","ORLAND, CA US","39.7458","-122.1997","77.4","2007","1486",,"        0",,"         0","0","22","0,0114, ","0"," ,0,1231,+","0.0"," ,0,1231,+","1.14"," ,0,0210, ","105","0,0706, ","2225","0","11.27"," ,0","0.0"," ,0","62.7","0","75.7","0","49.8","0"
"USR0000CHLR","HOLLISTER CALIFORNIA, CA US","36.8422","-121.3622","123.1","2007","438",,,,,,"22","U,0113, ",,,,,,,"102","U,0902, ",,,,,,,"59.2","U","73.6","U","44.7","U"
"USR0000CLTU","LITTLE TUJUNGA CALIFORNIA, CA US","34.2936","-118.3608","423.7","2007","1313",,,,,,"28","U,0114, ",,,,,,,"107","U,0831, ","1561","2",,,,,"63.8","U","77.3","U","50.4","U"
"USC00045892","MOUNTAIN PASS 1 SE, CA US","35.45917","-115.53111","1456.0","2007","1598",,"        0",,"         0","0","8","0,0115,+","0"," ,0,1231,+","0.5"," ,0,0328, ","1.48"," ,0,0922, ","104","0,0706, ",,,"8.33"," ,0","0.9"," ,0","58.1","0","69.3","0","47.0","0"
"USC00045532","MERCED, CA US","37.2888","-120.5158","46.9","2007",,,"        0",,"         0","0",,,"0"," ,0,1231,+","0.0"," ,0,1231,+","0.64"," ,0,1207, ","107","0,0707,+","2500","9","6.56"," ,0","0.0"," ,0",,,"77.2","0",,
"USR0000CSAU","SAUGUS CALIFORNIA, CA US","34.425","-118.525","442.0","2007","1741",,,,,,"28","U,0114, ",,,,,,,"110","U,0830, ","1524","7",,,,,"65.3","U","78.4","U","52.2","U"
"USR0000CLSF","LAS FLORES CALIFORNIA, CA US","33.2889","-117.4389","30.5","2007","627",,,,,,"33","U,0115,+",,,,,,,"96","U,1022, ","1331","4",,,,,"63.0","U","72.5","U","53.4","U"
"USR0000CMTZ","MOUNT ZION CALIFORNIA, CA US","38.3894","-120.6511","902.2","2007","1431",,,,,,"22","U,0112, ",,,,,,,"104","U,0705, ","3063","6",,,,,"60.1","U","68.9","U","51.3","U"
"USR0000CWHC","WHITE CLOUD CALIFORNIA, CA US","39.3167","-120.8375","1316.7","2007","1064",,,,,,"17","U,0113,+",,,,,,,"100","U,0705, ","3702","5",,,,,"57.5","U","68.1","U","46.9","U"
"USR0000CWHH","WHITTIER HILLS CALIFORNIA, CA US","33.9839","-118.01","289.6","2007",,,,,,,,,,,,,,,,,"1021","1",,,,,,,,,,
"USW00023225","BLUE CANYON NYACK AIRPORT, CA US","39.2774","-120.7102","1608.1","2007","521",,,,,,"14","0,0113,+",,,,,"4.65"," ,0,0227, ","90","0,0705, ","4767","2","49.02"," ,0",,,"52.8","0","59.7","0","45.9","0"
"USR0000CEEL","EEL RIVER CALIFORNIA, CA US","39.8333","-123.0833","457.2","2007","1024",,,,,,"16","U,0113, ",,,,,,,"111","U,0705, ","3269","3",,,,,"58.2","U","75.2","U","41.1","U"
"USC00043004","FELTON, CA US","37.05056","-122.075","121.9","2007","214",,,,"         4","0","14","0,0114, ",,,"1.7"," ,0,1219, ","2.37"," ,0,0209, ","102","0,0902,+","3300","2","24.69"," ,0","6.8"," ,0","56.0","0","74.1","0","38.0","0"
"USC00046635","PALM SPRINGS, CA US","33.8275","-116.5097","129.5","2007",,,"        0",,"         0","0",,,"0"," ,0,1231,+","0.0"," ,0,1231,+","1.11"," ,0,1130, ",,,,,"1.88"," ,0","0.0"," ,0",,,,,,
"USC00047965","SANTA ROSA, CA US","38.45579","-122.71335","50.6","2007",,,"        0",,"         0","0","23","0,0114, ","0"," ,0,1231,+","0.0"," ,0,1231,+","1.45"," ,0,0422, ",,,"2658","7","20.28"," ,0","0.0"," ,0",,,,,"44.3","0"
"USR0000CCAN","CANBY CALIFORNIA, CA US","41.4342","-120.8678","1314.3","2007","347",,,,,,"-3","U,1231, ",,,,,,,"108","U,0705, ","6119","7",,,,,"48.7","U","65.6","U","31.8","U"
"USR0000CCAM","CAMERON FIRE STATION CALIFORNI, CA US","32.7214","-116.4631","1049.4","2007","904",,,,,,"12","U,0114, ",,,,,,,"109","U,0705, ","3300","4",,,,,"58.3","U","75.9","U","40.8","U"
"USR0000CCAL","CALLAHAN CALIFORNIA, CA US","41.3075","-122.7958","955.9","2007","789",,,,,,"12","U,0112, ",,,,,,,"107","U,0705, ","4734","1",,,,,"53.5","U","66.6","U","40.4","U"
"USR0000CLST","LAS TABLAS CALIFORNIA, CA US","35.6564","-120.9242","303.0","2007","663",,,,,,"11","U,0113, ",,,,,,,"109","U,0705,+","3264","3",,,,,"57.8","U","76.9","U","38.6","U"
"USR0000CCAA","CAHUILLA CALIFORNIA, CA US","32.9736","-115.1736","84.7","2007","4979",,,,,,"29","U,0114, ",,,,,,,"118","U,0901, ","730","6",,,,,"76.4","U","89.7","U","63.2","U"
"USR0000CJOH","JOHNSONDALE CALIFORNIA, CA US","35.9717","-118.545","1432.6","2007",,,,,,,,,,,,,,,,,"5185","6",,,,,,,,,,
"USR0000CWHT","WHITMORE CALIFORNIA, CA US","40.6194","-121.8994","736.7","2007","1328",,,,,,"21","U,0112, ",,,,,,,"109","U,0704, ","3275","7",,,,,"59.4","U","71.4","U","47.3","U"
"USC00044211","IDYLLWILD FIRE DEPARTMENT, CA US","33.7572","-116.7066","1639.8","2007",,,,,"        11","0",,,,,"6.5"," ,0,1209, ","2.00"," ,0,1201, ",,,,,"14.67"," ,0","34.6"," ,0",,,,,,
"USC00043244","FREMONT, CA US","37.5422","-122.0158","11.6","2007","299",,,,"         0","0","26","0,0113, ",,,"0.0"," ,0,1231,+","0.62"," ,0,0222,+","92","0,0614, ","2390","7","8.41"," ,0","0.0"," ,0","58.9","0","68.9","0","49.0","0"
"USW00023230","OAKLAND METROPOLITAN, CA US","37.7214","-122.2208","1.8","2007","114",,,,,,"28","W,0116,+",,,,,"1.26"," ,W,0210, ","89","W,0507,+","2877","6","12.81"," ,W",,,"57.3","W","65.6","W","49.0","W"
"USW00023232","SACRAMENTO AIRPORT ASOS, CA US","38.5069","-121.495","4.6","2007","1099",,,,,,"21","0,0115, ",,,,,"1.32"," ,0,1206, ","107","0,0705, ","2583","3","11.74"," ,0",,,"60.9","0","74.4","0","47.4","0"
"USW00023110","LEMOORE REEVES NAS, CA US","36.33333","-119.95","70.7","2007","1633",,,,,,"15","W,0114, ",,,,,"0.53"," ,W,1218, ","110","W,0706, ",,,"3.05"," ,W",,,"62.4","W","78.2","W","46.5","W"
"USR0000CTAL","TALEGA CALIFORNIA, CA US","33.4781","-117.4858","366.7","2007","1281",,,,,,"37","U,0114, ",,,,,,,"111","U,0903, ","1308","9",,,,,"64.5","U","75.3","U","53.7","U"
"USR0000CMTD","MOUNT DIABLO CALIFORNIA, CA US","37.8817","-121.9142","1173.2","2007","645",,,,,,"20","U,0112, ",,,,,,,"91","U,0705, ","4063","4",,,,,"54.5","U","60.2","U","48.7","U"
"USW00023237","STOCKTON AIRPORT, CA US","37.8891","-121.2258","7.9","2007","1518",,,,,,"20","0,0115,+",,,,,"0.86"," ,0,0210, ","110","0,0705, ","2243","4","8.09"," ,0",,,"63.0","0","77.2","0","48.8","0"
"USW00023234","SAN FRANCISCO INTERNATIONAL AIRPORT, CA US","37.6197","-122.3647","2.4","2007","116",,,,,,"32","0,0114, ",,,,,"1.40"," ,0,1012, ","89","0,0507, ","2863","6","11.68"," ,0",,,"57.5","0","65.0","0","50.0","0"
"USW00023233","SALINAS AIRPORT, CA US","36.6636","-121.6081","22.6","2007","105",,,,,,"22","0,0113, ",,,,,"0.56"," ,0,1016, ","94","0,1023, ","3095","4","7.91"," ,0",,,"56.9","0","67.0","0","46.8","0"
"USC00045679","MINERAL, CA US","40.3458","-121.6091","1485.9","2007",,,,,"        13","0",,,,,"10.0"," ,0,0228, ",,,,,,,,,"75.5"," ,0",,,,,,
"USC00046646","PALO ALTO, CA US","37.4436","-122.1402","7.6","2007",,,"        0",,"         0","0",,,"0"," ,0,1231,+","0.0"," ,0,1231,+","0.51"," ,0,0210, ",,,,,"7.10"," ,0","0.0"," ,0",,,,,,
"USC00048829","TEHACHAPI 4 SE, CA US","35.1011","-118.4222","1286.3","2007",,,"        9",,"         9","0","8","0,0114, ","9"," ,0,0301, ","4.0"," ,0,0228, ","0.60"," ,0,0321, ","101","0,0705, ",,,"5.93"," ,0","20.5"," ,0","54.8","0","68.0","0","41.5","0"
"USR0000CGHP","GRASSHOPPER CALIFORNIA, CA US","40.7817","-120.7844","1877.0","2007","150",,,,,,"-3","U,0113, ",,,,,,,"96","U,0705, ","7227","8",,,,,"45.0","U","58.2","U","31.7","U"
"USC00043491","GOLD RUN 2 SW, CA US","39.165","-120.8566","1011.9","2007",,,,,,,,,,,,,"3.61"," ,0,0211, ",,,,,"41.23"," ,0",,,,,,,,
"USC00041194","BURBANK VALLEY PUMP PLANT, CA US","34.1866","-118.348","199.6","2007",,,"        0",,"         0","0",,,"0"," ,0,1231,+","0.0"," ,0,1231,+","0.78"," ,0,0921, ","106","0,0902, ",,,"6.11"," ,0","0.0"," ,0",,,"76.8","0",,
"USC00045790","MONTEBELLO, CA US","34.0191","-118.1052","75.0","2007",,,"        0",,"         0","0",,,"0"," ,0,1231,+","0.0"," ,0,1231,+",,,,,,,,,"0.0"," ,0",,,,,,
"USR0000CTAN","TANBARK CALIFORNIA, CA US","34.2069","-117.7606","792.5","2007","1634",,,,,,"28","U,0114, ",,,,,,,"104","U,0829, ","2043","8",,,,,"63.5","U","74.2","U","52.7","U"
"USC00043256","FRESNO 5 NE, CA US","36.7672","-119.7092","103.0","2007","1948",,"        0",,"         0","0","24","0,0115, ","0"," ,0,1231,+","0.0"," ,0,1231,+","1.67"," ,0,1219, ","108","0,0707,+","2076","3","7.02"," ,0","0.0"," ,0","64.7","0","78.2","0","51.1","0"
"USC00047731","SAN CLEMENTE DAM, CA US","36.4375","-121.7092","182.9","2007",,,"        0",,"         0","0",,,"0"," ,0,1231,+","0.0"," ,0,1231,+","0.83"," ,0,1207, ",,,,,"9.77"," ,0","0.0"," ,0",,,,,,
"USC00043134","FORESTHILL RANGER STATION, CA US","39.01","-120.8455","919.0","2007",,,"        0",,"         0","0",,,"0"," ,0,1231,+","0.0"," ,0,1231,+","6.01"," ,0,0212, ",,,,,"42.33"," ,0","0.0"," ,0",,,,,,
"USC00044223","IMPERIAL, CA US","32.8488","-115.5666","-19.5","2007","4268",,"        0",,"         0","0","25","0,1227,+","0"," ,0,1231,+","0.0"," ,0,1231,+","0.79"," ,0,1130, ","115","0,0901, ","858","8","2.01"," ,0","0.0"," ,0","74.0","0","88.6","0","59.4","0"
"USC00045311","MANZANITA LAKE, CA US","40.5411","-121.5766","1752.6","2007",,,,,,,,,,,,,,,,,,,,,"89.3"," ,0",,,,,,
"USC00045795","MONTEREY, CA US","36.5927","-121.8555","37.2","2007","57",,"        0",,"         0","0","27","0,0113, ","0"," ,0,1231,+","0.1"," ,0,0227, ","0.72"," ,0,1218, ","89","0,1023, ","3549","5","11.35"," ,0","0.1"," ,0","55.2","0","62.8","0","47.7","0"
"USC00046521","OROVILLE, CA US","39.5177","-121.553","52.1","2007",,,,,"         0","0",,,,,"0.0"," ,0,1231,+",,,,,,,"18.52"," ,0","0.0"," ,0",,,,,,
"USR0000CTAR","TARGET RANGE CALIFORNIA, CA US","33.3722","-117.3589","279.8","2007",,,,,,,,,,,,,,,,,"1301","9",,,,,,,,,,
"USR0000CCOH","COHASSET CALIFORNIA, CA US","39.8717","-121.7689","528.2","2007","1745",,,,,,"29","U,0114,+",,,,,,,"103","U,0706,+","2497","3",,,,,"62.8","U","71.3","U","54.3","U"
"USW00023285","LIVERMORE MUNICIPAL AIRPORT, CA US","37.6927","-121.8144","119.8","2007","720",,,,,,"20","0,0114, ",,,,,"0.80"," ,0,0210, ","107","0,0705, ","2671","7","8.83"," ,0",,,"59.6","0","72.7","0","46.5","0"
"USR0000CCOL","COLLINS BALDY CALIFORNIA, CA US","41.775","-122.9503","1674.3","2007","285",,,,,,"7","U,0112, ",,,,,,,"92","U,0710, ","6069","8",,,,,"47.9","U","56.6","U","39.2","U"
"USC00047195","QUINCY, CA US","39.9366","-120.9475","1042.4","2007","344",,,,"        11","0","9","0,0114,+",,,"6.0"," ,0,0228,+","2.00"," ,0,0211, ","104","0,0705,+","5171","0","24.57"," ,0","31.7"," ,0","51.2","0","67.6","0","34.7","0"
"USW00023161","BARSTOW DAGGETT AIRPORT, CA US","34.8536","-116.7858","584.3","2007","3287",,"        0",,"         0","Z","14","0,0115, ","0"," ,Z,1231,+","0.0"," ,Z,1231,+","1.57"," ,0,1130, ","118","0,0705, ","1984","0","2.17"," ,0","0.0"," ,Z","68.5","0","83.0","0","54.0","0"
"USR0000CPHI","PINE HILLS CALIFORNIA, CA US","33.0164","-116.6339","0.0","2007","1142",,,,,,"20","U,0114, ",,,,,,,"103","U,0829, ","2962","5",,,,,"59.8","U","71.8","U","47.7","U"
"USR0000CSNL","SAN LUIS NWR CALIFORNIA, CA US","37.1822","-120.7939","19.8","2007","1208",,,,,,"19","U,0116,+",,,,,,,"108","U,0705, ",,,,,,,"61.4","U","76.8","U","46.1","U"
"USR0000CSNR","SANTA RITA CALIFORNIA, CA US","36.3478","-120.5978","1524.0","2007","780",,,,,,"15","U,0113, ",,,,,,,"96","U,0705, ","3855","8",,,,,"55.4","U","64.1","U","46.8","U"
"USW00024259","MONTAGUE SISKIYOU AIRPORT, CA US","41.78139","-122.46806","808.0","2007","618",,,,,,"10","W,0118,+",,,,,"1.43"," ,W,0221, ","105","W,0705, ","5357","9","11.56"," ,W",,,"51.3","W","66.1","W","36.4","W"
"USW00024257","REDDING AIRPORT, CA US","40.5175","-122.2986","151.5","2007","1799",,,,,,"19","0,0114, ",,,,,"2.36"," ,0,0210, ","113","0,0704, ","2630","4","21.77"," ,0",,,"62.7","0","76.4","0","49.0","0"
"USR0000CCP9","CAMP 9 CALIFORNIA, CA US","34.3617","-118.4217","1219.2","2007","1404",,,,,,"21","U,0113, ",,,,,,,"106","U,0705, ","2784","7",,,,,"60.7","U","69.4","U","51.9","U"
"USR0000CMCB","MILL CREEK BDF CALIFORNIA, CA US","34.0836","-117.0347","899.2","2007","1744",,,,,,"27","U,0114,+",,,,,,,"106","U,0830,+","1993","1",,,,,"64.0","U","77.0","U","51.0","U"
"USR0000CPIE","PIERCE CALIFORNIA, CA US","40.2461","-120.6422","1737.4","2007","382",,,,,,"5","U,0113, ",,,,,,,"104","U,0705, ","5852","1",,,,,"49.4","U","62.8","U","36.0","U"
"USC00040673","BEN LOMOND NUMBER 4, CA US","37.0855","-122.0797","128.0","2007","363",,"        0",,"         0","0","20","0,0115, ","0"," ,0,1231,+","0.0"," ,0,1231,+","2.59"," ,0,1218, ","103","0,0901, ","2688","4","26.22"," ,0","0.0"," ,0","58.4","0","74.5","0","42.3","0"
"USR0000CCOU","CO LINE CALIFORNIA, CA US","39.0189","-122.4119","635.5","2007","1747",,,,,,"25","U,0114, ",,,,,,,"110","U,0802, ","2595","6",,,,,"62.5","U","75.7","U","49.2","U"
"USR0000CSOL","SOLDIER MOUNTAIN CALIFORNIA, CA US","40.9258","-121.5856","1130.8","2007",,,,,,,,,,,,,,,"107","U,0704, ",,,,,,,,,"66.8","U",,
"USR0000CPIH","PINEHURST CALIFORNIA, CA US","36.6853","-119.0","1237.5","2007","1141",,,,,,"16","U,0113, ",,,,,,,"104","U,0705, ","3548","2",,,,,"57.9","U","69.0","U","46.9","U"
"USR0000CWWO","WHITE WOLF CALIFORNIA, CA US","37.8511","-119.65","2446.0","2007","17",,,,,,"-4","U,0113, ",,,,,,,"87","U,0704, ",,,,,,,"44.5","U","57.4","U","31.7","U"
"USC00043824","HAT CREEK, CA US","40.9316","-121.5433","919.0","2007","227",,"        2",,"         0","0","7","0,0116,+","2"," ,0,1229, ","0.0"," ,0,1231,+","0.97"," ,0,0213, ","106","0,0705, ","5435","3","13.11"," ,0","0.0"," ,0","49.5","0","68.1","0","30.9","0"
"USR0000CLAB","LOS BANOS CALIFORNIA, CA US","37.0547","-121.0531","106.7","2007","1624",,,,,,"24","U,0114, ",,,,,,,"107","U,0705, ","2034","8",,,,,"64.0","U","74.9","U","53.1","U"
"USR0000CCOO","COOSKIE MOUNTAIN CALIFORNIA, CA US","40.2569","-124.2661","899.2","2007","289",,,,,,"27","U,0112,+",,,,,,,"91","U,0829,+","4561","2",,,,,"52.1","U","60.0","U","44.1","U"
"USR0000CCON","CONVERSE CALIFORNIA, CA US","34.1942","-116.9131","1712.4","2007","407",,,,,,"8","U,0113, ",,,,,,,"98","U,0705, ","4095","2",,,,,"54.1","U","68.1","U","40.2","U"
"USR0000CESP","ESPERANZA CALIFORNIA, CA US","38.2428","-120.515","780.0","2007",,,,,,,,,,,,,,,"111","U,0705, ",,,,,,,,,"76.6","U",,
"USC00040790","BIG SUR STATION, CA US","36.2472","-121.7802","61.0","2007","170",,"        0",,"         0","0","27","0,0113, ","0"," ,0,1231,+","0.0"," ,0,1231,+","1.77"," ,0,0222, ","98","0,0902,+","3174","5","20.46"," ,0","0.0"," ,0","56.8","0","68.9","0","44.8","0"
"USC00049367","VISALIA, CA US","36.32833","-119.2997","92.4","2007",,,"        0",,"         0","0",,,"0"," ,0,1231,+","0.0"," ,0,1231,+","1.04"," ,0,0211, ",,,,,"5.04"," ,0","0.0"," ,0",,,,,,
"USW00023174","LOS ANGELES INTERNATIONAL AIRPORT, CA US","33.938","-118.3888","29.6","2007","643",,,,,,"35","0,0115,+",,,,,"0.75"," ,0,1218, ","94","0,1024, ","1375","1","4.90"," ,0",,,"62.7","0","69.2","0","56.1","0"
"USR0000CBLD","BLUE DOOR CALIFORNIA, CA US","41.0547","-120.3375","1711.5","2007","217",,,,,,"-4","U,0113, ",,,,,,,"101","U,0705, ","6871","3",,,,,"46.0","U","59.9","U","32.1","U"
"USC00047085","PORTOLA, CA US","39.8053","-120.4719","1478.3","2007",,,,,"        12","0","-1","0,0113, ",,,"14.0"," ,0,0226, ","1.50"," ,0,0211, ","101","0,0705, ",,,"14.25"," ,0","68.5"," ,0","46.7","0","63.4","0","30.0","0"
"USR0000CMAR","MARIPOSA GROVE CALIFORNIA, CA US","37.5128","-119.6047","1950.7","2007","567",,,,,,"9","U,0113,+",,,,,,,"95","U,0705, ","4578","1",,,,,"53.5","U","64.6","U","42.4","U"
"USW00023293","SAN JOSE INTERNATIONAL AIRPORT, CA US","37.3591","-121.924","15.5","2007","535",,,,,,"27","X,0116,+",,,,,"1.02"," ,X,1012, ","95","X,0902,+","2225","9","8.31"," ,X",,,"60.2","X","70.9","X","49.4","X"
"USC00040449","BALCH POWER HOUSE, CA US","36.9092","-119.0883","528.8","2007",,,"        0",,"         0","0",,,"0"," ,0,1231,+","0.0"," ,0,1231,+",,,,,,,,,"0.0"," ,0",,,,,,
"USC00042506","DOYLE 4 SSE, CA US","39.9717","-120.0828","1338.1","2007",,,"       10",,"         8","0","0","0,0113, ","6"," ,0,0227,+","4.0"," ,0,0226, ","0.88"," ,0,0211, ",,,,,"5.70"," ,0","16.0"," ,0",,,,,"34.9","0"
"USR0000CTOM","MOUNT TOM CALIFORNIA, CA US","37.3761","-119.1783","2748.7","2007","17",,,,,,"-6","U,0112, ",,,,,,,"78","U,0706,+",,,,,,,"43.5","U","50.2","U","36.8","U"
"USR0000CMAL","MALIBU HILLS CALIFORNIA, CA US","34.0583","-118.6333","480.1","2007","1448",,,,,,"33","U,0113, ",,,,,,,"108","U,0829, ",,,,,,,"64.5","U","74.7","U","54.2","U"
"USW00023179","NEEDLES AIRPORT, CA US","34.7675","-114.6188","271.3","2007","5062",,,,,,"24","0,0114, ",,,,,"0.70"," ,0,1130, ","121","0,0704, ","1145","1","1.62"," ,0",,,"75.5","0","87.9","0","63.1","0"
"USS0020H06S","CEDAR PASS, CA US","41.58","-120.3","2142.7","2007","119",,"      173",,,,"1","T,0112, ","52"," ,T,0301, ",,,"1.80"," ,T,0605, ","89","T,0705, ","7544","1","27.37"," ,T",,,"44.1","T","52.5","T","35.7","T"
"USC00042500","DOWNIEVILLE, CA US","39.5633","-120.8238","888.5","2007","430",,,,"        11","0","16","0,0112, ",,,"8.0"," ,0,0227,+",,,"101","0,0705, ","4307","0",,,"36.1"," ,0","53.6","0","69.3","0","38.0","0"
"USC00042863","ESCONDIDO NUMBER 2, CA US","33.121","-117.09","182.9","2007",,,"        0",,"         0","0",,,"0"," ,0,1231,+","0.0"," ,0,1231,+",,,,,,,,,"0.0"," ,0",,,,,,
"USR0000CBLT","BEN BOLT CALIFORNIA, CA US","38.5908","-120.9336","275.8","2007","1105",,,,,,"22","U,0113, ",,,,,,,"110","U,0705, ","2900","2",,,,,"59.8","U","73.7","U","46.0","U"
"USC00041534","CARMEL VALLEY, CA US","36.4805","-121.7244","146.3","2007","199",,"        0",,"         0","0","20","0,0113, ","0"," ,0,1231,+","0.0"," ,0,1231,+","0.74"," ,0,0327, ","98","0,0902,+","2912","6","9.91"," ,0","0.0"," ,0","57.3","0","71.0","0","43.5","0"
"USC00043714","HALF MOON BAY, CA US","37.4725","-122.4433","8.2","2007","2",,"        0",,"         0","0","27","0,0118,+","0"," ,0,1231,+","0.0"," ,0,1231,+","1.28"," ,0,1010, ","85","0,1024, ","4023","3","18.66"," ,0","0.0"," ,0","53.7","0","62.5","0","44.8","0"
"USC00048045","SCOTIA, CA US","40.4833","-124.1038","41.5","2007","87",,"        0",,"         0","0","26","0,0113, ","0"," ,0,1231,+","0.0"," ,0,1231,+","2.50"," ,0,0221, ","88","0,0830,+","3418","0","39.06"," ,0","0.0"," ,0","55.7","0","64.3","0","47.0","0"
"USW00093138","PALM SPRINGS ASOS, CA US","33.8222","-116.5043","124.7","2007","4610",,,,,,"24","W,0114, ",,,,,"1.28"," ,W,1130, ","117","W,0829, ","778","2","2.38"," ,W",,,"75.1","W","88.4","W","61.9","W"
"USR0000CBLQ","BLUE RIDGE KNF CALIFORNIA, CA US","41.2694","-123.1875","1815.4","2007",,,,,,,,,,,,,,,,,"5864","8",,,,,,,,,,
"USS0019L08S","LEAVITT MEADOWS, CA US","38.3","-119.55","2194.0","2007",,,"      115",,,,,,"37"," ,T,0226, ",,,"1.40"," ,T,0210, ",,,,,"16.78"," ,T",,,,,,,,
"USC00049378","VISTA, CA US","33.2354","-117.2322","131.1","2007",,,,,"         0","0",,,,,"0.0"," ,0,1231,+","2.00"," ,0,1130, ",,,,,"10.12"," ,0","0.0"," ,0",,,,,,
"USC00049152","U C L A, CA US","34.0697","-118.4427","131.1","2007","936",,"        0",,"         0","0","36","0,0114, ","0"," ,0,1231,+","0.0"," ,0,1231,+","1.13"," ,0,1013, ","96","0,1024,+","1128","6","6.74"," ,0","0.0"," ,0","64.1","0","72.5","0","55.7","0"
"USR0000CBKD","BLACK DIAMOND CALIFORNIA, CA US","37.95","-121.8844","487.7","2007","810",,,,,,"27","U,0113, ",,,,,,,"101","U,0829,+","3005","2",,,,,"58.8","U","67.0","U","50.7","U"
"USR0000CDOG","DOG VALLEY CALIFORNIA, CA US","39.5619","-120.0478","1821.5","2007",,,,,,,"-2","U,1227, ",,,,,,,"105","U,0705, ",,,,,,,"47.8","U","64.7","U","31.0","U"
"USC00049390","VOLTA PH, CA US","40.4583","-121.8663","676.7","2007",,,"        1",,"         3","0",,,"1"," ,0,0227, ","2.0"," ,0,1231,+","2.41"," ,0,0210, ",,,,,"26.30"," ,0","6.0"," ,0",,,,,,
"USC00041428","CAMP PARDEE, CA US","38.2486","-120.8433","200.6","2007","1466",,"        0",,"         0","0","28","0,0113, ","0"," ,0,1231,+","0.0"," ,0,1231,+","1.43"," ,0,0210, ","108","0,0705, ","2382","6","15.13"," ,0","0.0"," ,0","62.3","0","74.2","0","50.4","0"
"USC00041424","CAMPO, CA US","32.6263","-116.4699","801.6","2007",,,,,,,,,,,,,,,,,"2881","8",,,,,,,,,,
"USR0000CMAD","MAD RIVER CALIFORNIA, CA US","40.4633","-123.5239","845.8","2007",,,,,,,,,,,,,,,,,"4516","7",,,,,,,,,,
"USR0000CDOY","DOYLE CALIFORNIA, CA US","40.0222","-120.1056","1292.4","2007","665",,,,,,"2","U,0113, ",,,,,,,"108","U,0705, ","5367","9",,,,,"52.1","U","68.2","U","35.9","U"
"USS0019L19S","EBBETTS PASS, CA US","38.55","-119.8","2671.6","2007","15",,"      173",,,,"-9","T,0113, ","78"," ,T,0227, ",,,"2.10"," ,T,0226, ","81","T,0704, ","8167","1","33.68"," ,T",,,"42.4","T","51.4","T","33.5","T"
"USC00040212","ANGWIN PACIFIC UNION COLLEGE, CA US","38.573","-122.4405","522.7","2007","534",,"        1",,"         0","0","27","0,0114,+","1"," ,0,0227, ","0.0"," ,0,1231,+","1.85"," ,0,0210, ","100","0,0705, ","3016","7","21.09"," ,0","0.0"," ,0","58.1","0","69.8","0","46.3","0"
"USS0019L07S","SONORA PASS, CA US","38.31","-119.6","2690.5","2007","6",,"      183",,,,"-14","T,0113, ","68"," ,T,0226, ",,,"1.50"," ,T,0226, ","83","T,0705, ","8518","1","19.47"," ,T",,,"41.8","T","52.2","T","31.3","T"
"USC00049026","TRINITY RIVER HATCHERY, CA US","40.7263","-122.7947","567.2","2007","727",,"        0",,"         4","0","12","0,0113, ","0"," ,0,1231,+","3.0"," ,0,1228,+","1.73"," ,0,1204, ","109","0,0706, ","4242","6","19.24"," ,0","8.6"," ,0","55.1","0","70.2","0","39.9","0"
"USC00040693","BERKELEY, CA US","37.8744","-122.2605","94.5","2007","149",,"        0",,"         0","0","29","0,0113, ","0"," ,0,1231,+","0.0"," ,0,1231,+","1.41"," ,0,0210, ","91","0,0508, ","2740","0","17.31"," ,0","0.0"," ,0","57.7","0","68.3","0","47.2","0"
"USR0000CCMO","CASE MOUNTAIN CALIFORNIA, CA US","36.4108","-118.8092","1966.0","2007","559",,,,,,"9","U,0113, ",,,,,,,"100","U,0704, ","4621","0",,,,,"53.1","U","63.2","U","42.9","U"
"USR0000CCLE","CLEAR CREEK CALIFORNIA, CA US","34.2711","-118.1525","914.4","2007","1558",,,,,,"26","U,0113,+",,,,,,,"101","U,0902,+","2348","7",,,,,"62.3","U","71.5","U","53.2","U"
"USC00049043","TRUCKEE RANGER STATION, CA US","39.333","-120.173","1774.9","2007","67",,,,"        32","0","-7","0,0114,+",,,"18.0"," ,0,0227, ","2.21"," ,0,0227, ","97","0,0706,+","7533","3","22.86"," ,0","141.4"," ,0","44.2","0","61.6","0","26.7","0"
"USC00049285","VENTURA, CA US","34.2825","-119.2919","32.0","2007",,,"        0",,"         0","0",,,"0"," ,0,1231,+","0.0"," ,0,1231,+","1.57"," ,0,1219, ",,,,,"7.50"," ,0","0.0"," ,0",,,,,,
"USW00023152","BURBANK GLENDALE PASADENA AIRPORT, CA US","34.20056","-118.3575","225.9","2007","1393",,,,,,"26","W,0114, ",,,,,"0.69"," ,W,0922, ","107","W,0902, ","1324","6","4.72"," ,W",,,"64.8","W","76.0","W","53.6","W"
"USW00023273","SANTA MARIA PUBLIC AIRPORT, CA US","34.8994","-120.4486","73.8","2007","130",,,,,,"23","0,0114, ",,,,,"1.62"," ,0,1218, ","94","0,0312, ","2123","7","5.72"," ,0",,,"58.9","0","70.5","0","47.2","0"
"USW00023155","BAKERSFIELD AIRPORT, CA US","35.4344","-119.0542","149.0","2007","2248",,"        0",,"         0","0","23","0,0114, ","0"," ,0,1231,+","0.0"," ,0,1231,+","0.34"," ,0,0213, ","111","0,0706, ","2132","6","2.98"," ,0","0.0"," ,0","65.3","0","77.3","0","53.2","0"
"USR0000CFRE","FREMONT CANYON CALIFORNIA, CA US","33.8081","-117.7111","542.8","2007","1523",,,,,,"34","U,0113, ",,,,,,,"108","U,0903, ","1332","0",,,,,"64.9","U","75.4","U","54.3","U"
"USW00023275","UKIAH MUNICIPAL AIRPORT, CA US","39.12583","-123.20083","183.2","2007","771",,,,,,"19","W,0114,+",,,,,"1.60"," ,W,0208, ","108","W,0705, ","2982","9","21.92"," ,W",,,"58.4","W","73.2","W","43.7","W"
"USR0000COCR","OAK CREEK CALIFORNIA, CA US","36.8425","-118.2594","1479.8","2007","1902",,,,,,"12","U,0114,+",,,,,,,"107","U,0705, ","3118","3",,,,,"61.5","U","73.7","U","49.4","U"
"USW00023272","SAN FRANCISCO DOWNTOWN, CA US","37.7705","-122.4269","45.7","2007","92",,,,,,"37","0,0116,+",,,,,"1.27"," ,0,0210, ","88","0,0507, ","3064","3","14.15"," ,0",,,"57.3","0","63.8","0","50.7","0"
"USR0000CFRI","FRIEND MOUNTAIN CALIFORNIA, CA US","40.505","-123.3417","1219.2","2007","546",,,,,,"12","U,0112, ",,,,,,,"101","U,0705, ","4937","0",,,,,"52.4","U","64.7","U","40.0","U"
"USW00023271","SACRAMENTO 5 ESE, CA US","38.5552","-121.4183","11.6","2007","1439",,,,,,"26","0,0114, ",,,,,"1.44"," ,0,0210, ","108","0,0705, ","2087","6","12.96"," ,0",,,"63.0","0","75.6","0","50.5","0"
"USR0000CCLA","CLAREMONT CALIFORNIA, CA US","34.1369","-117.7069","501.4","2007","1399",,,,,,"27","U,0114, ",,,,,,,"110","U,0903, ","1721","9",,,,,"63.8","U","77.3","U","50.4","U"
"USW00023157","BISHOP AIRPORT, CA US","37.3711","-118.358","1250.3","2007","1274",,"        0",,"         1","Z","1","0,0114, ","0"," ,Z,1231,+","1.1"," ,Z,0128, ","0.36"," ,0,0724, ","108","0,0705, ","4036","2","1.87"," ,0","1.1"," ,Z","57.1","0","76.4","0","37.8","0"
"USW00023277","WATSONVILLE MUNICIPAL AIRPORT, CA US","36.9358","-121.7886","48.8","2007","106",,,,,,"22","W,0114, ",,,,,"0.89"," ,W,0222, ","94","W,1024, ","3205","6","8.80"," ,W",,,"56.4","W","67.3","W","45.4","W"
"USW00023158","BLYTHE ASOS, CA US","33.6186","-114.7142","120.4","2007","4536",,,,,,"25","0,0117,+",,,,,"1.04"," ,0,1130, ","117","0,0705, ","1109","2","1.93"," ,0",,,"74.2","0","88.3","0","60.0","0"
"USC00041312","CALISTOGA, CA US","38.5961","-122.6013","121.9","2007","610",,"        0",,"         0","0","18","0,0113, ","0"," ,0,1231,+","0.0"," ,0,1231,+","1.75"," ,0,0210,+","104","0,0705, ","2455","8","23.67"," ,0","0.0"," ,0","59.4","0","75.9","0","42.9","0"
"USC00042402","DE SABLA, CA US","39.8716","-121.6108","826.0","2007","533",,"        0",,"         0","0","18","0,0114, ","0"," ,0,1231,+","0.0"," ,0,1231,+","4.02"," ,0,0210, ","104","0,0706, ","3285","8","41.43"," ,0","0.0"," ,0","56.4","0","71.2","0","41.6","0"
"USC00043855","HAYFIELD PUMPING PLANT, CA US","33.7044","-115.6289","417.6","2007","3494",,"        0",,"         0","0","18","0,0118,+","0"," ,0,1231,+","0.0"," ,0,1231,+","2.80"," ,0,0922, ","117","0,0706,+","1464","4","5.04"," ,0","0.0"," ,0","70.5","0","86.1","0","55.0","0"
"USC00045915","MOUNT DIABLO JUNCTION, CA US","37.8792","-121.9303","661.4","2007","586",,"        0",,"         1","0","22","0,0114,+","0","T,0,0301,+","1.0"," ,0,0228, ","1.26"," ,0,1207, ","101","0,0706,+","3556","5","14.72"," ,0","1.0"," ,0","56.0","0","68.8","0","43.3","0"
"USC00041316","CALLAHAN, CA US","41.3378","-122.82484","940.3","2007","304",,,,,,"8","0,0113, ",,,,,"1.61"," ,0,1019, ","99","0,0706,+","5269","0","13.65"," ,0",,,"50.9","0","66.2","0","35.5","0"
"USR0000CCLV","CALAVERAS ROAD CALIFORNIA, CA US","37.5531","-121.8439","374.9","2007","448",,,,,,"30","U,0113, ",,,,,,,"99","U,0705, ",,,,,,,"58.0","U","67.0","U","49.0","U"
"USR0000CCLK","CLARK CALIFORNIA, CA US","33.8767","-117.3089","524.3","2007","1508",,,,,,"19","U,0114, ",,,,,,,"108","U,0902, ","1537","1",,,,,"64.3","U","78.2","U","50.5","U"
"USS0019L06S","POISON FLAT, CA US","38.51","-119.63","2357.9","2007","3",,"      145",,,,"-16","T,0113, ","57"," ,T,0226, ",,,"1.60"," ,T,0226, ","85","T,0705, ","8551","4","17.17"," ,T",,,"41.8","T","55.3","T","28.3","T"
"USR0000CDNK","DINKEY CALIFORNIA, CA US","37.0664","-119.0394","1727.6","2007","54",,,,,,"-3","U,0113, ",,,,,,,"94","U,0704, ","6660","9",,,,,"46.8","U","62.8","U","30.8","U"
"USC00049035","TRONA, CA US","35.7636","-117.3908","516.6","2007",,,"        0",,"         0","0",,,"0"," ,0,1231,+","0.0"," ,0,1231,+","0.50"," ,0,1208, ",,,,,"0.90"," ,0","0.0"," ,0",,,,,,
"USR0000CSLA","SLATER BUTTE CALIFORNIA, CA US","41.8586","-123.3525","1423.4","2007","529",,,,,,"11","U,0112, ",,,,,,,"97","U,0829,+","5495","7",,,,,"50.2","U","60.0","U","40.5","U"
"USC00040343","ASH MOUNTAIN, CA US","36.4914","-118.8253","520.6","2007",,,"        0",,"         0","0",,,"0"," ,0,1231,+","0.0"," ,0,1231,+","2.02"," ,0,1207, ",,,,,"17.92"," ,0","0.0"," ,0",,,,,,
"USC00049053","TULELAKE, CA US","41.95999","-121.47449","1230.8","2007",,,,,"         6","0","3","0,1221, ",,,"8.0"," ,0,0222, ","0.82"," ,0,1019, ",,,,,"9.95"," ,0","19.0"," ,0",,,,,"32.3","0"
"USS0020H13S","ADIN MOUNTAIN, CA US","41.24","-120.79","1886.7","2007","38",,"      168",,,,"-5","T,1231, ","46"," ,T,0301,+",,,"0.90"," ,T,0605,+","95","T,0705, ","7866","9","21.04"," ,T",,,"42.9","T","57.1","T","28.8","T"
"USR0000CDMC","DEMOCRAT CALIFORNIA, CA US","35.5317","-118.6303","718.1","2007","1692",,,,,,"18","U,0114, ",,,,,,,"112","U,0706,+","2747","9",,,,,"62.0","U","76.3","U","47.6","U"
"USW00093230","SOUTH LAKE TAHOE AIRPORT, CA US","38.8983","-119.9947","1924.5","2007","31",,,,,,"-6","0,0113, ",,,,,"1.12"," ,0,0104, ","91","0,0704, ","7693","2","11.64"," ,0",,,"44.0","0","59.3","0","28.7","0"
"USW00093110","OXNARD VENTURA CO AIRPORT, CA US","34.20083","-119.20694","11.0","2007","160",,,,,,"32","W,0118, ",,,,,"1.07"," ,W,0420, ","97","W,1024, ","2124","1","4.57"," ,W",,,"59.1","W","66.9","W","51.3","W"
"USW00093111","POINT MUGU NF, CA US","34.11667","-119.11667","4.0","2007","146",,,,,,"29","W,0114, ",,,,,,,"95","W,1023, ",,,,,,,"58.4","W","67.6","W","49.2","W"
"USR0000CAGD","ARROYO GRANDE CALIFORNIA, CA US","35.1792","-120.3919","319.4","2007","923",,,,,,"23","U,0114,+",,,,,,,"113","U,0902, ",,,,,,,"61.9","U","78.3","U","45.4","U"
"USW00093112","NORTH ISLAND NAS, CA US","32.7","-117.2","7.9","2007",,,,,,,,,,,,,,,,,,,,,,,,,,,,
"USC00044838","LAVA BEDS NAT MON, CA US","41.7019","-121.5011","1453.9","2007",,,,,,,,,,,,,,,,,"6000","1",,,,,,,,,,
"USC00042410","DESERT CENTER 2 NNE, CA US","33.7377","-115.3925","227.7","2007",,,"        0",,"         0","0",,,"0"," ,0,1231,+","0.0"," ,0,1231,+",,,,,,,,,"0.0"," ,0",,,,,,
"USC00044710","LAKESIDE 2 E, CA US","32.8536","-116.8947","210.3","2007",,,"        0",,"         0","0",,,"0"," ,0,1231,+","0.0"," ,0,1231,+","1.77"," ,0,1201,+",,,,,"11.19"," ,0","0.0"," ,0",,,,,,
"USR0000CBIR","BIG ROCK CALIFORNIA, CA US","38.0394","-122.57","457.2","2007","457",,,,,,"33","U,0114, ",,,,,,,"104","U,0705, ","2925","8",,,,,"58.1","U","67.3","U","48.9","U"
"USR0000CRIC","RICE VALLEY CALIFORNIA, CA US","34.0608","-114.7322","249.9","2007","4456",,,,,,"19","U,0114, ",,,,,,,"121","U,0704, ","1251","8",,,,,"73.6","U","88.6","U","58.6","U"
"USC00044712","LAKE SOLANO, CA US","38.492","-122.0039","57.0","2007","1559",,"        0",,"         0","0","21","0,0114, ","0"," ,0,1231,+","0.0"," ,0,1231,+","1.69"," ,0,1207, ","110","0,0706, ","2218","4","13.42"," ,0","0.0"," ,0","63.2","0","77.3","0","49.1","0"
"USR0000CBIP","BIG PINES CALIFORNIA, CA US","34.3789","-117.6919","2108.3","2007","737",,,,,,"4","U,0113, ",,,,,,,"96","U,0706,+","4417","9",,,,,"54.4","U","66.5","U","42.2","U"
"USC00045802","MONTEREY WEATHER FORECAST OFFICE, CA US","36.5927","-121.8555","37.2","2007","16",,"        0",,"         0","0","26","0,0113, ","0"," ,0,1231,+","0.0"," ,0,1231,+","0.69"," ,0,0222, ","85","0,0926, ","3573","9","9.11"," ,0","0.0"," ,0","55.2","0","62.4","0","47.9","0"
"USC00043747","HANFORD 1 S, CA US","36.3158","-119.637","72.2","2007","1591",,"        0",,"         0","0","16","0,0113, ","0"," ,0,1231,+","0.0","T,0,1228, ","0.51"," ,0,1219, ","109","0,0707, ","2848","2","4.44"," ,0","0.0","T,0","61.5","0","75.0","0","48.1","0"
"USC00044957","LINDSAY, CA US","36.2032","-119.0545","132.6","2007","1813",,"        0",,"         0","0","21","0,0115, ","0"," ,0,1231,+","0.0"," ,0,1231,+","0.95"," ,0,1030, ","114","0,0707, ","2275","9","8.29"," ,0","0.0"," ,0","63.7","0","79.5","0","47.9","0"
"USR0000CGSP","GREEN SPRING CALIFORNIA, CA US","37.8331","-120.5","310.9","2007","1576",,,,,,"23","U,0113, ",,,,,,,"109","U,0705, ",,,,,,,"62.1","U","75.0","U","49.3","U"
"USR0000CBIH","BIG HILL CALIFORNIA, CA US","41.0975","-123.6358","1088.1","2007","345",,,,,,"18","U,0112, ",,,,,,,"93","U,0828,+","5082","6",,,,,"51.2","U","60.6","U","41.8","U"
"USW00093225","SACRAMENTO METROPOLITAN AIRPORT, CA US","38.69556","-121.58972","7.0","2007","1262",,,,,,"21","W,0115,+",,,,,"1.29"," ,W,1206, ","107","W,0705, ","2601","1","10.50"," ,W",,,"61.3","W","75.3","W","47.3","W"
"USW00093227","NAPA CO AIRPORT, CA US","38.2102","-122.2847","4.3","2007","312",,,,,,"18","0,0115, ",,,,,"0.77"," ,0,1110, ","99","0,0829,+","3315","5","9.68"," ,0",,,"56.7","0","70.5","0","42.9","0"
"USW00093107","SAN DIEGO MIRAMAR NAS, CA US","32.86667","-117.13333","145.4","2007",,,,,,,,,,,,,,,,,,,,,,,,,,,,
"USW00093228","HAYWARD AIR TERMINAL, CA US","37.6542","-122.115","13.1","2007","222",,,,,,"28","0,0115, ",,,,,"1.13"," ,0,0210, ","89","0,0905,+","2663","6","11.38"," ,0",,,"58.2","0","66.7","0","49.7","0"
"USC00042771","EL MIRAGE, CA US","34.5891","-117.6302","899.2","2007",,,"        0",,"         0","0",,,"0"," ,0,1231,+","0.0"," ,0,1231,+","1.19"," ,0,1201, ",,,,,"2.47"," ,0","0.0"," ,0",,,,,,
"USC00040232","ANTIOCH PUMPING PLANT NUMBER 3, CA US","37.9833","-121.7525","18.3","2007",,,"        0",,"         0","0",,,"0"," ,0,1231,+","0.0"," ,0,1231,+",,,"106","0,0707,+","2254","2",,,"0.0"," ,0",,,"74.0","0",,
"USR0000CHUR","HURLEY CALIFORNIA, CA US","37.0153","-119.5678","366.1","2007","1299",,,,,,"16","U,0115,+",,,,,,,"111","U,0706,+","3257","3",,,,,"59.4","U","76.3","U","42.5","U"
"USC00049185","UPPER SAN LEANDRO FILTERS, CA US","37.7719","-122.1675","120.1","2007",,,"        0",,"         0","0",,,"0"," ,0,1231,+","0.0"," ,0,1231,+","1.46"," ,0,0210, ",,,,,"16.86"," ,0","0.0"," ,0",,,,,,
"USW00003104","DESERT RESORTS REGIONAL AIRPORT, CA US","33.62667","-116.15944","-36.0","2007","3887",,,,,,"17","W,0117, ",,,,,"0.79"," ,W,1130, ","117","W,0901,+","1176","2","1.42"," ,W",,,"72.2","W","89.0","W","55.4","W"
"USS0020H02S","CROWDER FLAT, CA US","41.89","-120.75","1575.8","2007",,,"       94",,,,,,"12"," ,T,0301, ",,,"0.60"," ,T,0421, ",,,,,"13.56"," ,T",,,,,,,,
"USR0000COAK","OAK KNOLL CALIFORNIA, CA US","41.8386","-122.85","591.3","2007","684",,,,,,"9","U,0113, ",,,,,,,"108","U,0710,+","4315","0",,,,,"54.3","U","70.4","U","38.2","U"
"USR0000CSIV","SIMI VALLEY CALIFORNIA, CA US","34.2911","-118.8144","278.6","2007","879",,,,,,"30","U,0114, ",,,,,,,"102","U,0902, ","1642","4",,,,,"62.4","U","72.3","U","52.6","U"
"USR0000CSIM","SIMS CALIFORNIA, CA US","41.075","-122.3733","731.5","2007","1337",,,,,,"21","U,0112, ",,,,,,,"114","U,0704, ","3464","5",,,,,"58.5","U","72.0","U","44.9","U"
"USR0000CYUR","YUROK CALIFORNIA, CA US","41.2897","-123.8575","150.9","2007",,,,,,,,,,,,,,,,,"3561","2",,,,,,,,,,
"USW00003102","ONTARIO INTERNATIONAL AIRPORT, CA US","34.05611","-117.60028","289.3","2007","1884",,,,,,"25","W,0114, ",,,,,"1.61"," ,W,1130, ","110","W,0903,+","1275","1","6.58"," ,W",,,"66.4","W","79.0","W","53.7","W"
"USC00045933","MOUNT HAMILTON, CA US","37.3436","-121.6425","1282.0","2007","619",,"        9",,"         6","0","18","0,0113, ","4"," ,0,0228,+","5.0"," ,0,0222, ","0.97"," ,0,1111, ","92","0,0705, ","4126","0","15.43"," ,0","16.0"," ,0","54.6","0","61.4","0","47.9","0"
"USR0000CUND","UNDERWOOD CALIFORNIA, CA US","40.7219","-123.4953","792.5","2007",,,,,,,,,,,,,,,,,"4172","8",,,,,,,,,,
"USC00041697","CHERRY VALLEY DAM, CA US","37.9747","-119.9161","1452.4","2007","808",,"       49",,"        18","0","12","0,0113, ","31"," ,0,0228, ","13.0"," ,0,0223, ","2.89"," ,0,0211, ","102","0,0706, ","4373","7","27.65"," ,0","76.5"," ,0","55.0","0","67.4","0","42.7","0"
"USC00041214","BURNEY, CA US","40.8802","-121.6547","974.8","2007",,,"       20",,"         9","0",,,"13"," ,0,0228, ","8.0"," ,0,0227, ","1.12"," ,0,0222, ","103","0,0705, ","5439","9","20.52"," ,0","26.2"," ,0",,,"65.2","0",,
"USC00043875","HEALDSBURG, CA US","38.62935","-122.86646","53.9","2007",,,"        0",,"         0","0","21","0,0113, ","0"," ,0,1231,+","0.0"," ,0,1231,+","3.11"," ,0,1218, ",,,,,"31.78"," ,0","0.0"," ,0",,,,,"46.3","0"
"USR0000CSHQ","SHADEQUARTER CALIFORNIA, CA US","36.5672","-118.9556","1240.2","2007","1262",,,,,,"13","U,0113, ",,,,,,,"102","U,0705, ",,,,,,,"58.3","U","67.6","U","49.1","U"
"USS0020K30S","SQUAW VALLEY G.C., CA US","39.19","-120.26","2447.2","2007","25",,"      182",,,,"-1","T,0113, ","107"," ,T,0226, ",,,"3.30"," ,T,0226, ","81","T,0704, ","7754","0","45.19"," ,T",,,"43.3","T","50.2","T","36.4","T"
"USW00023188","SAN DIEGO INTERNATIONAL AIRPORT, CA US","32.7336","-117.1831","4.6","2007","704",,,,,,"35","0,0115, ",,,,,"0.93"," ,0,1130, ","91","0,0903, ","1340","2","4.38"," ,0",,,"62.9","0","68.6","0","57.2","0"
"USW00023187","SANDBERG, CA US","34.7436","-118.7242","1374.6","2007","1107",,,,,,"14","0,0113, ",,,,,"0.75"," ,0,0128, ","102","0,0704, ","3564","2","4.76"," ,0",,,"57.7","0","67.2","0","48.2","0"
"USW00023182","PALMDALE AIRPORT, CA US","34.62944","-118.08361","769.2","2007","2023",,,,,,"10","W,0114, ",,,,,"0.73"," ,W,1130, ","113","W,0705, ","2645","2","1.70"," ,W",,,"63.2","W","78.6","W","47.9","W"
"USC00049073","TURLOCK NUMBER 2, CA US","37.50193","-120.84566","31.4","2007",,,,,,,,,,,,,,,,,"2097","0",,,,,,,,,,
"USW00093134","LOS ANGELES DOWNTOWN USC, CA US","34.0236","-118.2911","54.6","2007","1215",,,,,,"36","0,0115,+",,,,,"0.89"," ,0,1218, ","101","0,0902, ","803","4","5.67"," ,0",,,"65.6","0","75.0","0","56.2","0"
"USC00042319","DEATH VALLEY NATIONAL PARK, CA US","36.4626","-116.8672","-59.1","2007","6269",,"        0",,"         0","0","24","0,0114, ","0"," ,0,1231,+","0.0"," ,0,1231,+","0.63"," ,0,0922, ","129","0,0707, ","1027","8","1.51"," ,0","0.0"," ,0","79.2","0","93.1","0","65.3","0"
"USR0000CSHH","SCHOOL HOUSE CALIFORNIA, CA US","41.1383","-123.9056","804.7","2007","217",,,,,,"24","U,0112, ",,,,,,,"89","U,0909, ",,,,,,,"51.2","U","58.2","U","44.1","U"
"USR0000CWPK","WHITAKER PEAK CALIFORNIA, CA US","34.5686","-118.7403","1255.8","2007","1458",,,,,,"18","U,0113, ",,,,,,,"104","U,0830, ","2847","5",,,,,"60.7","U","69.8","U","51.5","U"
"USW00003131","SAN DIEGO MONTGOMERY FIELD, CA US","32.81583","-117.13944","127.1","2007","877",,,,,,"30","W,0114, ",,,,,"1.59"," ,W,1130, ","104","W,0903, ","1494","3","7.41"," ,W",,,"63.0","W","71.7","W","54.2","W"
"USW00004222","REDDING 12 WNW, CA US","40.6507","-122.6068","432.2","2007","1364",,,,,,"20","R,0112, ",,,,,"3.27"," ,R,0221, ","111","R,0704, ","3066","3","25.35"," ,R",,,"60.2","R","73.0","R","47.4","R"
"USC00040010","ACAMPO 5 NE, CA US","38.2177","-121.2013","26.5","2007",,,,,,,,,,,,,,,,,,,,,,,,,,,,
"USC00045941","MOUNT HEBRON RANGER STATION, CA US","41.7836","-122.0447","1295.4","2007",,,,,"         1","0",,,,,"5.0"," ,0,0221, ",,,,,,,,,"15.9"," ,0",,,,,,
"USC00043402","GIBRALTAR DAM NUMBER 2, CA US","34.5225","-119.6822","474.9","2007",,,"        0",,"         0","0",,,"0"," ,0,1231,+","0.0"," ,0,1231,+","3.49"," ,0,1219, ",,,,,"12.44"," ,0","0.0"," ,0",,,,,,
"USR0000CFOR","FORESTHILL CALIFORNIA, CA US","39.0914","-120.7317","1327.4","2007","864",,,,,,"15","U,0113, ",,,,,,,"101","U,0706, ","3750","2",,,,,"56.6","U","66.9","U","46.3","U"
"USC00043647","GRIZZLY CREEK STATE, CA US","40.4863","-123.9088","125.9","2007",,,,,,,,,,,,,,,,,,,,,,,,,,,,
"USR0000COAB","OAK BOTTOM CALIFORNIA, CA US","40.6506","-122.6056","404.2","2007","1702",,,,,,"21","U,0112, ",,,,,,,"116","U,0704, ","2798","5",,,,,"62.0","U","76.1","U","47.8","U"
"USR0000CBGR","BANGOR CALIFORNIA, CA US","39.3975","-121.3861","244.8","2007","1345",,,,,,"23","U,0114, ",,,,,,,"105","U,0705, ","2557","7",,,,,"61.5","U","73.5","U","49.4","U"
"USC00040379","AUBERRY 2 NW, CA US","37.0919","-119.5128","637.0","2007","1718",,"        0",,"         1","0","22","0,0113, ","0"," ,0,1231,+","1.0"," ,0,0228, ","1.41"," ,0,0211, ","107","0,0706,+","2884","3","12.48"," ,0","1.5"," ,0","61.4","0","72.8","0","50.0","0"
"USC00040136","ALPINE, CA US","32.8358","-116.7774","516.6","2007",,,"        0",,"         0","0",,,"0"," ,0,1231,+","0.0"," ,0,1231,+",,,,,,,,,"0.0"," ,0",,,,,,
"USC00040014","ACTON ESCONDIDO CANYON, CA US","34.4938","-118.2713","863.5","2007",,,"        0",,"         0","0",,,"0"," ,0,1231,+","0.0"," ,0,1231,+","1.05"," ,0,0922, ",,,,,"5.80"," ,0","0.0"," ,0",,,,,,
"USR0000CYUC","YUCCA VALLEY CALIFORNIA, CA US","34.1233","-116.4078","993.6","2007","1977",,,,,,"13","U,0114, ",,,,,,,"111","U,0705, ","2504","1",,,,,"63.3","U","77.7","U","49.0","U"
"USC00043761","HAPPY CAMP RANGER STATION, CA US","41.79612","-123.37469","348.1","2007",,,"        0",,"         0","0",,,"0"," ,0,1231,+","0.0"," ,0,1231,+",,,,,,,,,"0.0"," ,0",,,,,,
"USC00043882","HEARST CASTLE, CA US","35.6841","-121.1683","465.1","2007",,,"        0",,"         0","0",,,"0"," ,0,1231,+","0.0"," ,0,1231,+","2.80"," ,0,1218, ",,,,,"15.10"," ,0","0.0"," ,0",,,,,,
"USR0000CELC","EL CARISO CALIFORNIA, CA US","33.6472","-117.4111","926.0","2007","2008",,,,,,"31","U,0114,+",,,,,,,"110","U,0831, ","1751","0",,,,,"65.2","U","77.7","U","52.6","U"
"USW00023199","EL CENTRO NAF, CA US","32.81667","-115.68333","-12.8","2007","4204",,,,,,"21","W,0114, ",,,,,"0.94"," ,W,1130, ","116","W,0704, ",,,"2.18"," ,W",,,"73.5","W","89.1","W","58.0","W"
"USW00024286","CRESCENT CITY MCNAMARA AIRPORT, CA US","41.78028","-124.23667","17.1","2007","0",,,,,,"26","W,0112, ",,,,,"1.88"," ,W,0103, ","77","W,1023, ","5241","9","49.49"," ,W",,,"51.0","W","57.1","W","45.0","W"
"USW00024283","ARCATA EUREKA AIRPORT, CA US","40.97806","-124.10861","61.0","2007","1",,,,,,"23","W,0114,+",,,,,"2.67"," ,W,1019, ","78","W,0507, ","5262","1","43.61"," ,W",,,"50.7","W","58.2","W","43.2","W"
"USW00093241","VACAVILLE NUT TREE AIRPORT ASOS, CA US","38.3777","-121.9575","33.2","2007",,,,,,,,,,,,,"1.05"," ,A,1218, ",,,"2328","2","11.67"," ,A",,,,,,,,
"USW00093242","MADERA MUNICIPAL AIRPORT, CA US","36.98778","-120.11056","77.1","2007","1583",,,,,,"20","W,0112, ",,,,,"0.77"," ,W,1218, ","109","W,0705, ","2504","4","5.65"," ,W",,,"62.4","W","77.2","W","47.7","W"
"USR0000CCHC","CHICO CALIFORNIA, CA US","39.7119","-121.7789","70.1","2007","1484",,,,,,"20","U,0113, ",,,,,,,"106","U,0705, ","2464","1",,,,,"62.1","U","76.9","U","47.4","U"
"USW00093243","MERCED 23 WSW, CA US","37.2381","-120.8825","23.8","2007","873",,,,,,"12","R,0115, ",,,,,"0.49"," ,R,0922, ","107","R,0705, ","2925","3","4.91"," ,R",,,"59.3","R","76.4","R","42.2","R"
"USR0000CCHB","CHEESEBORO CALIFORNIA, CA US","34.1847","-118.7172","502.9","2007",,,,,,,,,,,,,,,,,"1340","6",,,,,,,,,,
"USR0000CPAN","PANAMINT CALIFORNIA, CA US","36.1203","-117.0878","2097.0","2007","976",,,,,,"4","U,0113, ",,,,,,,"99","U,0705,+","4327","0",,,,,"55.4","U","67.4","U","43.4","U"
"USS0020K31S","CSS LAB, CA US","39.33","-120.37","2089.4","2007","15",,"      163",,,,"5","T,1227,+","105"," ,T,0226, ",,,"3.70"," ,T,0226, ","87","T,0705, ","7509","5","48.89"," ,T",,,"44.2","T","55.4","T","32.9","T"
"USR0000CACT","ACTON CALIFORNIA, CA US","34.4458","-118.2","792.5","2007","1314",,,,,,"17","U,0114, ",,,,,,,"110","U,0705,+","2459","3",,,,,"61.6","U","78.0","U","45.2","U"
"USR0000CBEU","BEAUMONT CALIFORNIA, CA US","33.9306","-116.95","793.7","2007",,,,,,,,,,,,,,,,,"1931","7",,,,,,,,,,
"USR0000CTIM","TIMBER MOUNTAIN CALIFORNIA, CA US","41.6294","-121.2981","1511.8","2007","459",,,,,,"4","U,0112, ",,,,,,,"102","U,0705, ","5733","8",,,,,"49.6","U","60.5","U","38.6","U"
"USC00043896","HEMET, CA US","33.7381","-116.8939","552.0","2007","1835",,"        0",,"         0","0","21","0,1228, ","0"," ,0,1231,+","0.0"," ,0,1231,+","2.61"," ,0,1130, ","116","0,0829, ","1599","1","5.42"," ,0","0.0"," ,0","65.6","0","83.4","0","47.9","0"
"USR0000CSHA","SHAVER CALIFORNIA, CA US","37.135","-119.2561","1751.4","2007","135",,,,,,"-2","U,0113, ",,,,,,,"97","U,0705, ","5991","4",,,,,"48.7","U","65.9","U","31.5","U"
"USR0000CVND","VANDENBERG CALIFORNIA, CA US","34.7586","-120.4861","320.0","2007","234",,,,,,"28","U,0113, ",,,,,,,"104","U,0902, ","2703","8",,,,,"57.8","U","67.7","U","47.7","U"
"USC00044500","KENTFIELD, CA US","37.9566","-122.5447","44.2","2007",,,"        0",,"         0","0","28","0,0115,+","0"," ,0,1231,+","0.0"," ,0,1231,+","3.01"," ,0,0209, ",,,"2600","7","28.10"," ,0","0.0"," ,0",,,,,"47.3","0"
"USC00044863","LEBEC, CA US","34.83328","-118.86497","1089.7","2007",,,"        0",,"         0","0",,,"0"," ,0,1231,+","0.0"," ,0,1231,+","0.70"," ,0,0213, ",,,,,"6.03"," ,0","0.0"," ,0",,,,,,
"USR0000CFO2","FORT ORD NUMBER 2 CALIFORNIA, CA US","36.6269","-121.7864","149.4","2007","53",,,,,,"28","U,0115, ",,,,,,,"91","U,1023, ","3718","5",,,,,"54.9","U","63.2","U","46.6","U"
"USC00046926","PINNACLES NATIONAL PARK, CA US","36.4819","-121.1822","398.4","2007","580",,"        0",,"         0","0","14","0,0114, ","0"," ,0,1231,+","0.0"," ,0,1231,+","0.64"," ,0,0222, ","110","0,0706, ","2929","5","6.98"," ,0","0.0"," ,0","57.8","0","77.6","0","37.9","0"
"USR0000CCHU","CHUCHUPATE CALIFORNIA, CA US","34.8083","-119.0125","1493.5","2007","199",,,,,,"2","U,0113,+",,,,,,,"101","U,0704, ","5303","3",,,,,"50.7","U","69.4","U","32.0","U"
"USC00042327","DEEP CANYON LAB, CA US","33.6513","-116.3763","365.8","2007",,,"        0",,"         0","0",,,"0"," ,0,1231,+","0.0"," ,0,1231,+",,,,,,,,,"0.0"," ,0",,,,,,
"USC00044628","LA CRESCENTA FC251C, CA US","34.2222","-118.2377","470.9","2007",,,"        0",,"         0","0",,,"0"," ,0,1231,+","0.0"," ,0,1231,+","1.72"," ,0,0923, ",,,,,"10.54"," ,0","0.0"," ,0",,,,,,
"USR0000CCHI","CHILAO CALIFORNIA, CA US","34.3317","-118.0303","1661.2","2007","1193",,,,,,"16","U,0113, ",,,,,,,"100","U,0705, ","3189","9",,,,,"59.0","U","68.5","U","49.5","U"
"USC00040029","ADIN RANGER STATION, CA US","41.19334","-120.94458","1280.8","2007",,,"       17",,"        12","0","5","0,1231,+","10"," ,0,0228, ","7.5"," ,0,0225, ","0.60"," ,0,1119, ",,,,,"10.96"," ,0","37.2"," ,0",,,,,"34.0","0"
"USR0000CPAT","PATTY MOCUS CALIFORNIA, CA US","40.295","-122.8667","1066.8","2007","985",,,,,,"17","U,0112, ",,,,,,,"103","U,0704, ","3811","2",,,,,"56.7","U","67.4","U","46.0","U"
"USR0000CELI","MOUNT ELIZABETH CALIFORNIA, CA US","38.0631","-120.2469","1503.6","2007","839",,,,,,"13","U,0112, ",,,,,,,"95","U,0705, ","4122","0",,,,,"55.7","U","64.3","U","47.1","U"
"USW00023191","AVALON CATALINA AIRPORT, CA US","33.405","-118.41583","488.3","2007",,,,,,,,,,,,,,,,,,,,,,,,,,,,
"USW00093115","IMPERIAL BEACH REAM FIELD NAS, CA US","32.56667","-117.11667","7.3","2007",,,,,,,,,,,,,,,,,,,,,,,,,,,,
"USR0000CPAR","PARKFIELD CALIFORNIA, CA US","35.8989","-120.4319","467.9","2007","1187",,,,,,"11","U,0113, ",,,,,,,"113","U,0705, ","2867","9",,,,,"60.3","U","79.1","U","41.4","U"
"USW00023190","SANTA BARBARA MUNICIPAL AIRPORT, CA US","34.4258","-119.8425","2.7","2007",,,,,,,,,,,,,"1.68"," ,0,1218, ",,,"2529","3","8.39"," ,0",,,,,,,,
"USW00093116","SAN NICOLAS ISLAND, CA US","33.23983","-119.45816","153.0","2007",,,,,,,,,,,,,,,,,,,,,,,,,,,,
"USR0000CELM","EL MIRAGE CALIFORNIA, CA US","34.6344","-117.5503","877.8","2007","1976",,,,,,"6","U,0114,+",,,,,,,"114","U,0705, ","2802","8",,,,,"62.7","U","80.1","U","45.2","U"
"USC00040144","ALTADENA, CA US","34.18211","-118.13827","343.5","2007",,,"        0",,"         0","0",,,"0"," ,0,1231,+","0.0"," ,0,1231,+","1.55"," ,0,1219, ",,,,,"10.54"," ,0","0.0"," ,0",,,,,,
"USW00003159","LANCASTER, CA US","34.7411","-118.2116","712.6","2007","2078",,,,,,"3","0,0114, ",,,,,"0.50"," ,0,1130, ","113","0,0705, ","2919","5","1.93"," ,0",,,"62.7","0","78.6","0","46.9","0"
"USR0000CBUL","BULL FLAT CALIFORNIA, CA US","40.4808","-120.1139","1339.6","2007","352",,,,,,"-9","U,0113, ",,,,,,,"106","U,0705, ","6407","5",,,,,"48.1","U","65.4","U","30.8","U"
"USR0000CBUR","BURNS CANYON CALIFORNIA, CA US","34.2103","-116.6339","1828.8","2007","1178",,,,,,"9","U,0113, ",,,,,,,"96","U,0705, ","3646","4",,,,,"57.7","U","66.4","U","49.0","U"
"USC00047470","RIVERSIDE FIRE STATION 3, CA US","33.9511","-117.388","256.0","2007",,,"        0",,"         0","0",,,"0"," ,0,1231,+","0.0"," ,0,1231,+","2.05"," ,0,1130, ",,,,,"3.43"," ,0","0.0"," ,0",,,,,,
"USS0019L24S","HEAVENLY VALLEY, CA US","38.92","-119.92","2615.8","2007","3",,"      159",,,,"-4","T,0113,+","67"," ,T,0226, ",,,"1.70"," ,T,0104, ","79","T,0705, ","8495","5","22.19"," ,T",,,"41.7","T","51.7","T","31.6","T"
"USR0000CLHO","LOST HORSE CALIFORNIA, CA US","34.0178","-116.1878","1280.2","2007","1584",,,,,,"16","U,0301,+",,,,,,,"107","U,0704, ",,,,,,,"60.6","U","74.6","U","46.6","U"
"USS0020K04S","INDEPENDENCE CAMP, CA US","39.45","-120.29","2134.5","2007","12",,"      142",,,,"-5","T,0113, ","57"," ,T,0226, ",,,"1.70"," ,T,1207, ","88","T,0705, ","7785","8","20.18"," ,T",,,"43.5","T","55.4","T","31.6","T"
"USR0000CASC","ASH CREEK CALIFORNIA, CA US","41.2769","-121.9794","975.4","2007","106",,,,,,"1","U,1231, ",,,,,,,"104","U,0704, ","6060","9",,,,,"48.1","U","67.0","U","29.2","U"
"USC00041806","CLEARLAKE 4 SE, CA US","38.9238","-122.5672","411.2","2007",,,,,,,,,,,,,,,,,,,,,,,,,,,,
"USW00003154","CAMP PENDLETON MCAS, CA US","33.3","-117.35","22.9","2007",,,,,,,,,,,,,,,,,,,,,,,,,,,,
"USR0000CASH","ASH VALLEY CALIFORNIA, CA US","41.0519","-120.6861","1554.5","2007","120",,,,,,"-14","U,1231, ",,,,,,,"102","U,0705, ","6925","0",,,,,"45.7","U","61.9","U","29.6","U"
"USC00047109","POTTER VALLEY POWERHOUSE, CA US","39.3619","-123.1286","310.3","2007","628",,"        0",,"         0","0","15","0,0113, ","0"," ,0,1231,+","0.0"," ,0,1231,+","2.13"," ,0,1204, ","106","0,0705, ","3188","3","29.82"," ,0","0.0"," ,0","57.1","0","73.5","0","40.8","0"
"USC00047228","RAMONA FIRE DEPARTMENT, CA US","33.0113","-116.908","448.1","2007",,,"        0",,"         0","0",,,"0"," ,0,1231,+","0.0"," ,0,1231,+","1.50"," ,0,1130, ",,,,,"9.00"," ,0","0.0"," ,0",,,,,,
"USR0000CRUS","RUSH CREEK CALIFORNIA, CA US","41.2944","-120.8639","1463.0","2007","514",,,,,,"5","U,0112, ",,,,,,,"100","U,0705, ","5729","8",,,,,"49.7","U","59.4","U","40.1","U"
"USC00046252","NORTH FORK RANGER STATION, CA US","37.2329","-119.5097","806.2","2007",,,"        0",,"         0","0",,,"0"," ,0,1231,+","0.0"," ,0,1231,+",,,,,,,,,"0.0"," ,0",,,,,,
"USR0000CBUU","BUTTERCUP CALIFORNIA, CA US","32.7397","-114.8839","66.1","2007","4708",,,,,,"24","U,0114, ",,,,,,,"117","U,0704, ","797","8",,,,,"75.4","U","90.2","U","60.6","U"
"USC00046498","ORICK PRAIRIE, CA US","41.3619","-124.0191","48.8","2007",,,,,"         0","0",,,,,"0.0"," ,0,1231,+",,,,,,,"60.15"," ,0","0.0"," ,0",,,,,,
"USC00046136","NEVADA CITY, CA US","39.2466","-121.0008","847.6","2007","699",,"        8",,"         3","0","18","0,0113, ","8"," ,0,0228, ","8.0"," ,0,0228, ","3.29"," ,0,0211, ","98","0,0707,+","3787","8","45.14"," ,0","14.1"," ,0","56.0","0","67.4","0","44.5","0"
"USC00049660","WHITTIER CITY YARD FC106C, CA US","33.9758","-118.0222","135.9","2007",,,"        0",,"         0","0",,,"0"," ,0,1231,+","0.0"," ,0,1231,+","1.00"," ,0,0420, ",,,,,"6.07"," ,0","0.0"," ,0",,,,,,
"USC00049781","WOODLAND 1 WNW, CA US","38.6829","-121.794","20.4","2007","1489",,"        0",,"         0","0","23","0,0114, ","0"," ,0,1231,+","0.0"," ,0,1231,+","1.76"," ,0,1207, ","109","0,0706, ","2032","8","11.67"," ,0","0.0"," ,0","63.3","0","76.3","0","50.3","0"
"USR0000CKET","KETTLEMAN HILLS CALIFORNIA, CA US","36.0333","-120.0569","246.9","2007","2383",,,,,,"28","U,0113, ",,,,,,,"108","U,0706,+","1854","1",,,,,"66.3","U","76.5","U","56.1","U"
"USS0020K05S","INDEPENDENCE LAKE, CA US","39.43","-120.31","2545.7","2007","56",,"      233",,,,"-2","T,0113, ","111"," ,T,0226, ",,,"2.40"," ,T,0210, ","86","T,0705, ","7918","1","34.28"," ,T",,,"43.0","T","50.8","T","35.2","T"
"USR0000CMIO","MILO CALIFORNIA, CA US","36.2314","-118.8689","586.1","2007","2248",,,,,,"27","U,0114,+",,,,,,,"114","U,0706, ","2276","4",,,,,"64.6","U","76.0","U","53.3","U"
"USS0020L02S","RUBICON NUMBER 2, CA US","39.0","-120.13","2343.6","2007","73",,"      168",,,,"3","T,0113, ","69"," ,T,0226, ",,,"2.10"," ,T,0226, ","84","T,0705, ","7155","1","26.09"," ,T",,,"45.2","T","53.1","T","37.4","T"
"USR0000CPOP","POPPY PARK CALIFORNIA, CA US","34.7325","-118.3833","841.2","2007","2265",,,,,,"12","U,0114,+",,,,,,,"115","U,0705, ",,,,,,,"64.0","U","77.3","U","50.8","U"
"USW00003144","IMPERIAL CO AIRPORT, CA US","32.83417","-115.57861","-17.7","2007","4381",,,,,,"21","W,0114, ",,,,,"0.73"," ,W,1130, ","116","W,0901,+","937","7","1.61"," ,W",,,"74.3","W","89.4","W","59.1","W"
"USR0000CPOV","POVERTY CALIFORNIA, CA US","37.4431","-121.7706","629.7","2007","595",,,,,,"26","U,0113, ",,,,,,,"99","U,0705, ","3134","9",,,,,"57.5","U","66.6","U","48.5","U"
"USR0000CPOT","POTRERO CALIFORNIA, CA US","32.6058","-116.6089","714.8","2007","1211",,,,,,"16","U,0114, ",,,,,,,"110","U,0903, ","2496","9",,,,,"61.3","U","78.6","U","44.0","U"
"USR0000CBUC","BUCK MEADOWS CALIFORNIA, CA US","37.8233","-120.0975","975.4","2007","731",,,,,,"11","U,0113, ",,,,,,,"105","U,0705, ","4086","9",,,,,"55.7","U","70.8","U","40.4","U"
"USC00046144","NEWARK, CA US","37.5147","-122.0325","3.0","2007","372",,"        0",,"         0","0","30","0,0113, ","0"," ,0,1231,+","0.0"," ,0,1231,+","0.69"," ,0,0210, ","98","0,0831, ","2370","9","8.39"," ,0","0.0"," ,0","59.5","0","68.5","0","50.5","0"
"USC00046263","NORTHRIDGE CAL STATE, CA US","34.2447","-118.525","275.5","2007","1718",,"        0",,"         0","0","27","0,0114, ","0"," ,0,1231,+","0.0"," ,0,1231,+","0.70"," ,0,0921, ","109","0,0902, ",,,"5.93"," ,0","0.0"," ,0","66.3","0","78.4","0","54.1","0"
"USC00047111","POWAY VALLEY, CA US","33.01953","-117.03096","197.5","2007",,,"        0",,"         0","0",,,"0"," ,0,1231,+","0.0"," ,0,1231,+",,,,,,,,,"0.0"," ,0",,,,,,
"USC00048200","SHOSHONE, CA US","35.97167","-116.27083","471.2","2007",,,"        0",,"         0","0",,,"0"," ,0,1231,+","0.0"," ,0,1231,+","1.50"," ,0,0921, ",,,,,"3.04"," ,0","0.0"," ,0",,,,,,
"USR0000CARR","ARROYO SECO MT. DIABLO CALIF, CA US","36.23","-121.4917","298.7","2007",,,,,,,,,,,,,,,"110","U,0704, ","2326","0",,,,,,,"78.1","U",,
"USC00047473","RIVERSIDE CITRUS EXPERIMENTAL, CA US","33.96694","-117.36139","300.5","2007","1920",,"        0",,"         0","0","26","0,0114, ","0"," ,0,1231,+","0.0"," ,0,1231,+","1.94"," ,0,1130, ","113","0,0902, ","1140","3","4.06"," ,0","0.0"," ,0","66.6","0","81.3","0","51.9","0"
"USC00046027","MUIR WOODS, CA US","37.8977","-122.5688","67.1","2007",,,,,,,,,,,,,,,,,,,,,,,,,,,,
"USC00046161","NEWHALL 5 NW, CA US","34.3933","-118.5938","538.0","2007",,,,,,,,,,,,,,,,,,,,,,,,,,,,
"USC00047370","REPRESA, CA US","38.6944","-121.1611","89.9","2007",,,"        0",,"         0","0",,,"0"," ,0,1231,+","0.0"," ,0,1231,+","5.75"," ,0,0225, ",,,,,"12.54"," ,0","0.0"," ,0",,,,,,
"USC00040738","BIG BAR 4 E, CA US","40.7405","-123.2077","381.9","2007","778",,"        3",,"         1","0","16","0,0114,+","2"," ,0,0227, ","2.0"," ,0,0227, ","1.60"," ,0,0222, ","108","0,0706, ","4023","0","24.19"," ,0","4.2"," ,0","55.9","0","70.8","0","41.0","0"
"USC00041948","COLUSA 2 SSW, CA US","39.1875","-122.0269","15.2","2007","1149",,"        0",,"         0","0","22","0,0116, ","0"," ,0,1231,+","0.0"," ,0,1231,+","0.80"," ,0,1111,+","104","0,0707,+","2435","8","10.30"," ,0","0.0"," ,0","61.3","0","76.0","0","46.5","0"
"USW00003177","CARLSBAD MCCLELLAN PALOMAR AIRPORT, CA US","33.12806","-117.27944","100.0","2007","597",,,,,,"33","W,0114, ",,,,,"2.69"," ,W,1130, ","92","W,0902, ","1658","1","8.25"," ,W",,,"62.0","W","68.4","W","55.5","W"
"USW00003179","CHINO AIRPORT, CA US","33.97528","-117.63611","198.1","2007","1500",,,,,,"20","W,0114, ",,,,,"1.16"," ,W,1130, ","112","W,0903, ","1491","6","3.09"," ,W",,,"64.7","W","80.1","W","49.3","W"
"USW00003178","SAN DIEGO BROWN FIELD, CA US","32.57222","-116.97944","157.0","2007","679",,,,,,"27","W,0114, ",,,,,"1.56"," ,W,0219, ","100","W,0903, ","1740","8","6.38"," ,W",,,"61.9","W","71.7","W","52.1","W"
"USR0000CMIL","MILL CREEK ANF CALIFORNIA, CA US","34.3903","-118.0825","1530.4","2007",,,,,,,,,,,,,,,,,"3385","8",,,,,,,,,,
"USR0000CRSP","ROSE PEAK CALIFORNIA, CA US","37.5019","-121.7355","932.7","2007",,,,,,,,,,,,,,,,,"3814","9",,,,,,,,,,
"USW00003171","RIVERSIDE MUNICIPAL AIRPORT, CA US","33.95194","-117.43861","245.2","2007",,,,,,,,,,,,,"0.46"," ,W,0420, ",,,"1619","2","1.39"," ,W",,,,,,,,
"USC00045064","LOMPOC, CA US","34.6538","-120.4513","22.9","2007",,,"        0",,"         0","0",,,"0"," ,0,1231,+","0.0"," ,0,1231,+",,,,,,,,,"0.0"," ,0",,,,,,
"USC00046154","NEW CUYAMA FIRE STATION, CA US","34.9455","-119.6827","658.4","2007",,,"        0",,"         0","0","9","0,0115,+","0","T,0,0213, ","0.0","T,0,0213, ","1.00"," ,0,0117, ",,,,,"4.63"," ,0","0.0","T,0",,,,,"42.0","0"
"USR0000CBSR","BIG SUR CALIFORNIA, CA US","36.2356","-121.785","137.2","2007","302",,,,,,"30","U,0113,+",,,,,,,"101","U,0902, ","2550","7",,,,,"58.6","U","71.8","U","45.4","U"
"USR0000CMID","MID HILLS CALIFORNIA, CA US","35.1231","-115.4114","1649.9","2007","1292",,,,,,"13","U,0113, ",,,,,,,"101","U,0705, ","3645","2",,,,,"58.0","U","67.7","U","48.3","U"
"USC00046399","OJAI, CA US","34.4477","-119.2275","227.1","2007",,,,,,,,,,,,,,,,,"2020","2",,,,,,,,,,
"USC00049785","WOODLAND HILLS PIERCE COLLEGE, CA US","34.1819","-118.5744","240.8","2007","1572",,"        0",,"         0","0","20","0,0114, ","0"," ,0,1231,+","0.0"," ,0,1231,+","1.07"," ,0,0922, ","111","0,0901, ",,,"6.26"," ,0","0.0"," ,0","65.2","0","81.8","0","48.6","0"
"USR0000CBRK","BLACKROCK CALIFORNIA, CA US","36.0931","-118.2603","2499.4","2007","75",,,,,,"-7","U,0113, ",,,,,,,"91","U,0704, ","6485","7",,,,,"47.2","U","62.2","U","32.3","U"
"USR0000CJAR","JARBO GAP CALIFORNIA, CA US","39.7358","-121.4889","759.0","2007","1543",,,,,,"27","U,0112, ",,,,,,,"107","U,0706,+","2981","3",,,,,"60.8","U","72.4","U","49.3","U"
"USR0000CBRI","BRIONES CALIFORNIA, CA US","37.9442","-122.1178","442.0","2007","643",,,,,,"29","U,0114, ",,,,,,,"104","U,0705, ","2850","3",,,,,"58.9","U","69.8","U","48.0","U"
"USR0000CDVR","DEVORE CALIFORNIA, CA US","34.2211","-117.4044","627.0","2007","1770",,,,,,"28","U,0114, ",,,,,,,"106","U,0903,+","1694","9",,,,,"64.8","U","75.6","U","54.0","U"
"USR0000CSTA","STAMPEDE CALIFORNIA, CA US","39.4833","-120.075","2093.1","2007","162",,,,,,"-2","U,0113, ",,,,,,,"97","U,0705,+","6778","6",,,,,"46.6","U","62.0","U","31.2","U"
"USC00046174","NEW MELONES DAM HQ, CA US","38.0047","-120.4863","292.6","2007","1681",,"        0",,"         0","0","24","0,0113, ","0"," ,0,1231,+","0.0"," ,0,1231,+","1.48"," ,0,1219, ","110","0,0706, ","2374","9","20.54"," ,0","0.0"," ,0","62.6","0","75.9","0","49.4","0"
"USC00048351","SONOMA, CA US","38.2994","-122.4622","29.6","2007",,,"        0",,"         0","0","24","0,0117,+","0"," ,0,1231,+","0.0"," ,0,1231,+","1.17"," ,0,1220, ",,,,,"15.95"," ,0","0.0"," ,0",,,,,"44.9","0"
"USR0000CBRO","BROOKS CALIFORNIA, CA US","38.7383","-122.1447","107.9","2007","1631",,,,,,"21","U,0114, ",,,,,,,"107","U,0706,+","2288","2",,,,,"63.1","U","77.2","U","49.0","U"
"USS0019L45S","CARSON PASS, CA US","38.69","-119.99","2546.0","2007","5",,"      207",,,,"-5","T,0113, ","88"," ,T,0226, ",,,"1.70"," ,T,0222, ","81","T,0704, ","8364","8","25.88"," ,T",,,"42.0","T","52.0","T","32.0","T"
"USC00041715","CHICO UNIVERSITY FARM, CA US","39.6911","-121.8211","56.4","2007",,,"        0",,"         0","0",,,"0"," ,0,1231,+","0.0"," ,0,1231,+",,,,,,,,,"0.0"," ,0",,,,,,
"USR0000COKO","OAK OPENING CALIFORNIA, CA US","36.1753","-118.7017","987.6","2007","1626",,,,,,"20","U,0114, ",,,,,,,"109","U,0705, ","2913","3",,,,,"60.9","U","73.0","U","48.7","U"
"USR0000COKN","OAKLAND NORTH CALIFORNIA, CA US","37.865","-122.2208","427.6","2007","232",,,,,,"15","U,1228, ",,,,,,,"94","U,0614, ",,,,,,,"55.8","U","64.4","U","47.1","U"
"USC00041838","CLOVERDALE, CA US","38.79296","-123.0263","121.9","2007",,,"        0",,"         0","0",,,"0"," ,0,1231,+","0.0"," ,0,1231,+","2.30"," ,0,0209, ",,,,,"25.61"," ,0","0.0"," ,0",,,,,,
"USR0000CBRA","BRANCH MOUNTAIN CALIFORNIA, CA US","35.1889","-120.0833","1149.1","2007","1306",,,,,,"19","U,0113, ",,,,,,,"105","U,0705, ","3089","3",,,,,"59.3","U","69.9","U","48.7","U"
"USW00003166","FULLERTON MUNICIPAL AIRPORT, CA US","33.87194","-117.97889","29.3","2007","1579",,,,,,"28","W,0114, ",,,,,"1.16"," ,W,1130, ","108","W,0903, ","1039","3","5.30"," ,W",,,"66.5","W","77.2","W","55.7","W"
"USR0000CBRF","BEAR FLAT CALIFORNIA, CA US","41.295","-120.3133","1889.8","2007","178",,,,,,"-2","U,0113,+",,,,,,,"98","U,0705, ","7116","5",,,,,"45.0","U","58.1","U","31.9","U"
"USR0000CLEO","LEO CARRILLO CALIFORNIA, CA US","34.0456","-118.9358","15.2","2007","482",,,,,,"35","U,0114, ",,,,,,,"97","U,1023, ","1356","3",,,,,"62.1","U","70.6","U","53.5","U"
"USW00003167","HAWTHORNE MUNICIPAL AIRPORT, CA US","33.92278","-118.33417","19.2","2007","1236",,,,,,"34","W,0114, ",,,,,"0.76"," ,W,1130, ","98","W,1024, ","1011","6","4.91"," ,W",,,"65.7","W","73.2","W","58.2","W"
"USC00040983","BORREGO DESERT PARK, CA US","33.2559","-116.4036","246.9","2007","4140",,"        0",,"         0","0","24","0,0115, ","0"," ,0,1231,+","0.0"," ,0,1231,+","0.78"," ,0,1201, ","115","0,0901,+","950","6","1.52"," ,0","0.0"," ,0","73.7","0","88.6","0","58.8","0"
"USR0000CPNN","PINNACLES CALIFORNIA, CA US","36.4708","-121.1472","402.9","2007","1141",,,,,,"18","U,0114, ",,,,,,,"112","U,0705, ","2332","8",,,,,"61.5","U","78.7","U","44.4","U"
"USR0000CSTO","STONYFORD CALIFORNIA, CA US","39.3669","-122.575","365.8","2007",,,,,,,,,,,,,,,,,"2933","4",,,,,,,,,,
"USC00048587","STONY GORGE RESERVOIR, CA US","39.5861","-122.5341","243.8","2007","1246",,"        0",,"         0","0","15","0,0114, ","0","T,0,1228, ","0.0","T,0,1228, ","1.10"," ,0,0209, ","107","0,0706, ","3040","8","9.89"," ,0","0.0","T,0","59.8","0","75.9","0","43.6","0"
"USC00047253","RANDSBURG, CA US","35.3692","-117.6525","1088.1","2007","2099",,"        0",,"         0","0","12","0,0113, ","0"," ,0,1231,+","0.0"," ,0,1231,+","0.35"," ,0,0219, ","109","0,0706, ","2674","7","1.29"," ,0","0.0"," ,0","63.2","0","76.2","0","50.3","0"
"USC00046168","NEWMAN, CA US","37.2811","-121.0177","27.4","2007","1853",,"        0",,"         0","0","15","0,0114, ","0"," ,0,1231,+","0.0"," ,0,1231,+","0.47"," ,0,1218, ","112","0,0705, ","2105","7","4.46"," ,0","0.0"," ,0","64.9","0","81.7","0","48.1","0"
"USR0000CAPT","ALDER POINT CALIFORNIA, CA US","40.1867","-123.5903","281.3","2007","472",,,,,,"21","U,0113, ",,,,,,,"102","U,0830,+","3651","6",,,,,"55.8","U","67.6","U","44.0","U"
"USW00093193","FRESNO YOSEMITE INTERNATIONAL, CA US","36.78","-119.7194","101.5","2007","2119",,"        0",,"         0","0","23","0,0113, ","0"," ,0,1231,+","0.0"," ,0,1231,+","1.64"," ,0,1218, ","111","0,0706,+","2259","0","7.04"," ,0","0.0"," ,0","64.5","0","77.5","0","51.6","0"
"USR0000CLDR","LADDER BUTTE CALIFORNIA, CA US","40.8072","-121.2967","1752.6","2007","352",,,,,,"4","U,0112, ",,,,,,,"95","U,0704, ","5735","3",,,,,"49.2","U","59.4","U","39.0","U"
"USC00049452","WASCO, CA US","35.5892","-119.352","88.7","2007",,,"        0",,"         0","0",,,"0"," ,0,1231,+","0.0"," ,0,1231,+","0.25"," ,0,1219,+",,,,,"2.31"," ,0","0.0"," ,0",,,,,,
"USC00049694","WILLOW CREEK 1 NW, CA US","40.9466","-123.6363","141.4","2007",,,"        0",,"         0","0",,,"0"," ,0,1231,+","0.0"," ,0,1231,+",,,,,,,"40.93"," ,0","0.0"," ,0",,,,,,
"USW00093197","SANTA MONICA MUNICIPAL AIRPORT, CA US","34.01583","-118.45139","53.0","2007","557",,,,,,"32","W,0114, ",,,,,"0.48"," ,W,0921, ","94","W,1024, ","1408","3","1.50"," ,W",,,"62.2","W","69.7","W","54.7","W"
"USC00047150","PRIEST VALLEY, CA US","36.18833","-120.69528","701.0","2007","785",,"        0",,"         0","0","8","0,0114,+","0"," ,0,1231,+","0.0"," ,0,1231,+","1.85"," ,0,1217, ","110","0,0705, ","3665","2","10.32"," ,0","0.0"," ,0","56.8","0","76.4","0","37.1","0"
"USC00041967","CONCORD WASTEWATER PLANT, CA US","37.9833","-122.0692","12.2","2007",,,"        0",,"         0","0","26","0,0115,+","0"," ,0,1231,+","0.0"," ,0,1231,+","1.05"," ,0,1207, ",,,,,"10.57"," ,0","0.0"," ,0",,,,,"49.5","0"
"USR0000CSRS","SANTA ROSA CALIFORNIA, CA US","38.4786","-122.7119","175.6","2007","452",,,,,,"31","U,0116,+",,,,,,,"99","U,0829, ","2520","3",,,,,"59.0","U","70.7","U","47.2","U"
"USR0000CCSH","CASHMAN CALIFORNIA, CA US","40.0017","-120.915","1377.7","2007","852",,,,,,"15","U,1227, ",,,,,,,"108","U,0705, ","4558","3",,,,,"54.5","U","69.0","U","39.9","U"
"USR0000COKG","OAK GROVE CALIFORNIA, CA US","33.3933","-116.795","838.8","2007","1489",,,,,,"16","U,0114, ",,,,,,,"107","U,0705,+","2245","3",,,,,"62.7","U","80.1","U","45.3","U"
"USR0000CDVA","DEL VALLE CALIFORNIA, CA US","34.4311","-118.6828","389.5","2007","1785",,,,,,"24","U,0114, ",,,,,,,"113","U,0901,+","1420","9",,,,,"65.6","U","80.0","U","51.2","U"
"USR0000CTUO","GAYLOR MEADOW CALIFORNIA, CA US","37.8683","-119.3183","2825.5","2007","0",,,,,,"-16","U,0113, ",,,,,,,"84","U,0705,+","9636","3",,,,,"38.6","U","55.6","U","21.6","U"
"USC00042934","FAIRFIELD, CA US","38.2736","-122.0677","12.2","2007","917",,"        0",,"         0","0","23","0,0115, ","0"," ,0,1231,+","0.0"," ,0,1231,+","1.32"," ,0,1207, ","108","0,0706, ","2440","6","15.17"," ,0","0.0"," ,0","60.9","0","74.2","0","47.6","0"
"USR0000CBR4","BRIDGEPORT 4 NW CALIFORNIA, CA US","38.2719","-119.2892","2026.9","2007","309",,,,,,"-12","U,0113, ",,,,,,,"97","U,0704, ","6227","3",,,,,"48.5","U","64.4","U","32.7","U"
"USS0019L17S","LOBDELL LAKE, CA US","38.44","-119.37","2814.2","2007","2",,"      176",,,,"-19","T,0113, ","43"," ,T,0227,+",,,"1.10"," ,T,0104, ","83","T,0705, ","8991","1","13.87"," ,T",,,"40.5","T","52.0","T","29.0","T"
"USS0019L05S","BLUE LAKES, CA US","38.61","-119.92","2455.8","2007","4",,"      228",,,,"-6","T,0113, ","69"," ,T,0227, ",,,"1.50"," ,T,1220,+","81","T,0704, ","8617","1","25.40"," ,T",,,"41.3","T","51.7","T","30.9","T"
"USC00049200","VACAVILLE, CA US","38.39556","-121.96083","33.5","2007","1299",,"        0",,"         0","0","23","0,0114, ","0"," ,0,1231,+","0.0"," ,0,1231,+","1.24"," ,0,1207, ","109","0,0706,+","2052","0","13.39"," ,0","0.0"," ,0","63.2","0","77.8","0","48.5","0"
"USC00049684","WILLITS 1 NE, CA US","39.4194","-123.3425","412.4","2007","109",,"        0",,"         0","0","14","0,0114,+","0"," ,0,1231,+","0.0"," ,0,1231,+","2.15"," ,0,1204, ","96","0,0706, ","4846","4","31.85"," ,0","0.0"," ,0","51.5","0","66.3","0","36.7","0"
"USR0000CMET","METCALF GAP CALIFORNIA, CA US","37.4094","-119.7681","937.9","2007","1981",,,,,,"23","U,0113, ",,,,,,,"108","U,0705, ",,,,,,,"62.7","U","73.4","U","52.0","U"
"USC00048490","STANDISH HICKEY ST PK, CA US","39.87778","-123.7275","260.0","2007",,,,,,,,,,,,,,,,,,,,,,,,,,,,
"USC00049582","WEST POINT, CA US","38.3775","-120.5452","845.8","2007",,,"        0",,"         0","0",,,"0"," ,0,1231,+","0.0"," ,0,1231,+","3.20"," ,0,0225, ",,,,,"28.53"," ,0","0.0"," ,0",,,,,,
"USR0000CBPI","BIG PINE FLAT CALIFORNIA, CA US","34.3194","-117.0131","2091.2","2007","410",,,,,,"-3","U,0113, ",,,,,,,"100","U,0706, ","5141","1",,,,,"51.9","U","68.3","U","35.4","U"
"USW00093184","SANTA ANA JOHN WAYNE AIRPORT, CA US","33.68","-117.86639","16.5","2007","907",,,,,,"33","W,0114, ",,,,,"1.17"," ,W,1130, ","99","W,1023,+","1065","7","4.30"," ,W",,,"64.2","W","72.3","W","56.2","W"
"USC00046074","NAPA STATE HOSPITAL, CA US","38.2777","-122.2647","10.7","2007","581",,"        0",,"         0","0","25","0,0114, ","0"," ,0,1231,+","0.0"," ,0,1231,+","1.00"," ,0,1207, ","100","0,0829,+","2361","8","14.70"," ,0","0.0"," ,0","60.0","0","73.1","0","46.9","0"
"USR0000CCRN","CORNING CALIFORNIA, CA US","39.9389","-122.1697","89.6","2007","1758",,,,,,"18","U,0114, ",,,,,,,"110","U,0823,+",,,,,,,"63.2","U","77.4","U","48.9","U"
"USS0020L10S","FALLEN LEAF, CA US","38.93","-120.05","1900.7","2007","4",,"       96",,,,"2","T,0113, ","35"," ,T,0226, ",,,"1.70"," ,T,0104, ","85","T,0706, ","7474","4","19.38"," ,T",,,"44.7","T","58.0","T","31.3","T"
"USC00046194","NICOLAUS NUMBER 2, CA US","38.9261","-121.5447","13.1","2007",,,"        0",,"         0","0",,,"0"," ,0,1231,+","0.0"," ,0,1231,+","1.50"," ,0,1207, ",,,,,"10.74"," ,0","0.0"," ,0",,,,,,
"USC00043914","HENSHAW DAM, CA US","33.2372","-116.7614","823.0","2007",,,"        0",,"         0","0",,,"0"," ,0,1231,+","0.0"," ,0,1231,+","4.08"," ,0,1201, ","108","0,0830, ",,,"15.23"," ,0","0.0"," ,0",,,"77.5","0",,
"USS0020K25S","WARD CREEK NUMBER 3, CA US","39.14","-120.22","2028.4","2007","4",,"      162",,,,"-6","T,0113, ","91"," ,T,0228,+",,,"3.40"," ,T,0226, ","87","T,0704, ","7585","2","43.90"," ,T",,,"44.2","T","57.8","T","30.6","T"
"USS0020K13S","TRUCKEE NUMBER 2, CA US","39.3","-120.18","1983.9","2007","149",,"      136",,,,"2","T,0113, ","63"," ,T,0226, ",,,"1.80"," ,T,0226, ","93","T,0705, ","6547","3","22.28"," ,T",,,"47.1","T","58.4","T","35.8","T"
"USR0000CROU","ROUND MOUNTAIN, CA US","41.4272","-121.4639","1602.6","2007",,,,,,,"6","U,0112, ",,,,,,,,,"6195","5",,,,,,,,,"38.9","U"
"USR0000CPKR","PARK RIDGE CALIFORNIA, CA US","36.7242","-118.9425","2298.2","2007","280",,,,,,"4","U,0113, ",,,,,,,"89","U,0704, ","5471","7",,,,,"50.6","U","60.4","U","40.7","U"
"USR0000CSQU","SQUAW LAKE CALIFORNIA, CA US","32.9083","-114.4944","91.4","2007","4964",,,,,,"31","U,0114, ",,,,,,,"117","U,0828, ","754","2",,,,,"76.3","U","89.3","U","63.3","U"
"USR0000CCRE","CRESTVIEW CALIFORNIA, CA US","37.745","-118.9833","2316.5","2007","15",,,,,,"-27","U,0113, ",,,,,,,"96","U,0704, ","7836","5",,,,,"43.8","U","63.1","U","24.5","U"
"USR0000CROS","ROSE VALLEY CALIFORNIA, CA US","34.5431","-119.1842","1015.3","2007","373",,,,,,"3","U,0114, ",,,,,,,"105","U,0705, ","4214","9",,,,,"54.3","U","74.2","U","34.3","U"
"USR0000CSQS","SQUAW SPRINGS CALIFORNIA, CA US","35.37","-117.5683","1103.4","2007","2352",,,,,,"18","U,0113, ",,,,,,,"109","U,0705, ","2276","3",,,,,"64.8","U","75.2","U","54.4","U"
"USR0000CCRZ","CRAZY PEAK CALIFORNIA, CA US","41.9919","-123.6036","1210.1","2007",,,,,,,,,,,,,,,,,"5065","8",,,,,,,,,,
"USC00040521","BARSTOW, CA US","34.8927","-117.0219","676.7","2007","2742",,"        0",,"         0","0","12","0,0114, ","0"," ,0,1231,+","0.0"," ,0,1231,+","1.20"," ,0,1130, ","114","0,0705, ","2198","2","1.94"," ,0","0.0"," ,0","66.5","0","80.7","0","52.2","0"
"USC00042941","FAIRMONT, CA US","34.705","-118.4297","932.7","2007",,,,,,,,,,,,,,,,,"2737","7",,,,,,,,,,
"USR0000CANZ","ANZA CALIFORNIA, CA US","33.555","-116.673","1194.8","2007","926",,,,,,"12","U,0114, ",,,,,,,"103","U,0705, ","3411","3",,,,,"57.9","U","72.1","U","43.7","U"
"USC00041614","CEDARVILLE, CA US","41.5301","-120.1791","1428.9","2007","659",,"       34",,"         6","0","3","0,1222, ","4"," ,0,1220, ","4.0"," ,0,1220, ","1.09"," ,0,1020, ","105","0,0706, ","6047","6","8.00"," ,0","11.0"," ,0","49.7","0","63.8","0","35.5","0"
"USR0000CCRR","CARPENTER RIDGE CALIFORNIA, CA US","40.0686","-121.5825","1466.7","2007","625",,,,,,"13","U,0112, ",,,,,,,"97","U,0705, ","4581","1",,,,,"53.5","U","62.5","U","44.5","U"
"USR0000CMEY","MEYERS CALIFORNIA, CA US","38.8489","-120.0181","1923.3","2007","84",,,,,,"3","U,1221, ",,,,,,,"94","U,0705,+",,,,,,,"46.3","U","61.7","U","30.8","U"
"USR0000COJA","OJAI CALIFORNIA, CA US","34.4483","-119.2303","233.2","2007","673",,,,,,"21","U,0113, ",,,,,,,"102","U,0903,+","2394","1",,,,,"59.8","U","73.6","U","46.1","U"
"USR0000CCRT","CRANSTON CALIFORNIA, CA US","33.7403","-116.8414","594.4","2007","2149",,,,,,"25","U,0115,+",,,,,,,"111","U,0829, ","1560","8",,,,,"66.3","U","82.8","U","49.9","U"
"USC00047050","POMONA FAIRPLEX, CA US","34.0816","-117.7658","304.5","2007",,,"        0",,"         0","0",,,"0"," ,0,1231,+","0.0"," ,0,1231,+","1.40"," ,0,0211, ",,,,,"6.40"," ,0","0.0"," ,0",,,,,,
"USC00048380","SO ENTRANCE YOSEMITE N.P., CA US","37.5122","-119.6331","1538.3","2007",,,"       25",,"         7","0",,,"5"," ,0,1221,+","3.0"," ,0,1208, ",,,,,,,,,"9.9"," ,0",,,,,,
"USC00049351","VINTON, CA US","39.8056","-120.1858","1508.8","2007",,,"       20",,"        10","0",,,"10"," ,0,0227, ","6.0"," ,0,0327,+","1.39"," ,0,0211, ",,,,,"10.60"," ,0","35.4"," ,0",,,,,,
"USC00049473","WATSONVILLE WATERWORKS, CA US","36.9308","-121.7691","29.0","2007","115",,"        0",,"         0","0","24","0,0114, ","0"," ,0,1231,+","0.0"," ,0,1231,+","0.82"," ,0,1219, ","94","0,1025, ","3037","4","12.50"," ,0","0.0"," ,0","56.7","0","67.6","0","45.9","0"
"USR0000CBOG","BOGARD RANGER STATION CALIFORNIA, CA US","40.5981","-121.0831","1722.1","2007","34",,,,,,"-15","U,1231,+",,,,,,,"100","U,0705, ","7934","8",,,,,"42.8","U","61.2","U","24.3","U"
"USC00049111","TWITCHELL DAM, CA US","34.988","-120.3211","177.4","2007","415",,"        0",,"         0","0","20","0,0114, ","0"," ,0,1231,+","0.0"," ,0,1231,+","1.90"," ,0,1218, ","111","0,0902, ","2039","0","9.73"," ,0","0.0"," ,0","59.9","0","74.6","0","45.3","0"
"USC00047293","RED BLUFF TREATMENT PLANT, CA US","40.1622","-122.2202","80.8","2007",,,"        0",,"         0","0",,,"0"," ,0,1231,+","0.0"," ,0,1231,+","1.60"," ,0,0209, ",,,,,"14.96"," ,0","0.0"," ,0",,,,,,
"USR0000CNFO","NORTH FORK CALIFORNIA, CA US","37.2331","-119.5047","829.1","2007",,,,,,,,,,,,,,,,,"3041","5",,,,,,,,,,
"USR0000CMEA","MEANS LAKE CALIFORNIA, CA US","34.3906","-116.5169","883.9","2007","2712",,,,,,"14","U,0117,+",,,,,,,"116","U,0705, ","2264","7",,,,,"66.1","U","80.9","U","51.2","U"
"USC00041864","COALINGA, CA US","36.1356","-120.3606","204.2","2007",,,"        0",,"         0","0",,,"0"," ,0,1231,+","0.0"," ,0,1231,+","0.77"," ,0,1219, ",,,,,"4.14"," ,0","0.0"," ,0",,,,,,
"USC00043800","HARRY L. ENGLEBRIGHT DAM, CA US","39.2372","-121.2666","243.8","2007",,,"        0",,"         0","0",,,"0"," ,0,1231,+","0.0"," ,0,1231,+",,,,,,,,,"0.0"," ,0",,,,,,
"USC00048014","SAUGUS POWER PLANT 1, CA US","34.5894","-118.4547","636.7","2007",,,"        0",,"         0","0",,,"0"," ,0,1231,+","0.0"," ,0,1231,+","1.01"," ,0,1219, ",,,,,"7.91"," ,0","0.0"," ,0",,,,,,
"USC00048135","SHASTA DAM, CA US","40.7141","-122.4161","327.7","2007","1842",,"        0",,"         0","0","31","0,1229,+","0"," ,0,1231,+","0.0"," ,0,1231,+","2.98"," ,0,0211, ","109","0,0706, ","2516","6","37.59"," ,0","0.0"," ,0","62.9","0","73.3","0","52.5","0"
"USS0019L03S","HAGAN S MEADOW, CA US","38.85","-119.94","2370.1","2007","0",,"      138",,,,"-10","T,0113, ","58"," ,T,0226, ",,,"1.70"," ,T,0104, ","85","T,0704, ","8329","1","19.20"," ,T",,,"42.2","T","56.2","T","28.1","T"
"USR0000CAMM","AMMO DUMP CALIFORNIA, CA US","33.3814","-117.2856","325.5","2007",,,,,,,,,,,,,,,"111","U,0903, ","1361","9",,,,,,,"76.6","U",,
"USR0000CBOO","BOONVILLE CALIFORNIA, CA US","38.9875","-123.3486","196.3","2007","326",,,,,,"23","U,0113, ",,,,,,,"101","U,0829, ","3246","3",,,,,"56.4","U","68.7","U","44.0","U"
"USS0019L39S","SPRATT CREEK, CA US","38.67","-119.82","1863.9","2007","342",,"      104",,,,"-10","T,0113, ","29"," ,T,0226, ",,,"1.40"," ,T,0104, ","101","T,0705, ","6335","3","15.79"," ,T",,,"48.5","T","63.8","T","33.3","T"
"USR0000CROC","ROCK CREEK, CA US","37.5514","-118.6672","2145.8","2007","328",,,,,,"-5","U,0113, ",,,,,,,"96","U,0705,+","6170","8",,,,,"48.9","U","64.8","U","33.0","U"
"USR0000CLAP","LA PANZA CALIFORNIA, CA US","35.3811","-120.1875","496.8","2007","857",,,,,,"4","U,0113, ",,,,,,,"111","U,0705, ","3457","5",,,,,"57.6","U","76.6","U","38.6","U"
"USR0000CALD","ALDER SPRINGS CALIFORNIA, CA US","39.6514","-122.7236","1310.6","2007","805",,,,,,"16","U,0112, ",,,,,,,"98","U,0704, ","4034","9",,,,,"55.7","U","65.1","U","46.4","U"
"USC00049001","TRACY PUMPING PLANT, CA US","37.79589","-121.58319","18.6","2007",,,"        0",,"         0","0","21","0,0114, ","0"," ,0,1231,+","0.0"," ,0,1231,+","0.80"," ,0,0210, ",,,,,"7.82"," ,0","0.0"," ,0",,,,,"51.0","0"
"USC00049122","UKIAH, CA US","39.1466","-123.2102","193.9","2007","618",,,,"         0","0","19","0,0114,+",,,"0.0","T,0,0227, ","1.96"," ,0,0210, ","106","0,0705, ","2900","2","24.48"," ,0","0.0","T,0","58.0","0","72.5","0","43.6","0"
"USR0000CPIR","PIRU CALIFORNIA, CA US","34.4044","-118.81","187.1","2007","951",,,,,,"28","U,0114, ",,,,,,,"104","U,0903,+","1663","9",,,,,"62.5","U","74.9","U","50.2","U"
"USR0000CBNL","BEN LOMOND CALIFORNIA, CA US","37.1317","-122.17","801.6","2007","593",,,,,,"26","U,0113, ",,,,,,,"95","U,0705, ","3444","5",,,,,"56.6","U","64.3","U","48.9","U"
"USR0000CLAU","LAUFMAN CALIFORNIA, CA US","40.1417","-120.3533","1767.8","2007","651",,,,,,"6","U,0113, ",,,,,,,"106","U,0705, ","5450","9",,,,,"51.4","U","65.6","U","37.1","U"
"USC00048273","SKYLINE RIDGE PRESERVE, CA US","37.3133","-122.185","691.9","2007",,,,,"         1","0",,,,,"1.5"," ,0,0228, ","1.75"," ,0,0211, ",,,,,"23.44"," ,0","2.0"," ,0",,,,,,
"USR0000CLAS","LASSEN LODGE CALIFORNIA, CA US","40.3442","-121.7136","1267.7","2007","1064",,,,,,"16","U,0112, ",,,,,,,"102","U,0704, ","3906","2",,,,,"56.7","U","67.6","U","45.8","U"
"USS0019L13S","VIRGINIA LAKES RIDGE, CA US","38.07","-119.23","2878.8","2007","13",,"      172",,,,"-12","T,0113,+","38"," ,T,0227, ",,,"1.30"," ,T,0827, ","83","T,0705, ","8331","2","17.69"," ,T",,,"42.3","T","51.8","T","32.7","T"
