"STATION","NAME","LATITUDE","LONGITUDE","ELEVATION","DATE","CDSD","CDSD_ATTRIBUTES","DSND","DSND_ATTRIBUTES","DSNW","DSNW_ATTRIBUTES","EMNT","EMNT_ATTRIBUTES","EMSD","EMSD_ATTRIBUTES","EMSN","EMSN_ATTRIBUTES","EMXP","EMXP_ATTRIBUTES","EMXT","EMXT_ATTRIBUTES","HDSD","HDSD_ATTRIBUTES","PRCP","PRCP_ATTRIBUTES","SNOW","SNOW_ATTRIBUTES","TAVG","TAVG_ATTRIBUTES","TMAX","TMAX_ATTRIBUTES","TMIN","TMIN_ATTRIBUTES"
"USR0000CTHO","THOMES CREEK CALIFORNIA, CA US","39.8644","-122.6097","317.0","2019","2308",,,,,,"32","U,0217,+",,,,,,,"107","U,0815, ","2389","1",,,,,"64.5","U","74.2","U","54.9","U"
"USC00049099","TWENTYNINE PALMS, CA US","34.128","-116.0369","602.0","2019",,,,,,,,,,,,,"1.49"," ,7,1226, ",,,,,"7.04"," ,7",,,,,,,,
"USR0000CRDR","READER RANCH CALIFORNIA, CA US","39.3036","-121.1172","599.8","2019","1451",,,,,,"27","U,0219,+",,,,,,,"103","U,0815,+","2861","6",,,,,"60.7","U","72.5","U","48.8","U"
"USR0000CABS","ARBUCKLE BASIN CALIFORNIA, CA US","40.3983","-122.8333","579.1","2019","1519",,,,,,"26","U,0205, ",,,,,,,"101","U,0815,+","3266","7",,,,,"59.6","U","67.5","U","51.7","U"
"USC00047902","SANTA BARBARA, CA US","34.4167","-119.6844","4.9","2019","516",,,,,,"33","7,0219,+",,,,,"2.12"," ,7,0202, ","92","7,1025,+","1453","1","28.33"," ,7",,,"62.0","7","70.7","7","53.3","7"
"USC00042214","CULVER CITY, CA US","34.005","-118.4139","28.0","2019","755",,,,,,"36","7,0102, ",,,,,"2.90"," ,7,0115, ","93","7,0903, ","1132","8","24.85"," ,7",,,"63.5","7","71.6","7","55.5","7"
"USR0000CGOR","GORDON CALIFORNIA, CA US","40.7586","-120.8961","1889.8","2019","73",,,,,,"1","U,0222, ",,,,,,,"90","U,0828,+","7457","6",,,,,"44.3","U","57.0","U","31.5","U"
"USR0000CREA","REDDING AIRPORT CALIFORNIA, CA US","40.5158","-122.2906","152.4","2019","1953",,,,,,"28","U,0210,+",,,,,,,"109","U,0815, ","2555","5",,,,,"63.0","U","75.9","U","50.1","U"
"USC00045968","MOUNT LAGUNA NUMBER 3, CA US","32.8672","-116.4194","1804.4","2019","453",,,,,,"12","7,0219, ",,,,,"4.43"," ,7,0214, ","91","7,0805, ","4493","1","31.13"," ,7",,,"53.4","7","63.5","7","43.3","7"
"USR0000CGOO","GOOSE VALLEY CALIFORNIA, CA US","33.0736","-116.8458","466.3","2019","1369",,,,,,"34","U,0222, ",,,,,,,"99","U,0610, ","1756","8",,,,,"63.5","U","73.0","U","54.0","U"
"US1CAMT0003","LOCKWOOD 3.6 NW, CA US","35.980762","-121.11736","360.0","2019",,,,,,,,,,,,,"1.93"," ,N,1204, ",,,,,"23.41"," ,N",,,,,,,,
"USR0000CRCH","RANCHITA CALIFORNIA, CA US","33.2222","-116.4975","1345.7","2019","1236",,,,,,"22","U,0221, ",,,,,,,"97","U,0805,+","3455","5",,,,,"58.5","U","68.0","U","49.0","U"
"USC00044405","JOSHUA TREE, CA US","34.1471","-116.2747","781.2","2019","2306",,"        1",,"         2","7","21","7,0103, ","1"," ,7,0221, ","1.5"," ,7,0221, ","1.00"," ,7,0222, ","110","7,0806, ","2554","8","8.63"," ,7","3.0"," ,7","64.0","7","78.5","7","49.5","7"
"USC00047916","SANTA CRUZ, CA US","36.98785","-121.99952","21.3","2019","329",,,,,,"31","7,0219, ",,,,,,,"103","7,0913, ","2112","3",,,,,"59.9","7","70.6","7","49.2","7"
"USC00046826","PETALUMA AIRPORT, CA US","38.2577","-122.6077","6.1","2019",,,,,,,,,,,,,"2.30"," ,7,0226, ",,,"2654","3","32.88"," ,7",,,,,,,,
"USC00043551","GRANT GROVE, CA US","36.73751","-118.96197","2005.6","2019",,,,,,,,,,,,,,,,,,,,,,,,,,,,
"USC00044881","LEE VINING, CA US","37.9567","-119.1194","2071.7","2019","303",,"       96",,"        28","7","4","7,0211,+","34"," ,7,0205, ","13.1"," ,7,0205, ","1.17"," ,7,0204, ","90","7,0828,+","6402","9","16.01"," ,7","121.3"," ,7","47.7","7","60.4","7","35.0","7"
"USW00093210","OROVILLE MUNICIPAL AIRPORT, CA US","39.49","-121.61833","57.9","2019",,,,,,,,,,,,,"2.80"," ,W,0213, ",,,,,"35.70"," ,W",,,,,,,,
"USW00093209","PASO ROBLES MUNICIPAL AIRPORT, CA US","35.6697","-120.6283","246.9","2019","1031",,"        0",,,,"25","W,1031,+","0"," ,H,1231,+",,,"1.27"," ,W,1204, ","108","W,0724, ","2586","7","17.31"," ,W",,,"60.5","W","76.5","W","44.6","W"
"USC00044412","JULIAN CDF, CA US","33.0763","-116.5925","1284.7","2019","804",,,,,,"20","7,0219, ",,,,,"6.29"," ,7,0214, ","93","7,0806,+","3716","6","39.80"," ,7",,,"56.5","7","65.6","7","47.4","7"
"USC00045502","MECCA FIRE STATION, CA US","33.5697","-116.073","-55.8","2019",,,,,,,,,,,,,"1.10"," ,7,0724, ",,,"765","1","5.09"," ,7",,,,,,,,
"USC00041149","BUCKHORN, CA US","40.87972","-121.93168","1127.8","2019",,,"       61",,"        23","7",,,"33"," ,7,0213, ","21.0"," ,7,0213, ","4.37"," ,7,1208, ",,,,,"89.13"," ,7","105.0"," ,7",,,,,,
"USC00042239","CUYAMACA, CA US","32.9897","-116.5872","1414.3","2019","483",,,,,,"11","7,0223, ",,,,,"4.37"," ,7,0215, ","91","7,0807,+","4598","5","48.91"," ,7",,,"53.0","7","63.5","7","42.4","7"
"USC00044890","LEMON COVE, CA US","36.3817","-119.0264","156.4","2019","2089",,,,,,"30","7,0206,+",,,,,"1.65"," ,7,0321, ","108","7,0613, ","1924","7","18.31"," ,7",,,"65.3","7","79.8","7","50.8","7"
"USW00093205","MARYSVILLE AIRPORT ASOS, CA US","39.1019","-121.5677","18.9","2019","1478",,"        0",,,,"28","W,0102, ","0"," ,H,1231,+",,,"2.21"," ,W,0213, ","106","W,0815, ","2426","9","29.00"," ,W",,,"62.2","W","75.3","W","49.1","W"
"USW00093206","SAN LUIS OBISPO MCCHESNEY FIELD, CA US","35.23722","-120.64139","61.0","2019","353",,,,,,"30","W,0102, ",,,,,"1.23"," ,W,0202, ","101","W,0924, ","2206","8","18.74"," ,W",,,"59.4","W","70.9","W","47.9","W"
"USS0020H12S","DISMAL SWAMP, CA US","41.99","-120.18","2243.3","2019","1",,"      213",,,,"-1","T,0222, ","111"," ,T,0309, ",,,"2.30"," ,T,1213, ","80","T,0828, ","9027","9","53.14"," ,T",,,"39.6","T","49.0","T","30.1","T"
"US1CAIN0013","BISHOP 1.4 WNW, CA US","37.3786","-118.4178","1281.1","2019",,,,,,,,,,,,,"1.23"," ,N,0306, ",,,,,"7.59"," ,N",,,,,,,,
"USC00047933","SANTA MARGARITA BOOST, CA US","35.3741","-120.6375","349.9","2019",,,,,,,,,,,,,"3.21"," ,7,0117, ",,,,,"41.22"," ,7",,,,,,,,
"USC00041159","BUCKS CREEK, CA US","39.9372","-121.3147","576.4","2019",,,"        4",,"         2","7",,,"6"," ,7,0217, ","5.5"," ,7,0217, ","4.28"," ,7,0117, ",,,,,"87.36"," ,7","10.1"," ,7",,,,,,
"USC00043578","GRATON, CA US","38.4305","-122.8647","61.0","2019",,,,,,,,,,,,,"3.01"," ,7,0213, ",,,"2718","3","44.95"," ,7",,,,,,,,
"USC00046602","PACOIMA DAM FC33A E, CA US","34.3294","-118.4005","472.4","2019",,,,,,,,,,,,,"2.20"," ,7,1226, ",,,,,"25.80"," ,7",,,,,,,,
"US1CASH0010","REDDING 7.9 NNE, CA US","40.67211","-122.29128","207.6","2019",,,,,,,,,,,,,"3.19"," ,N,0227, ",,,,,"60.06"," ,N",,,,,,,,
"USC00043573","GRASS VALLEY NUMBER 2, CA US","39.2041","-121.068","731.5","2019","779",,"        5",,"         4","7","23","7,0218, ","2"," ,7,0221,+","2.5"," ,7,0221, ","3.76"," ,7,0226, ","104","7,0725, ","3935","0","67.40"," ,7","6.7"," ,7","55.8","7","67.9","7","43.8","7"
"USR0000CRAV","RAVENDALE CALIFORNIA, CA US","40.7308","-120.3164","1614.8","2019","256",,,,,,"-3","U,0207, ",,,,,,,"93","U,0828, ","6830","5",,,,,"46.5","U","59.4","U","33.7","U"
"USR0000CCDG","CEDAR GROVE CALIFORNIA, CA US","36.7878","-118.6561","1438.7","2019","407",,,,,,"4","U,0211, ",,,,,,,"94","U,0901,+","5076","8",,,,,"51.6","U","66.5","U","36.8","U"
"USW00024216","RED BLUFF MUNICIPAL AIRPORT, CA US","40.1519","-122.2536","107.6","2019",,,,,,,,,,,,,"1.90"," ,W,0202, ",,,"2315","2","27.46"," ,W",,,,,,,,
"USW00023129","LONG BEACH DAUGHERTY AIRPORT, CA US","33.8116","-118.1463","9.4","2019","1376",,"        0",,,,"37","W,0222,+","0"," ,H,1231,+",,,"2.25"," ,W,0214, ","99","W,1024,+","1004","7","21.53"," ,W",,,"65.5","W","74.2","W","56.8","W"
"USW00024215","MOUNT SHASTA, CA US","41.3325","-122.33278","1077.5","2019",,,,,,,,,,,,,,,,,,,,,,,,,,,,
"USW00024213","EUREKA WEATHER FORECAST OFFICE WOODLEY ISLAND, CA US","40.8097","-124.1602","6.1","2019","8",,"        0",,"         0","W","29","W,0218,+","0"," ,W,1231,+","0.5"," ,W,0210, ","2.56"," ,W,0226, ","85","W,0611, ","4528","5","44.03"," ,W","0.5"," ,W","53.3","W","59.9","W","46.6","W"
"US1CAYL0002","DAVIS 0.8 NE, CA US","38.561849","-121.724134","12.5","2019",,,,,,,,,,,,,,,,,,,"29.75"," ,N",,,,,,,,
"USR0000CTE2","TEMESCAL LPF CALIFORNIA, CA US","34.4806","-118.7556","347.5","2019","1272",,,,,,"31","U,0223,+",,,,,,,"104","U,0611, ","1866","5",,,,,"62.8","U","75.5","U","50.1","U"
"USW00023130","VAN NUYS AIRPORT, CA US","34.20972","-118.48917","234.7","2019",,,,,,,"36","W,1218,+",,,,,"1.95"," ,W,0202, ",,,"1064","0","21.70"," ,W",,,,,,,"54.9","W"
"USR0000COZE","OZENA CALIFORNIA, CA US","34.6819","-119.3539","1118.6","2019","1023",,,,,,"19","U,0223, ",,,,,,,"106","U,0901, ","3336","3",,,,,"58.1","U","74.8","U","41.3","U"
"USR0000CIND","INDIAN WELL CALIFORNIA, CA US","41.7417","-121.5383","1453.9","2019","372",,,,,,"8","U,0207, ",,,,,,,"95","U,0827, ","6155","6",,,,,"48.6","U","60.1","U","37.0","U"
"USR0000CCAR","CARRIZO CALIFORNIA, CA US","35.0964","-119.7728","759.0","2019","1751",,,,,,"29","U,0206, ",,,,,,,"101","U,0816,+","2549","9",,,,,"62.4","U","72.6","U","52.2","U"
"USR0000CCAT","CATHEYS VALLEY CALIFORNIA, CA US","37.4681","-120.1106","365.8","2019","1879",,,,,,"31","U,0222,+",,,,,,,"103","U,0815,+","2346","1",,,,,"63.5","U","73.9","U","53.2","U"
"USR0000CCAS","CASE SPRINGS CALIFORNIA, CA US","33.445","-117.4181","707.1","2019","1234",,,,,,"33","U,0218, ",,,,,,,"96","U,0611, ","2371","2",,,,,"61.4","U","68.4","U","54.4","U"
"USW00023136","CAMARILLO AIRPORT, CA US","34.21667","-119.08333","23.5","2019","598",,,,,,"33","W,0222, ",,,,,"1.50"," ,W,1222, ","99","W,1025,+","1381","0","20.73"," ,W",,,"62.4","W","72.4","W","52.4","W"
"USC00046624","PALMDALE, CA US","34.5883","-118.0938","796.1","2019",,,"        0",,,,,,"0"," ,7,1231,+",,,,,"105","7,0901,+",,,"10.60"," ,7",,,,,"76.0","7",,
"US1CAYL0019","DAVIS 1.1 ENE, CA US","38.5592","-121.7162","17.1","2019",,,,,,,,,,,,,"2.35"," ,N,0227, ",,,,,"30.92"," ,N",,,,,,,,
"USC00045532","MERCED, CA US","37.2888","-120.5158","46.9","2019","1442",,,,,,"27","7,0103,+",,,,,"1.10"," ,7,1201, ","104","7,0817,+",,,"15.44"," ,7",,,"62.4","7","75.5","7","49.3","7"
"US1CAOR0027","IRVINE 4.1 NNE, CA US","33.718295","-117.772144","46.3","2019",,,,,,,,,,,,,"2.14"," ,N,0214, ",,,,,"21.65"," ,N",,,,,,,,
"US1CAOR0026","MISSION VIEJO 3.5 SSE K6WTA, CA US","33.5633399","-117.639429","186.8","2019",,,,,,,,,,,,,"2.72"," ,N,0214, ",,,,,"24.61"," ,N",,,,,,,,
"US1CAOR0021","ANAHEIM 4.9 ENE, CA US","33.863231","-117.791753","90.8","2019",,,,,,,,,,,,,"2.20"," ,N,0214, ",,,,,"24.06"," ,N",,,,,,,,
"USR0000CMTZ","MOUNT ZION CALIFORNIA, CA US","38.3894","-120.6511","902.2","2019","1515",,,,,,"25","U,0211, ",,,,,,,"99","U,0728, ","3081","9",,,,,"60.2","U","68.7","U","51.6","U"
"US1CAYL0021","DAVIS 6.3 W, CA US","38.5613","-121.852198","26.2","2019",,,,,,,,,,,,,"3.40"," ,N,0214, ",,,,,"34.26"," ,N",,,,,,,,
"USR0000CEEL","EEL RIVER CALIFORNIA, CA US","39.8333","-123.0833","457.2","2019","1047",,,,,,"23","U,1227,+",,,,,,,"106","U,0827,+","3376","7",,,,,"58.5","U","73.9","U","43.1","U"
"USC00046635","PALM SPRINGS, CA US","33.8275","-116.5097","129.5","2019",,,,,,,,,,,,,"3.02"," ,7,0214, ",,,,,"10.52"," ,7",,,,,,,,
"USC00047965","SANTA ROSA, CA US","38.45579","-122.71335","50.6","2019",,,,,,,,,,,,,"5.66"," ,7,0226, ",,,"2445","1","47.09"," ,7",,,,,,,,
"US1CATH0012","COTTONWOOD 9.1 SW, CA US","40.282075","-122.378451","194.8","2019",,,,,,,,,,,,,,,,,,,"39.39"," ,N",,,,,,,,
"USR0000CCAM","CAMERON FIRE STATION CALIFORNI, CA US","32.7214","-116.4631","1049.4","2019","617",,,,,,"18","U,0220, ",,,,,,,"101","U,0805, ","3614","7",,,,,"56.3","U","72.1","U","40.6","U"
"USR0000CCAL","CALLAHAN CALIFORNIA, CA US","41.3075","-122.7958","955.9","2019","719",,,,,,"17","U,1129,+",,,,,,,"101","U,0827, ","4921","8",,,,,"52.7","U","64.7","U","40.7","U"
"USR0000CCAA","CAHUILLA CALIFORNIA, CA US","32.9736","-115.1736","84.7","2019",,,,,,,,,,,,,,,,,"672","4",,,,,,,,,,
"USR0000CEEC","EEL RIVER CAMP CALIFORNIA, CA US","40.1383","-123.8236","135.9","2019","467",,,,,,"26","U,1030,+",,,,,,,"102","U,0826,+","3169","6",,,,,"57.6","U","70.8","U","44.4","U"
"USC00044211","IDYLLWILD FIRE DEPARTMENT, CA US","33.7572","-116.7066","1639.8","2019",,,,,,,,,,,,,"7.07"," ,7,0214, ",,,,,"38.52"," ,7",,,,,,,,
"USW00023110","LEMOORE REEVES NAS, CA US","36.33333","-119.95","70.7","2019","1762",,,,,,"25","W,0103,+",,,,,"0.67"," ,W,1208, ","110","W,0706, ",,,"9.13"," ,W",,,"63.3","W","78.6","W","48.1","W"
"US1CAOR0031","ORANGE 3.0 ENE, CA US","33.8261413574219","-117.778053283691","197.8","2019",,,,,,,,,,,,,"2.12"," ,N,0214, ",,,,,"23.94"," ,N",,,,,,,,
"USC00048829","TEHACHAPI 4 SE, CA US","35.1011","-118.4222","1286.3","2019",,,,,,,,,,,,,,,,,"4138","9",,,,,,,,,,
"USR0000CGHP","GRASSHOPPER CALIFORNIA, CA US","40.7817","-120.7844","1877.0","2019","119",,,,,,"1","U,0222, ",,,,,,,"90","U,0827, ","7246","7",,,,,"45.0","U","57.5","U","32.5","U"
"US1CATH0029","COTTONWOOD 3.9 SW, CA US","40.35791015625","-122.341575622559","136.2","2019",,,,,,,,,,,,,"4.21"," ,N,0403, ",,,,,"46.86"," ,N",,,,,,,,
"USC00041194","BURBANK VALLEY PUMP PLANT, CA US","34.1866","-118.348","199.6","2019","1254",,,,,,"33","7,0207,+",,,,,"2.26"," ,7,0202, ","100","7,0723,+","1405","5","23.77"," ,7",,,"64.0","7","76.4","7","51.7","7"
"US1CASH0051","REDDING 3.8 S, CA US","40.51805555","-122.36916666","135.3","2019",,,,,,,,,,,,,"2.59"," ,N,1208, ",,,,,"46.88"," ,N",,,,,,,,
"USR0000CTAN","TANBARK CALIFORNIA, CA US","34.2069","-117.7606","792.5","2019","1314",,,,,,"29","U,0206, ",,,,,,,"97","U,0914,+","2476","8",,,,,"61.2","U","70.6","U","51.9","U"
"USC00043134","FORESTHILL RANGER STATION, CA US","39.01","-120.8455","919.0","2019",,,"        4",,"         3","7",,,"2"," ,7,1130, ","4.0"," ,7,1130, ",,,,,,,,,"8.1"," ,7",,,,,,
"USC00045795","MONTEREY, CA US","36.5927","-121.8555","37.2","2019",,,,,,,,,,,,,,,,,"2763","3",,,,,,,,,,
"USR0000CCOL","COLLINS BALDY CALIFORNIA, CA US","41.775","-122.9503","1674.3","2019","314",,,,,,"14","U,0205, ",,,,,,,"89","U,0827, ","6211","8",,,,,"48.1","U","56.0","U","40.3","U"
"US1CASH0071","PAYNES CREEK 7.9 NNW, CA US","40.43189722","-121.9958528","296.6","2019",,,,,,,,,,,,,"1.60"," ,N,1201, ",,,,,"36.11"," ,N",,,,,,,,
"USC00049490","WEAVERVILLE, CA US","40.7367","-122.9404","627.3","2019",,,,,,,,,,,,,,,,,"3668","6",,,,,,,,,,
"US1CAFR0026","FRESNO 7.2 NNE, CA US","36.87684","-119.74351","117.7","2019",,,,,,,,,,,,,"0.67"," ,N,1201, ",,,,,"14.13"," ,N",,,,,,,,
"USW00023161","BARSTOW DAGGETT AIRPORT, CA US","34.8536","-116.7858","584.3","2019",,,,,,,,,,,,,"1.76"," ,W,1226, ",,,"2123","3","6.48"," ,W",,,,,,,,
"USR0000CPHI","PINE HILLS CALIFORNIA, CA US","33.0164","-116.6339","0.0","2019","838",,,,,,"22","U,0222, ",,,,,,,"95","U,0831,+","3388","3",,,,,"57.5","U","68.3","U","46.8","U"
"USW00024259","MONTAGUE SISKIYOU AIRPORT, CA US","41.78139","-122.46806","808.0","2019","717",,,,,,"11","W,1129, ",,,,,"1.02"," ,W,0225, ","103","W,0827, ","4870","7","11.43"," ,W",,,"52.8","W","67.5","W","38.2","W"
"USW00024257","REDDING AIRPORT, CA US","40.5175","-122.2986","151.5","2019","2069",,"        1",,"         2","W","28","W,0210, ","6"," ,W,0213, ","6.0"," ,W,0213, ","2.72"," ,W,1207, ","109","W,0815, ","2393","4","43.05"," ,W","9.0"," ,W","63.7","W","76.2","W","51.2","W"
"USR0000CCP9","CAMP 9 CALIFORNIA, CA US","34.3617","-118.4217","1219.2","2019","1069",,,,,,"26","U,0211,+",,,,,,,"92","U,0831,+","3435","3",,,,,"57.9","U","64.5","U","51.3","U"
"USR0000CPIE","PIERCE CALIFORNIA, CA US","40.2461","-120.6422","1737.4","2019","256",,,,,,"8","U,0222, ",,,,,,,"90","U,0827, ","6205","4",,,,,"47.8","U","57.9","U","37.7","U"
"USC00040673","BEN LOMOND NUMBER 4, CA US","37.0855","-122.0797","128.0","2019","777",,,,,,"25","7,0102, ",,,,,"4.61"," ,7,1201, ","107","7,0814, ","2212","0","72.61"," ,7",,,"60.7","7","76.8","7","44.7","7"
"USR0000CCOU","CO LINE CALIFORNIA, CA US","39.0189","-122.4119","635.5","2019","1681",,,,,,"28","U,0210,+",,,,,,,"104","U,0815, ","2894","0",,,,,"61.2","U","70.4","U","52.0","U"
"USR0000CPIH","PINEHURST CALIFORNIA, CA US","36.6853","-119.0","1237.5","2019","966",,,,,,"18","U,0211,+",,,,,,,"94","U,0728,+","3934","8",,,,,"56.5","U","66.1","U","46.9","U"
"USR0000CLAB","LOS BANOS CALIFORNIA, CA US","37.0547","-121.0531","106.7","2019","1779",,,,,,"34","U,0102, ",,,,,,,"104","U,0611, ","1884","7",,,,,"64.6","U","74.9","U","54.3","U"
"USR0000CCOO","COOSKIE MOUNTAIN CALIFORNIA, CA US","40.2569","-124.2661","899.2","2019","239",,,,,,"24","U,0205,+",,,,,,,"93","U,0611, ","4684","4",,,,,"52.4","U","59.1","U","45.7","U"
"US1CASD0180","EL CAJON 2.2 ENE, CA US","32.81535","-116.926941","194.2","2019",,,,,,,,,,,,,"1.53"," ,N,1129, ",,,,,"20.66"," ,N",,,,,,,,
"USR0000CCON","CONVERSE CALIFORNIA, CA US","34.1942","-116.9131","1712.4","2019","358",,,,,,"12","U,0223,+",,,,,,,"91","U,0901,+","4751","4",,,,,"52.6","U","65.4","U","39.8","U"
"US1CASH0069","SHINGLETOWN 2.5 E, CA US","40.498777","-121.843341","1110.4","2019",,,,,,,,,,,,,"3.04"," ,N,0214, ",,,,,"56.00"," ,N",,,,,,,,
"US1CASH0068","MILLVILLE 3.6 SW, CA US","40.544589","-122.173431","154.2","2019",,,,,,,,,,,,,"2.42"," ,N,0213, ",,,,,"46.88"," ,N",,,,,,,,
"USR0000CCOR","CORRALITOS CALIFORNIA, CA US","36.9911","-121.7978","137.2","2019","392",,,,,,"30","U,0102,+",,,,,,,"103","U,0913,+","2442","7",,,,,"59.3","U","71.7","U","46.8","U"
"USW00023174","LOS ANGELES INTERNATIONAL AIRPORT, CA US","33.938","-118.3888","29.6","2019","841",,"        0",,,,"39","W,0102, ","0"," ,H,1231,+",,,"1.68"," ,W,0214, ","98","W,1024, ","1148","6","18.73"," ,W",,,"64.0","W","70.8","W","57.1","W"
"US1CAOR0016","NEWPORT BEACH 3.1 ESE, CA US","33.589433","-117.865235","25.6","2019",,,,,,,,,,,,,"2.50"," ,N,1226, ",,,,,"22.38"," ,N",,,,,,,,
"US1CAFR0014","FRESNO 2.4 NW, CA US","36.805333","-119.822217","97.2","2019",,,,,,,,,,,,,"0.70"," ,N,1201, ",,,,,"10.68"," ,N",,,,,,,,
"USC00040449","BALCH POWER HOUSE, CA US","36.9092","-119.0883","528.8","2019",,,,,,,,,,,,,,,,,"2527","8",,,,,,,,,,
"USW00023179","NEEDLES AIRPORT, CA US","34.7675","-114.6188","271.3","2019","4751",,,,,,"32","W,0104, ",,,,,"1.13"," ,W,1128, ","119","W,0805, ","1054","4","8.50"," ,W",,,"74.7","W","86.5","W","62.9","W"
"US1CAOR0019","MISSION VIEJO 1.3 SSE, CA US","33.595421","-117.644161","214.6","2019",,,,,,,,,,,,,"2.56"," ,N,0214, ",,,,,"26.35"," ,N",,,,,,,,
"US1CANP0003","CALISTOGA 0.4 SSE, CA US","38.5764","-122.578","106.1","2019",,,,,,,,,,,,,"4.53"," ,N,0227, ",,,,,"55.63"," ,N",,,,,,,,
"USC00042863","ESCONDIDO NUMBER 2, CA US","33.121","-117.09","182.9","2019","1540",,,,,,"34","7,0219,+",,,,,"3.15"," ,7,0214, ","103","7,0610, ","1258","7","23.00"," ,7",,,"65.6","7","76.6","7","54.5","7"
"USC00040444","BAKERSFIELD 5 NW, CA US","35.4186","-119.0508","143.3","2019","2226",,,,,,"30","7,0212,+",,,,,"1.26"," ,7,0306, ","108","7,0729, ","1964","0","10.32"," ,7",,,"65.5","7","77.9","7","53.1","7"
"USC00041534","CARMEL VALLEY, CA US","36.4805","-121.7244","146.3","2019","377",,,,,,"28","7,0101, ",,,,,"2.63"," ,7,1202, ","100","7,0913, ","2477","4","30.66"," ,7",,,"59.0","7","71.5","7","46.4","7"
"USC00043714","HALF MOON BAY, CA US","37.4725","-122.4433","8.2","2019","47",,,,,,"30","7,0219,+",,,,,"1.10"," ,7,1127, ","92","7,0925, ","3556","5","27.83"," ,7",,,"55.5","7","62.7","7","48.2","7"
"US1CASD0173","SAN DIEGO 1.9 W, CA US","32.81391","-117.16925","111.6","2019",,,,,,,,,,,,,"1.82"," ,N,0215, ",,,,,"18.24"," ,N",,,,,,,,
"US1CASH0077","REDDING 3.7 S, CA US","40.518764","-122.368452","135.9","2019",,,,,,,,,,,,,"2.52"," ,N,1208, ",,,,,"43.51"," ,N",,,,,,,,
"US1CASN0112","SANTA ROSA 2.3 NW, CA US","38.469852","-122.733314","41.8","2019",,,,,,,,,,,,,"3.15"," ,N,0226, ",,,,,"38.93"," ,N",,,,,,,,
"USS0019L19S","EBBETTS PASS, CA US","38.55","-119.8","2671.6","2019","0",,"      215",,,,"0","T,0222, ","139"," ,T,0307,+",,,"3.30"," ,T,1201, ","76","T,0826, ","8373","7","73.77"," ,T",,,"40.8","T","49.5","T","32.2","T"
"USC00040212","ANGWIN PACIFIC UNION COLLEGE, CA US","38.573","-122.4405","522.7","2019","641",,,,,,"27","7,1129,+",,,,,"5.15"," ,7,0226, ","96","7,0815, ","3226","5","58.42"," ,7",,,"57.7","7","68.2","7","47.2","7"
"USC00049026","TRINITY RIVER HATCHERY, CA US","40.7263","-122.7947","567.2","2019","837",,"        4",,"         3","7","18","7,0222, ","7"," ,7,1127, ","7.0"," ,7,1127, ","3.59"," ,7,0214, ","104","7,0828, ",,,"34.91"," ,7","9.7"," ,7","56.1","7","71.7","7","40.4","7"
"USC00040693","BERKELEY, CA US","37.8744","-122.2605","94.5","2019",,,,,,,,,,,,,,,,,"2580","4",,,,,,,,,,
"US1CASD0146","DEL MAR 0.5 NNW, CA US","32.972524","-117.265041","2.7","2019",,,,,,,,,,,,,"2.09"," ,N,1129, ",,,,,"17.35"," ,N",,,,,,,,
"USR0000CCLE","CLEAR CREEK CALIFORNIA, CA US","34.2711","-118.1525","914.4","2019","1392",,,,,,"28","U,0206, ",,,,,,,"95","U,0728, ","2826","8",,,,,"60.4","U","67.8","U","53.0","U"
"USW00023152","BURBANK GLENDALE PASADENA AIRPORT, CA US","34.20056","-118.3575","225.9","2019","1415",,,,,,"35","W,0223,+",,,,,"2.13"," ,W,0202, ","101","W,0610, ","1454","8","21.18"," ,W",,,"64.5","W","74.9","W","54.1","W"
"USW00023155","BAKERSFIELD AIRPORT, CA US","35.4344","-119.0542","149.0","2019","2470",,"        0",,"         0","W","31","W,0102,+","0"," ,W,1231,+","0.0"," ,W,1231,+","0.85"," ,W,0305, ","110","W,0728, ","1738","5","9.13"," ,W","0.0"," ,W","66.9","W","78.8","W","54.9","W"
"USC00049040","TRUCKEE TAHOE AIRPORT, CA US","39.318","-120.145","1798.3","2019","32",,"      109",,"        32","7","-11","7,0220,+","56"," ,7,0216, ","24.0"," ,7,0210, ","2.68"," ,7,0214, ","94","7,0828, ","7794","2","35.86"," ,7","196.1"," ,7","42.2","7","59.5","7","25.0","7"
"USR0000CCLA","CLAREMONT CALIFORNIA, CA US","34.1369","-117.7069","501.4","2019","1269",,,,,,"32","U,0219,+",,,,,,,"101","U,0611, ","1958","0",,,,,"62.7","U","74.0","U","51.4","U"
"USW00023157","BISHOP AIRPORT, CA US","37.3711","-118.358","1250.3","2019","1046",,"        2",,"         2","W","8","W,1130, ","5"," ,W,1127, ","5.2"," ,W,1127, ","1.49"," ,W,0117, ","104","W,0722, ","4112","7","8.26"," ,W","7.5"," ,W","55.7","W","73.4","W","38.0","W"
"USW00023158","BLYTHE ASOS, CA US","33.6186","-114.7142","120.4","2019","4259",,,,,,"28","W,0104,+",,,,,"0.70"," ,W,1128, ","117","W,0815,+",,,"3.52"," ,W",,,"73.3","W","86.8","W","59.8","W"
"USC00042402","DE SABLA, CA US","39.8716","-121.6108","826.0","2019",,,,,,,,,,,,,"6.40"," ,7,0226, ",,,,,"87.44"," ,7",,,,,,,,
"USC00045915","MOUNT DIABLO JUNCTION, CA US","37.8792","-121.9303","661.4","2019","846",,"        0",,"         0","7","29","7,0211,+","0"," ,7,1231,+","0.0"," ,7,1231,+","2.20"," ,7,1204, ","95","7,0816, ","3245","0","32.70"," ,7","0.0"," ,7","58.1","7","66.0","7","50.2","7"
"USR0000CCLV","CALAVERAS ROAD CALIFORNIA, CA US","37.5531","-121.8439","374.9","2019","693",,,,,,"34","U,0205, ",,,,,,,"100","U,0611, ","2603","0",,,,,"59.7","U","68.4","U","51.1","U"
"USR0000CCLK","CLARK CALIFORNIA, CA US","33.8767","-117.3089","524.3","2019","1656",,,,,,"31","U,0207,+",,,,,,,"105","U,0611,+","1721","2",,,,,"64.5","U","77.0","U","52.0","U"
"USC00049035","TRONA, CA US","35.7636","-117.3908","516.6","2019",,,,,,,,,,,,,,,,,"2013","6",,,,,,,,,,
"USC00049053","TULELAKE, CA US","41.95999","-121.47449","1230.8","2019","132",,,,,,"-2","7,0207, ",,,,,"0.74"," ,7,0226, ","93","7,0828, ","6429","6","12.41"," ,7",,,"47.2","7","62.4","7","32.0","7"
"USS0020H13S","ADIN MOUNTAIN, CA US","41.24","-120.79","1886.7","2019","3",,"      157",,,,"-10","T,0222, ","61"," ,T,0309, ",,,"1.80"," ,T,1213,+","87","T,0827, ","8439","6","33.04"," ,T",,,"41.4","T","53.5","T","29.3","T"
"US1CASD0133","CLAIREMONT 3.7SSE, CA US","32.781258","-117.186674","93.6","2019",,,,,,,,,,,,,"1.38"," ,N,1129, ",,,,,"17.10"," ,N",,,,,,,,
"US1CASD0132","DESCANSO 3.7N, CA US","32.908253","-116.622739","1014.1","2019",,,,,,,,,,,,,"3.82"," ,N,0215, ",,,,,"40.01"," ,N",,,,,,,,
"USC00049298","VERDI 2 W, CA US","39.5214","-120.0269","1654.8","2019","321",,,,,,"7","7,1227,+",,,,,,,"92","7,0829,+","6289","1",,,,,"47.9","7","59.6","7","36.1","7"
"USW00093230","SOUTH LAKE TAHOE AIRPORT, CA US","38.8983","-119.9947","1924.5","2019","17",,,,,,"-13","W,0219, ",,,,,"2.24"," ,W,0213, ","86","W,0827,+","7649","3","24.20"," ,W",,,"43.2","W","57.5","W","29.0","W"
"USR0000CRIC","RICE VALLEY CALIFORNIA, CA US","34.0608","-114.7322","249.9","2019","3970",,,,,,"25","U,0104,+",,,,,,,"117","U,0805, ","1366","8",,,,,"71.9","U","85.9","U","58.0","U"
"US1CAMR0037","NOVATO 2.7 WNW, CA US","38.110443","-122.600006","23.2","2019",,,,,,,,,,,,,"3.80"," ,N,1202, ",,,,,"51.22"," ,N",,,,,,,,
"US1CAMT0042","CARMEL VALLEY VILLAGE 12.2 SE, CA US","36.353871","-121.576605","940.0","2019",,,,,,,,,,,,,"4.42"," ,N,1202, ",,,,,"55.76"," ,N",,,,,,,,
"US1CAMT0041","MARINA 0.8 SSE, CA US","36.6731643676758","-121.783638000488","41.5","2019",,,,,,,,,,,,,"2.32"," ,N,1202, ",,,,,"21.60"," ,N",,,,,,,,
"USC00043747","HANFORD 1 S, CA US","36.3158","-119.637","72.2","2019","2065",,,,,,"24","7,0102, ",,,,,"0.68"," ,7,0527, ","106","7,0613, ","2179","7","10.26"," ,7",,,"65.0","7","78.1","7","51.9","7"
"USR0000CGSP","GREEN SPRING CALIFORNIA, CA US","37.8331","-120.5","310.9","2019","1604",,,,,,"28","U,0218, ",,,,,,,"104","U,0728, ","2504","2",,,,,"62.4","U","73.8","U","51.0","U"
"US1CAMR0030","BOLINAS 0.2 W, CA US","37.905926","-122.70089","57.9","2019",,,,,,,,,,,,,"3.27"," ,N,0213, ",,,,,"35.65"," ,N",,,,,,,,
"USW00093225","SACRAMENTO METROPOLITAN AIRPORT, CA US","38.69556","-121.58972","7.0","2019","1345",,,,,,"28","W,0103, ",,,,,"2.19"," ,W,1201, ","104","W,0728, ","2494","6","25.41"," ,W",,,"61.8","W","74.4","W","49.3","W"
"USW00093227","NAPA CO AIRPORT, CA US","38.2102","-122.2847","4.3","2019","326",,"        0",,,,"25","W,1129, ","0"," ,H,1231,+",,,"2.44"," ,W,0106, ","100","W,0611, ","2865","9","28.42"," ,W",,,"57.9","W","69.8","W","46.0","W"
"US1CAMT0048","MARINA 0.4 N, CA US","36.688889","-121.791466","18.0","2019",,,,,,,,,,,,,,,,,,,"20.28"," ,N",,,,,,,,
"USW00093228","HAYWARD AIR TERMINAL, CA US","37.6542","-122.115","13.1","2019",,,,,,,,,,,,,,,,,,,,,,,,,,,,
"USC00040232","ANTIOCH PUMPING PLANT NUMBER 3, CA US","37.9833","-121.7525","18.3","2019",,,,,,,,,,,,,"1.14"," ,7,0116, ",,,,,"11.53"," ,7",,,,,,,,
"USW00003104","DESERT RESORTS REGIONAL AIRPORT, CA US","33.62667","-116.15944","-36.0","2019","4292",,,,,,"26","W,0103, ",,,,,"1.00"," ,W,0214, ","120","W,0815,+","960","6","5.01"," ,W",,,"73.8","W","89.3","W","58.2","W"
"US1CAKG0004","HANFORD 3.6 N, CA US","36.376889","-119.652697","78.6","2019",,,,,,,,,,,,,"0.69"," ,N,0203, ",,,,,"10.37"," ,N",,,,,,,,
"USW00003102","ONTARIO INTERNATIONAL AIRPORT, CA US","34.05611","-117.60028","289.3","2019","2158",,,,,,"33","W,0211, ",,,,,"2.14"," ,W,0214, ","109","W,0611, ","1238","0","18.35"," ,W",,,"67.3","W","79.3","W","55.3","W"
"US1CAVT0016","CAMARILLO 0.6 N, CA US","34.231129","-119.029877","54.3","2019",,,,,,,,,,,,,"1.60"," ,N,0203, ",,,,,"22.96"," ,N",,,,,,,,
"USC00045933","MOUNT HAMILTON, CA US","37.3436","-121.6425","1282.0","2019","722",,,,,,"22","7,0218, ",,,,,"2.07"," ,7,0215, ","89","7,0816,+","4344","3","38.57"," ,7",,,"54.1","7","60.3","7","47.9","7"
"US1CAKG0005","HANFORD 1.7 WNW, CA US","36.334933","-119.674342","74.7","2019",,,,,,,,,,,,,"0.56"," ,N,1204,+",,,,,"10.74"," ,N",,,,,,,,
"US1CAMR0025","SAN ANSELMO 2.0 NNW, CA US","38.009588","-122.580088","62.2","2019",,,,,,,,,,,,,"4.79"," ,N,0227, ",,,,,"66.25"," ,N",,,,,,,,
"USW00023188","SAN DIEGO INTERNATIONAL AIRPORT, CA US","32.7336","-117.1831","4.6","2019","779",,"        0",,"         0","H","41","W,1218,+","0"," ,H,1231,+","0.0"," ,H,1231,+","1.37"," ,W,1128, ","94","W,1024, ","879","4","15.30"," ,W","0.0"," ,H","64.4","W","70.9","W","58.0","W"
"USW00023187","SANDBERG, CA US","34.7436","-118.7242","1374.6","2019","1120",,,,,,"23","W,0101, ",,,,,"1.85"," ,W,0202, ","98","W,0728, ","3668","7","22.02"," ,W",,,"57.1","W","65.7","W","48.5","W"
"USW00023182","PALMDALE AIRPORT, CA US","34.62944","-118.08361","769.2","2019","1836",,,,,,"23","W,1227, ",,,,,"1.26"," ,W,1226, ","105","W,0901,+","2805","6","8.94"," ,W",,,"61.7","W","75.5","W","48.0","W"
"US1CASD0115","SAN DIEGO 7.8 SW, CA US","32.750214","-117.245647","7.3","2019",,,,,,,,,,,,,,,,,,,"15.44"," ,N",,,,,,,,
"USC00049073","TURLOCK NUMBER 2, CA US","37.50193","-120.84566","31.4","2019","1651",,"        0",,"         0","7","34","7,1228,+","0"," ,7,1231,+","0.0"," ,7,1231,+","1.35"," ,7,1202, ","103","7,0815, ","1819","4","17.39"," ,7","0.0"," ,7","64.4","7","74.7","7","54.1","7"
"USW00003131","SAN DIEGO MONTGOMERY FIELD, CA US","32.81583","-117.13944","127.1","2019","863",,,,,,"35","W,0102, ",,,,,"1.46"," ,W,0214, ","97","W,1022, ","1310","6","15.02"," ,W",,,"63.6","W","72.3","W","54.8","W"
"US1CAVT0002","FRAZIER PARK 10.7 WSW, CA US","34.746","-119.1103","1607.5","2019",,,,,,,,,,,,,"1.54"," ,N,0202, ",,,,,"22.39"," ,N",,,,,,,,
"US1CAVT0001","THOUSAND OAKS 2.1 WSW, CA US","34.17716","-118.8984","210.9","2019",,,,,,,,,,,,,"2.10"," ,N,0203, ",,,,,"23.69"," ,N",,,,,,,,
"USW00004222","REDDING 12 WNW, CA US","40.6507","-122.6068","432.2","2019","1696",,,,,,"29","R,0210, ",,,,,,,"104","R,0727, ",,,,,,,"61.2","R","71.5","R","50.9","R"
"USC00040010","ACAMPO 5 NE, CA US","38.2177","-121.2013","26.5","2019",,,"        0",,"         0","7",,,"0"," ,7,1231,+","0.0"," ,7,1231,+","1.22"," ,7,0226, ",,,,,"19.95"," ,7","0.0"," ,7",,,,,,
"USW00093245","BODEGA 6 WSW, CA US","38.3208","-123.0747","19.2","2019","6",,,,,,"34","R,0205, ",,,,,"4.50"," ,R,0213, ","81","R,0611, ","4010","9","45.22"," ,R",,,"53.9","R","59.4","R","48.4","R"
"US1CASD0120","N CLAIREMONT 0.6SSE, CA US","32.825704","-117.199272","103.9","2019",,,,,,,,,,,,,"1.48"," ,N,1129, ",,,,,"17.15"," ,N",,,,,,,,
"USR0000CELC","EL CARISO CALIFORNIA, CA US","33.6472","-117.4111","926.0","2019","1655",,,,,,"31","U,0221, ",,,,,,,"100","U,0904,+","2254","0",,,,,"62.8","U","72.1","U","53.5","U"
"US1CASD0101","VALLEY CENTER 6.4N, CA US","33.310784","-117.040908","413.6","2019",,,,,,,,,,,,,"2.10"," ,N,0215, ",,,,,"23.96"," ,N",,,,,,,,
"USW00024286","CRESCENT CITY MCNAMARA AIRPORT, CA US","41.78028","-124.23667","17.1","2019","4",,,,,,"30","W,0205, ",,,,,"3.63"," ,W,0119, ","84","W,0611, ","4638","6","62.04"," ,W",,,"52.4","W","58.5","W","46.3","W"
"USW00024283","ARCATA EUREKA AIRPORT, CA US","40.97806","-124.10861","61.0","2019","12",,,,,,"28","W,0222,+",,,,,"2.49"," ,W,0120, ","89","W,1024, ","4766","0","52.34"," ,W",,,"52.8","W","60.5","W","45.1","W"
"USW00093241","VACAVILLE NUT TREE AIRPORT ASOS, CA US","38.3777","-121.9575","33.2","2019","1391",,"        0",,,,"26","W,0102, ","0"," ,H,1231,+",,,"4.07"," ,W,0226, ","106","W,0815,+","2281","5","34.21"," ,W",,,"62.4","W","76.1","W","48.6","W"
"US1CASD0105","BOULEVARD 4.4 WSW, CA US","32.6447372436523","-116.347846984863","1073.2","2019",,,,,,,,,,,,,"2.10"," ,N,0215, ",,,,,"24.13"," ,N",,,,,,,,
"USW00093242","MADERA MUNICIPAL AIRPORT, CA US","36.98778","-120.11056","77.1","2019","1747",,,,,,"28","W,1126, ",,,,,"0.93"," ,W,1201, ","107","W,0816, ","1807","9","10.70"," ,W",,,"64.2","W","78.4","W","50.1","W"
"US1CASD0104","DESCANSO 0.8 N, CA US","32.86508","-116.61753","1062.8","2019",,,,,,,,,,,,,"3.10"," ,N,0215, ",,,,,"39.27"," ,N",,,,,,,,
"USW00093243","MERCED 23 WSW, CA US","37.2381","-120.8825","23.8","2019","1049",,,,,,"23","R,0102, ",,,,,"1.46"," ,R,1201, ","107","R,0816, ","2685","9","14.18"," ,R",,,"60.3","R","76.2","R","44.4","R"
"USR0000CCHB","CHEESEBORO CALIFORNIA, CA US","34.1847","-118.7172","502.9","2019","1836",,,,,,"37","U,1129,+",,,,,,,"106","U,0611, ","1620","0",,,,,"65.0","U","75.6","U","54.5","U"
"USR0000CACT","ACTON CALIFORNIA, CA US","34.4458","-118.2","792.5","2019","1181",,,,,,"26","U,0223, ",,,,,,,"105","U,0728, ","2737","4",,,,,"60.2","U","73.9","U","46.4","U"
"USR0000CTIM","TIMBER MOUNTAIN CALIFORNIA, CA US","41.6294","-121.2981","1511.8","2019","435",,,,,,"13","U,0222, ",,,,,,,"94","U,0827, ","6261","2",,,,,"48.4","U","58.2","U","38.7","U"
"USW00003122","TORRANCE AIRPORT, CA US","33.8016","-118.3419","27.4","2019","674",,,,,,"37","7,0223,+",,,,,"3.09"," ,7,1223, ","95","7,1024, ",,,"22.95"," ,7",,,"62.7","7","71.3","7","54.2","7"
"USR0000CVND","VANDENBERG CALIFORNIA, CA US","34.7586","-120.4861","320.0","2019","305",,,,,,"34","U,0206, ",,,,,,,"95","U,0924,+","2546","6",,,,,"58.3","U","66.5","U","50.1","U"
"USC00044863","LEBEC, CA US","34.83328","-118.86497","1089.7","2019",,,,,,,,,,,,,,,,,,,,,,,,,,,,
"USR0000CCHU","CHUCHUPATE CALIFORNIA, CA US","34.8083","-119.0125","1493.5","2019","147",,,,,,"1","U,0219, ",,,,,,,"95","U,0728, ","5611","4",,,,,"49.1","U","65.6","U","32.5","U"
"US1CAMR0009","PETALUMA 10.1 W, CA US","38.247545","-122.811911","36.3","2019",,,,,,,,,,,,,"3.17"," ,N,0226, ",,,,,"44.19"," ,N",,,,,,,,
"USR0000CCHI","CHILAO CALIFORNIA, CA US","34.3317","-118.0303","1661.2","2019","1009",,,,,,"19","U,0206,+",,,,,,,"94","U,0901,+","3810","7",,,,,"56.7","U","65.1","U","48.4","U"
"USC00040029","ADIN RANGER STATION, CA US","41.19334","-120.94458","1280.8","2019",,,"       31",,"        19","7",,,"9"," ,7,0213, ","5.0"," ,7,0204, ","1.11"," ,7,0214,+",,,,,"18.91"," ,7","40.6"," ,7",,,,,,
"USR0000CPAT","PATTY MOCUS CALIFORNIA, CA US","40.295","-122.8667","1066.8","2019","1066",,,,,,"19","U,0205, ",,,,,,,"98","U,0827, ","4092","1",,,,,"56.1","U","65.7","U","46.6","U"
"USR0000CELI","MOUNT ELIZABETH CALIFORNIA, CA US","38.0631","-120.2469","1503.6","2019","940",,,,,,"16","U,0218, ",,,,,,,"92","U,0827,+","4271","7",,,,,"55.3","U","63.7","U","46.9","U"
"USW00023191","AVALON CATALINA AIRPORT, CA US","33.405","-118.41583","488.3","2019","875",,,,,,"38","W,0305, ",,,,,"1.70"," ,W,1128, ","95","W,0611, ","2207","3","17.76"," ,W",,,"61.1","W","67.5","W","54.7","W"
"USR0000CPAR","PARKFIELD CALIFORNIA, CA US","35.8989","-120.4319","467.9","2019","1093",,,,,,"23","U,0101, ",,,,,,,"106","U,0815,+","2882","2",,,,,"59.8","U","76.1","U","43.6","U"
"USW00023190","SANTA BARBARA MUNICIPAL AIRPORT, CA US","34.4258","-119.8425","2.7","2019","230",,"        0",,,,"29","W,0101, ","0"," ,H,1231,+",,,"1.74"," ,W,0202, ","92","W,1025,+","2103","1","24.12"," ,W",,,"59.4","W","69.0","W","49.8","W"
"USR0000CELM","EL MIRAGE CALIFORNIA, CA US","34.6344","-117.5503","877.8","2019","1666",,,,,,"20","U,1031, ",,,,,,,"105","U,0901,+","3058","7",,,,,"60.5","U","75.1","U","46.0","U"
"USW00003159","LANCASTER, CA US","34.7411","-118.2116","712.6","2019","1781",,"        0",,,,"17","W,1101, ","0"," ,H,1231,+",,,"1.89"," ,W,1226, ","107","W,0728,+","3097","7","10.77"," ,W",,,"60.9","W","75.5","W","46.3","W"
"USR0000CBUL","BULL FLAT CALIFORNIA, CA US","40.4808","-120.1139","1339.6","2019","288",,,,,,"3","U,0210, ",,,,,,,"96","U,0828,+","6468","1",,,,,"47.8","U","62.8","U","32.8","U"
"USR0000CBUR","BURNS CANYON CALIFORNIA, CA US","34.2103","-116.6339","1828.8","2019","1014",,,,,,"17","U,0219,+",,,,,,,"93","U,0805, ","4248","1",,,,,"55.8","U","64.0","U","47.6","U"
"USC00047470","RIVERSIDE FIRE STATION 3, CA US","33.9511","-117.388","256.0","2019",,,,,,,,,,,,,"2.75"," ,7,0214, ",,,,,"15.63"," ,7",,,,,,,,
"USS0019L24S","HEAVENLY VALLEY, CA US","38.92","-119.92","2615.8","2019","0",,"      206",,,,"-2","T,0222,+","116"," ,T,0217, ",,,"2.30"," ,T,0204, ","76","T,0827, ","8765","4","44.87"," ,T",,,"39.9","T","49.7","T","30.2","T"
"US1CAHM0052","KNEELAND 3.5 SSE, CA US","40.710884","-123.975789","624.8","2019",,,,,,,,,,,,,"2.61"," ,N,0227, ",,,,,"60.76"," ,N",,,,,,,,
"USC00049888","YUCCA VALLEY, CA US","34.1294","-116.3879","990.3","2019","1626",,"        5",,"         5","7","19","7,0211, ","3"," ,7,0221, ","5.5"," ,7,1227, ","1.49"," ,7,0203, ","105","7,0728, ","2938","4","11.28"," ,7","13.3"," ,7","61.2","7","75.6","7","46.7","7"
"USR0000CBUU","BUTTERCUP CALIFORNIA, CA US","32.7397","-114.8839","66.1","2019","4504",,,,,,"32","U,0220, ",,,,,,,"117","U,0815,+","741","6",,,,,"75.0","U","88.2","U","61.9","U"
"USC00049884","YUCCA MESA, CA US","34.2182","-116.4073","1050.0","2019","2040",,"        7",,"         2","7","25","7,0211, ","7"," ,7,0221, ","7.0"," ,7,0221, ","1.25"," ,7,0214, ","104","7,0901, ",,,"9.14"," ,7","10.0"," ,7","63.3","7","74.9","7","51.8","7"
"USC00046136","NEVADA CITY, CA US","39.2466","-121.0008","847.6","2019",,,"        9",,"         4","7",,,"6"," ,7,1129,+","6.0"," ,7,1127, ",,,,,,,,,"10.6"," ,7",,,,,,
"USR0000CKET","KETTLEMAN HILLS CALIFORNIA, CA US","36.0333","-120.0569","246.9","2019","2474",,,,,,"35","U,0211, ",,,,,,,"108","U,0728, ","1771","8",,,,,"66.8","U","75.6","U","58.0","U"
"USR0000CSVA","SPRING VALLEY CALIFORNIA, CA US","37.5625","-122.4364","327.7","2019","232",,,,,,"35","U,1128,+",,,,,,,"95","U,0815,+","3477","6",,,,,"56.2","U","63.5","U","48.9","U"
"US1CAHM0066","WHITETHORN 1.7 NNW, CA US","40.044697","-123.958954","294.7","2019",,,,,,,,,,,,,"5.60"," ,N,0225, ",,,,,"99.86"," ,N",,,,,,,,
"USR0000CMIO","MILO CALIFORNIA, CA US","36.2314","-118.8689","586.1","2019","2145",,,,,,"31","U,0206, ",,,,,,,"102","U,0728, ","2233","8",,,,,"64.5","U","73.3","U","55.7","U"
"USS0020L02S","RUBICON NUMBER 2, CA US","39.0","-120.13","2343.6","2019","13",,"      205",,,,"9","T,0222,+","117"," ,T,0306, ",,,"2.70"," ,T,0213, ","78","T,0815, ","7459","8","52.56"," ,T",,,"43.6","T","50.9","T","36.2","T"
"US1CAHM0063","ARCATA 0.9 WNW, CA US","40.872397","-124.097259","4.6","2019",,,,,,,,,,,,,"2.27"," ,N,0225, ",,,,,"43.22"," ,N",,,,,,,,
"USW00003144","IMPERIAL CO AIRPORT, CA US","32.83417","-115.57861","-17.7","2019",,,,,,,,,,,,,"0.44"," ,W,0925, ",,,,,"1.81"," ,W",,,,,,,,
"USC00046144","NEWARK, CA US","37.5147","-122.0325","3.0","2019","422",,,,,,"30","7,1227, ",,,,,"0.92"," ,7,1127, ","98","7,0612,+","2149","7","16.43"," ,7",,,"59.3","7","67.7","7","50.9","7"
"USC00046386","OCOTILLO WELLS 2 W, CA US","33.1552","-116.1688","118.9","2019","4953",,,,,,"34","7,0103, ",,,,,"0.76"," ,7,1120, ","118","7,0815,+","667","5","5.08"," ,7",,,"76.2","7","87.3","7","65.1","7"
"USC00041948","COLUSA 2 SSW, CA US","39.1875","-122.0269","15.2","2019","1478",,,,,,"27","7,1128, ",,,,,"2.31"," ,7,0214, ","105","7,0816, ","2482","7","21.15"," ,7",,,"61.8","7","74.4","7","49.1","7"
"USW00003177","CARLSBAD MCCLELLAN PALOMAR AIRPORT, CA US","33.12806","-117.27944","100.0","2019","742",,,,,,"39","W,0222, ",,,,,"1.77"," ,W,0214, ","92","W,1024, ","1231","7","18.53"," ,W",,,"63.3","W","69.7","W","56.9","W"
"US1CAHM0073","PETROLIA 0.6 SSE, CA US","40.317157","-124.281608","28.0","2019",,,,,,,,,,,,,"5.71"," ,N,0225, ",,,,,"80.92"," ,N",,,,,,,,
"USW00003179","CHINO AIRPORT, CA US","33.97528","-117.63611","198.1","2019","1516",,,,,,"29","W,0222,+",,,,,"2.99"," ,W,0214, ","108","W,0611, ","1613","9","19.65"," ,W",,,"64.3","W","78.2","W","50.3","W"
"USW00003178","SAN DIEGO BROWN FIELD, CA US","32.57222","-116.97944","157.0","2019","645",,,,,,"30","W,0102, ",,,,,"1.69"," ,W,1128, ","98","W,1024, ","1534","3","18.50"," ,W",,,"62.2","W","72.0","W","52.5","W"
"US1CAHM0070","HONEYDEW 3.2 SSE, CA US","40.2002","-124.1053","425.2","2019",,,,,,,,,,,,,"10.66"," ,N,0225, ",,,,,"141.73"," ,N",,,,,,,,
"USR0000CKEE","KEENWILD CALIFORNIA, CA US","33.6667","-116.7667","1499.6","2019","912",,,,,,"18","U,0219, ",,,,,,,"94","U,0901,+","3746","3",,,,,"56.8","U","67.0","U","46.7","U"
"USR0000CMIL","MILL CREEK ANF CALIFORNIA, CA US","34.3903","-118.0825","1530.4","2019","866",,,,,,"19","U,0206, ",,,,,,,"91","U,0727, ","3825","1",,,,,"56.0","U","64.1","U","47.9","U"
"US1CAPC0001","SODA SPRINGS 1.5 SSW, CA US","39.302062","-120.383677","2099.2","2019",,,,,"        86","N",,,,,"32.0"," ,N,0210, ","3.56"," ,N,0214, ",,,,,"90.44"," ,N","714.4"," ,N",,,,,,
"USC00041700","CHESTER, CA US","40.3033","-121.2422","1380.7","2019","133",,,,"        27","7","4","7,0219,+",,,"18.0"," ,7,0226, ","2.72"," ,7,0227, ","96","7,0725,+","6454","8","42.80"," ,7","188.5"," ,7","46.9","7","61.1","7","32.7","7"
"USW00003171","RIVERSIDE MUNICIPAL AIRPORT, CA US","33.95194","-117.43861","245.2","2019","1829",,,,,,"33","W,0222,+",,,,,"2.68"," ,W,0214, ","107","W,0611, ","1461","6","14.49"," ,W",,,"65.7","W","78.5","W","52.8","W"
"USR0000CSUF","SUGARLOAF SHF CALIFORNIA, CA US","40.9167","-122.4383","1280.2","2019","1226",,,,,,"21","U,0210, ",,,,,,,"101","U,0827, ","4076","3",,,,,"56.7","U","65.9","U","47.5","U"
"USC00045064","LOMPOC, CA US","34.6538","-120.4513","22.9","2019","205",,,,,,"28","7,1231,+",,,,,"1.65"," ,7,0202, ","96","7,1024,+","1961","4","19.20"," ,7",,,"59.2","7","69.6","7","48.7","7"
"US1CAKN0022","BAKERSFIELD 6.1 WSW, CA US","35.331142","-119.107783","112.8","2019",,,,,,,,,,,,,"1.12"," ,N,0306, ",,,,,"10.71"," ,N",,,,,,,,
"USR0000CBSR","BIG SUR CALIFORNIA, CA US","36.2356","-121.785","137.2","2019","366",,,,,,"33","U,1227, ",,,,,,,"98","U,0914,+","2428","9",,,,,"59.1","U","69.5","U","48.6","U"
"USR0000CMID","MID HILLS CALIFORNIA, CA US","35.1231","-115.4114","1649.9","2019","1075",,,,,,"19","U,0223,+",,,,,,,"94","U,0805,+","4287","8",,,,,"55.8","U","65.4","U","46.3","U"
"USC00047248","RANCHO BERNARDO, CA US","33.0216","-117.0813","210.3","2019","951",,,,,,"34","7,0219,+",,,,,"2.85"," ,7,0214, ","96","7,1022, ","1481","6","22.33"," ,7",,,"63.2","7","72.8","7","53.6","7"
"USC00046399","OJAI, CA US","34.4477","-119.2275","227.1","2019","746",,,,,,"23","7,0102, ",,,,,"2.26"," ,7,0203, ","102","7,0725,+","2394","2","31.59"," ,7",,,"59.9","7","76.0","7","43.9","7"
"US1CAKN0026","WALKER BASIN 0.9 E, CA US","35.408836","-118.507075","1047.0","2019",,,,,,,,,,,,,"2.10"," ,N,0306, ",,,,,"15.32"," ,N",,,,,,,,
"US1CAPC0007","ROSEVILLE 4.7 WNW, CA US","38.780229","-121.376558","29.3","2019",,,,,,,,,,,,,"2.97"," ,N,1202, ",,,,,"31.00"," ,N",,,,,,,,
"USR0000CBRK","BLACKROCK CALIFORNIA, CA US","36.0931","-118.2603","2499.4","2019","11",,,,,,"-3","U,0219, ",,,,,,,"84","U,0831,+","7239","8",,,,,"44.1","U","58.2","U","29.9","U"
"US1CASS0006","MODESTO 4.1 NW, CA US","37.693058013916","-121.056518554688","23.8","2019",,,,,,,,,,,,,"0.92"," ,N,0323, ",,,,,"14.49"," ,N",,,,,,,,
"USR0000CBRI","BRIONES CALIFORNIA, CA US","37.9442","-122.1178","442.0","2019","728",,,,,,"33","U,0222,+",,,,,,,"102","U,0814, ","2925","3",,,,,"59.0","U","68.1","U","49.9","U"
"USR0000CSTA","STAMPEDE CALIFORNIA, CA US","39.4833","-120.075","2093.1","2019","75",,,,,,"0","U,0207, ",,,,,,,"91","U,0815, ","6874","0",,,,,"45.4","U","59.5","U","31.2","U"
"USC00046174","NEW MELONES DAM HQ, CA US","38.0047","-120.4863","292.6","2019","1744",,"        0",,"         0","7","29","7,0218, ","0"," ,7,1231,+","0.0"," ,7,1231,+","3.27"," ,7,1202, ","104","7,0817,+","2391","2","44.17"," ,7","0.0"," ,7","63.1","7","75.2","7","51.0","7"
"US1CASS0001","KNIGHTS FERRY 5.2 WSW, CA US","37.789245","-120.751802","43.9","2019",,,"        0",,"         0","N",,,"0"," ,N,1231,+","0.0","T,N,0206, ","2.08"," ,N,1202, ",,,,,"23.37"," ,N","0.0","T,N",,,,,,
"USS0019L45S","CARSON PASS, CA US","38.69","-119.99","2546.0","2019","0",,"      211",,,,"-3","T,0211, ","131"," ,T,0306, ",,,"3.50"," ,T,0213, ","76","T,0827, ","8561","9","56.55"," ,T",,,"40.3","T","49.7","T","31.0","T"
"USR0000COKO","OAK OPENING CALIFORNIA, CA US","36.1753","-118.7017","987.6","2019","1438",,,,,,"24","U,0211,+",,,,,,,"100","U,0728, ","3123","3",,,,,"60.0","U","70.1","U","49.9","U"
"USC00042805","ELSINORE, CA US","33.686","-117.3458","386.5","2019",,,,,,,,,,,,,"3.16"," ,7,0214, ",,,,,"19.01"," ,7",,,,,,,,
"USR0000COKN","OAKLAND NORTH CALIFORNIA, CA US","37.865","-122.2208","427.6","2019","351",,,,,,"32","U,0205, ",,,,,,,"97","U,0611,+","3294","2",,,,,"57.1","U","64.7","U","49.5","U"
"USW00003164","CAMPO ASOS, CA US","32.6261","-116.4681","805.0","2019","807",,,,,,"21","W,0220, ",,,,,"2.48"," ,W,0214, ","103","W,0831, ","3085","1","22.95"," ,W",,,"58.3","W","74.0","W","42.7","W"
"USR0000CBRA","BRANCH MOUNTAIN CALIFORNIA, CA US","35.1889","-120.0833","1149.1","2019","1270",,,,,,"25","U,0206, ",,,,,,,"98","U,0901, ","3512","1",,,,,"58.3","U","67.2","U","49.5","U"
"USW00003166","FULLERTON MUNICIPAL AIRPORT, CA US","33.87194","-117.97889","29.3","2019","1466",,,,,,"35","W,0219, ",,,,,"2.27"," ,W,0214, ","100","W,0610, ",,,"20.41"," ,W",,,"65.9","W","75.9","W","56.0","W"
"USR0000COKS","OAKLAND SOUTH CALIFORNIA, CA US","37.7861","-122.1447","333.8","2019","427",,,,,,"34","U,0205, ",,,,,,,"98","U,0611, ","3088","7",,,,,"57.8","U","66.0","U","49.7","U"
"USR0000CBRF","BEAR FLAT CALIFORNIA, CA US","41.295","-120.3133","1889.8","2019","134",,,,,,"0","U,0222, ",,,,,,,"93","U,0828, ","7288","0",,,,,"45.0","U","57.1","U","33.0","U"
"USW00003167","HAWTHORNE MUNICIPAL AIRPORT, CA US","33.92278","-118.33417","19.2","2019","1026",,,,,,"39","W,0101, ",,,,,"1.76"," ,W,0214, ","96","W,1024, ","1004","0","18.49"," ,W",,,"64.8","W","72.0","W","57.5","W"
"USR0000CSTO","STONYFORD CALIFORNIA, CA US","39.3669","-122.575","365.8","2019","1311",,,,,,"23","U,1129, ",,,,,,,"105","U,0815, ","3036","7",,,,,"59.8","U","73.9","U","45.7","U"
"USC00048587","STONY GORGE RESERVOIR, CA US","39.5861","-122.5341","243.8","2019","1357",,"        0",,"         0","7","25","7,1228,+","0"," ,7,1231,+","0.0"," ,7,1231,+","2.26"," ,7,0214, ","107","7,0816, ","3143","4","31.98"," ,7","0.0"," ,7","59.8","7","74.2","7","45.3","7"
"US1CAKN0031","TEHACHAPI 3.4 WNW, CA US","35.1464","-118.4986","1184.8","2019",,,,,,,,,,,,,"1.28"," ,N,0306, ",,,,,"20.23"," ,N",,,,,,,,
"USC00046168","NEWMAN, CA US","37.2811","-121.0177","27.4","2019","2110",,,,,,"26","7,0103, ",,,,,"1.65"," ,7,1202, ","112","7,0816, ","1847","1","14.47"," ,7",,,"65.5","7","81.2","7","49.9","7"
"US1CAAL0003","CASTRO VALLEY 0.4 NNE, CA US","37.716904","-122.058526","163.4","2019",,,,,,,,,,,,,"1.43"," ,N,0117, ",,,,,"25.54"," ,N",,,,,,,,
"USC00049452","WASCO, CA US","35.5892","-119.352","88.7","2019",,,,,,,,,,,,,,,,,,,,,,,,,,,,
"US1CAAL0001","PIEDMONT 1.0 SE, CA US","37.8123","-122.216","113.4","2019",,,,,,,,,,,,,"1.78"," ,N,0107, ",,,,,"28.76"," ,N",,,,,,,,
"USR0000CSRS","SANTA ROSA CALIFORNIA, CA US","38.4786","-122.7119","175.6","2019","672",,,,,,"33","U,0205, ",,,,,,,"101","U,0925,+","2557","7",,,,,"59.7","U","69.7","U","49.7","U"
"US1CAMC0004","ALTURAS 9.5 E, CA US","41.5135","-120.3648","1626.4","2019",,,,,"        34","N",,,,,"9.8"," ,N,0121, ","1.67"," ,N,0409, ",,,,,"23.44"," ,N","88.4"," ,N",,,,,,
"US1CAST0005","HOLLISTER 2.1 ESE, CA US","36.842237","-121.364964","118.6","2019",,,,,,,,,,,,,"1.23"," ,N,1202, ",,,,,"18.46"," ,N",,,,,,,,
"USR0000COKG","OAK GROVE CALIFORNIA, CA US","33.3933","-116.795","838.8","2019","1086",,,,,,"23","U,0219, ",,,,,,,"101","U,0901,+","2724","5",,,,,"60.1","U","74.2","U","46.1","U"
"USR0000CDVA","DEL VALLE CALIFORNIA, CA US","34.4311","-118.6828","389.5","2019","1534",,,,,,"31","U,0223, ",,,,,,,"103","U,0611, ","1708","1",,,,,"63.9","U","75.7","U","52.2","U"
"USR0000CBR4","BRIDGEPORT 4 NW CALIFORNIA, CA US","38.2719","-119.2892","2026.9","2019","211",,,,,,"-7","U,0211, ",,,,,,,"91","U,0827, ","6642","2",,,,,"46.7","U","61.4","U","31.9","U"
"US1CAKN0001","INYOKERN 9.4 WSW, CA US","35.6345","-117.9782","1316.4","2019",,,,,"         6","N",,,,,"4.6"," ,N,1129, ","2.51"," ,N,0306, ",,,,,"13.69"," ,N","17.8"," ,N",,,,,,
"USC00046175","NEWPORT BEACH HARBOR, CA US","33.6031","-117.8836","3.0","2019","520",,,,,,"38","7,0219, ",,,,,"2.22"," ,7,0214, ","88","7,1025, ","1231","8","13.44"," ,7",,,"62.7","7","67.8","7","57.5","7"
"USC00048353","SONORA, CA US","37.9672","-120.3872","510.5","2019",,,"        0",,"         0","7",,,"0"," ,7,1231,+","0.0"," ,7,1231,+","3.52"," ,7,1202, ",,,,,"42.58"," ,7","0.0"," ,7",,,,,,
"USS0019L05S","BLUE LAKES, CA US","38.61","-119.92","2455.8","2019","0",,"      218",,,,"-9","T,0211, ","117"," ,T,0307, ",,,"2.90"," ,T,1202, ","78","T,0827, ","8819","4","59.15"," ,T",,,"39.5","T","49.8","T","29.3","T"
"USR0000CBPI","BIG PINE FLAT CALIFORNIA, CA US","34.3194","-117.0131","2091.2","2019","184",,,,,,"3","U,0206, ",,,,,,,"91","U,0729, ","5925","8",,,,,"48.7","U","62.4","U","35.0","U"
"US1CAHM0026","BRIDGEVILLE 5.2 ENE, CA US","40.47343","-123.70131","815.3","2019",,,,,,,,,,,,,"4.67"," ,N,0227, ",,,,,"73.68"," ,N",,,,,,,,
"US1CAHM0029","FORTUNA 0.1 NW, CA US","40.58674","-124.1409","19.8","2019",,,,,,,,,,,,,,,,,,,"42.55"," ,N",,,,,,,,
"US1CAAL0012","PLEASANTON 0.4 ESE, CA US","37.6702","-121.8814","104.9","2019",,,,,,,,,,,,,"1.36"," ,N,0214, ",,,,,"20.47"," ,N",,,,,,,,
"USC00046194","NICOLAUS NUMBER 2, CA US","38.9261","-121.5447","13.1","2019",,,"        0",,"         0","7",,,"0"," ,7,1231,+","0.0"," ,7,1231,+","2.48"," ,7,1202, ",,,,,"29.05"," ,7","0.0"," ,7",,,,,,
"US1CAHM0022","WILLOW CREEK 4.5 NNE, CA US","40.9391833","-123.6235548","199.6","2019",,,,,,,,,,,,,"2.72"," ,N,0227, ",,,,,"53.43"," ,N",,,,,,,,
"USC00043914","HENSHAW DAM, CA US","33.2372","-116.7614","823.0","2019","627",,,,,,"22","7,1219,+",,,,,"4.10"," ,7,0215, ","102","7,0902,+","3357","2","40.37"," ,7",,,"56.7","7","72.9","7","40.6","7"
"USC00041738","CHIRIACO SUMMIT, CA US","33.6617","-115.7206","520.0","2019","2949",,"        0",,"         0","7","26","7,0104,+","0"," ,7,1231,+","0.0","T,7,0222, ","0.85"," ,7,1120, ","112","7,0806, ",,,"8.31"," ,7","0.0","T,7","67.8","7","81.1","7","54.4","7"
"USS0020K13S","TRUCKEE NUMBER 2, CA US","39.3","-120.18","1983.9","2019","58",,"      170",,,,"7","T,0207, ","95"," ,T,0215, ",,,"2.20"," ,T,0209, ","86","T,0827,+","6863","9","51.54"," ,T",,,"45.5","T","56.0","T","35.0","T"
"USR0000CSQU","SQUAW LAKE CALIFORNIA, CA US","32.9083","-114.4944","91.4","2019","4648",,,,,,"35","U,0103, ",,,,,,,"116","U,0821,+","770","8",,,,,"75.3","U","86.9","U","63.7","U"
"USR0000CMEN","MENDOCINO PASS CALIFORNIA, CA US","39.8075","-122.945","1652.0","2019","413",,,,,,"13","U,0205, ",,,,,,,"89","U,0827, ","5539","1",,,,,"50.2","U","58.3","U","42.1","U"
"USR0000CSQS","SQUAW SPRINGS CALIFORNIA, CA US","35.37","-117.5683","1103.4","2019","2089",,,,,,"27","U,0220,+",,,,,,,"101","U,0728, ","2650","5",,,,,"62.8","U","71.7","U","53.9","U"
"USR0000CSRI","SANTA ROSA ISLAND CALIFORNIA, CA US","33.9778","-120.0778","395.6","2019",,,,,,,"40","U,0221,+",,,,,,,,,,,,,,,,,,,"51.9","U"
"USR0000CSRO","SANTA ROSA PLATEAU CALIFORNIA, CA US","33.5286","-117.2306","603.5","2019","1191",,,,,,"32","U,0222, ",,,,,,,"99","U,0610, ","2028","7",,,,,"62.3","U","72.0","U","52.5","U"
"USC00049699","WILLOWS 6 W, CA US","39.52316","-122.3048","71.3","2019","1718",,,,"         0","7","29","7,0206, ",,,"0.0"," ,7,1231,+","2.40"," ,7,0213, ","105","7,0815, ","2151","0","29.67"," ,7","0.0"," ,7","63.8","7","76.7","7","50.9","7"
"USC00048122","SHAFTER 6 E, CA US","35.4867","-119.1458","123.1","2019",,,,,,,,,,,,,"1.67"," ,7,0306, ",,,"2351","9","10.49"," ,7",,,,,,,,
"US1CALS0002","SUSANVILLE 3.5 SSW, CA US","40.363","-120.674","1325.0","2019",,,,,,,,,,,,,"2.56"," ,N,1207, ",,,,,"29.84"," ,N",,,,,,,,
"USC00048380","SO ENTRANCE YOSEMITE N.P., CA US","37.5122","-119.6331","1538.3","2019",,,,,,,,,,,,,,,,,,,,,,,,,,,,
"USC00049473","WATSONVILLE WATERWORKS, CA US","36.9308","-121.7691","29.0","2019","208",,,,,,"30","7,0103,+",,,,,"2.96"," ,7,1202, ","102","7,0611, ","2485","7","30.70"," ,7",,,"58.5","7","69.0","7","48.2","7"
"USR0000CBOG","BOGARD RANGER STATION CALIFORNIA, CA US","40.5981","-121.0831","1722.1","2019","10",,,,,,"-15","U,0222, ",,,,,,,"93","U,0827, ","8163","9",,,,,"42.1","U","58.7","U","25.4","U"
"US1CAHM0035","EUREKA 2.2 S, CA US","40.7642","-124.1476","59.1","2019",,,,,,,,,,,,,"2.72"," ,N,0227,+",,,,,"48.81"," ,N",,,,,,,,
"USR0000CMEA","MEANS LAKE CALIFORNIA, CA US","34.3906","-116.5169","883.9","2019","2320",,,,,,"23","U,0103, ",,,,,,,"108","U,0728, ","2494","4",,,,,"64.0","U","77.5","U","50.5","U"
"USC00049226","VALLEY CENTER 1 N, CA US","33.22157","-117.03817","393.2","2019","1080",,,,,,"23","7,0102, ",,,,,"4.45"," ,7,0214, ","104","7,0610, ","1943","6","25.99"," ,7",,,"62.3","7","77.2","7","47.3","7"
"USC00048135","SHASTA DAM, CA US","40.7141","-122.4161","327.7","2019","1945",,"        0",,"         0","7","30","7,0210,+","0"," ,7,1231,+","0.0"," ,7,1231,+","7.20"," ,7,0227, ","105","7,0828,+",,,"82.28"," ,7","0.0"," ,7","63.4","7","73.8","7","53.0","7"
"USS0019L03S","HAGAN S MEADOW, CA US","38.85","-119.94","2370.1","2019","0",,"      174",,,,"-6","T,0222, ","94"," ,T,0217, ",,,"2.40"," ,T,0213, ","80","T,0815, ","8446","2","38.87"," ,T",,,"40.8","T","54.0","T","27.5","T"
"USR0000CBOO","BOONVILLE CALIFORNIA, CA US","38.9875","-123.3486","196.3","2019","569",,,,,,"27","U,1227,+",,,,,,,"104","U,0925, ","2892","8",,,,,"58.6","U","71.0","U","46.1","U"
"US1CAAL0018","BERKELEY 4.0 E, CA US","37.857468","-122.225616","349.9","2019",,,,,,,,,,,,,"1.64"," ,N,0214, ",,,,,"30.71"," ,N",,,,,,,,
"USC00049001","TRACY PUMPING PLANT, CA US","37.79589","-121.58319","18.6","2019","1742",,,,,,"29","7,0103,+",,,,,"0.95"," ,7,0213, ","104","7,0729,+","1989","9","14.28"," ,7",,,"64.3","7","76.3","7","52.3","7"
"USR0000CBNL","BEN LOMOND CALIFORNIA, CA US","37.1317","-122.17","801.6","2019","839",,,,,,"27","U,0213, ",,,,,,,"94","U,0724, ","3503","0",,,,,"57.2","U","64.9","U","49.6","U"
"US1CAHM0048","WILLOW CREEK 4.9 NNE, CA US","40.947288","-123.627895","152.7","2019",,,,,,,,,,,,,"2.66"," ,N,0227, ",,,,,"54.10"," ,N",,,,,,,,
"USC00041758","CHULA VISTA, CA US","32.64","-117.0858","17.1","2019","629",,,,,,"34","7,0102, ",,,,,"1.26"," ,7,1128, ","93","7,1024, ","1366","7","14.86"," ,7",,,"62.8","7","69.9","7","55.6","7"
"USC00043937","HESPERIA 2 E, CA US","34.4206","-117.2661","931.2","2019","1677",,"        2",,"         3","7","24","7,1218,+","1"," ,7,1226,+","2.5"," ,7,1226, ","1.09"," ,7,0325, ","107","7,0728, ","2597","9","9.76"," ,7","5.8"," ,7","62.1","7","75.6","7","48.5","7"
"USC00043939","HETCH HETCHY, CA US","37.9613","-119.783","1179.6","2019","603",,"       37",,"        15","7","14","7,0219, ","25"," ,7,0218,+","15.5"," ,7,0205, ","1.94"," ,7,0204, ","92","7,0828, ","4346","7","39.15"," ,7","87.4"," ,7","53.9","7","64.6","7","43.1","7"
"US1CAAL0030","OAKLAND 1.2 ENE, CA US","37.7778","-122.2032","35.4","2019",,,,,,,,,,,,,"1.60"," ,N,0214, ",,,,,"27.65"," ,N",,,,,,,,
"USR0000CMCG","MCGUIRES CALIFORNIA, CA US","39.3528","-123.6011","180.7","2019","253",,,,,,"28","U,0222, ",,,,,,,"101","U,0611, ","3600","1",,,,,"55.9","U","66.7","U","45.2","U"
"USR0000CSOM","SOMES BAR CALIFORNIA, CA US","41.39","-123.4958","280.4","2019","1124",,,,,,"27","U,0222,+",,,,,,,"110","U,0827, ","3362","8",,,,,"58.4","U","71.9","U","44.8","U"
"US1CAHM0041","EUREKA 3.0 SSW, CA US","40.7569801","-124.1814382","30.5","2019",,,,,,,,,,,,,"3.02"," ,N,0227, ",,,,,"47.20"," ,N",,,,,,,,
"USC00047298","REDDING CDF, CA US","40.5194","-122.2988","153.0","2019",,,"        1",,"         1","7",,,"8"," ,7,0213, ","8.5"," ,7,0213, ","2.60"," ,7,1207, ",,,,,"39.48"," ,7","8.5"," ,7",,,,,,
"USC00041990","COPCO NUMBER 1 DAM, CA US","41.97983","-122.33811","812.3","2019","795",,"       13",,"         9","7","15","7,1129, ","2"," ,7,1127,+","2.0"," ,7,0204, ","1.50"," ,7,0216, ","104","7,0828, ",,,"21.09"," ,7","12.3"," ,7","53.9","7","68.2","7","39.6","7"
"USS0019L40S","MONITOR PASS, CA US","38.67","-119.61","2532.9","2019","3",,"      178",,,,"0","T,0222, ","85"," ,T,0306, ",,,"1.30"," ,T,1207,+","78","T,0824, ","8030","9","31.16"," ,T",,,"42.1","T","51.9","T","32.2","T"
"USR0000CMSA","MARIPOSA CALIFORNIA, CA US","37.5042","-119.9869","680.0","2019","1223",,,,,,"24","U,0222,+",,,,,,,"100","U,0728, ","3143","2",,,,,"59.4","U","71.7","U","47.0","U"
"US1CASR0034","RANCHO CUCAMONGA 1.6 W, CA US","34.1223487854004","-117.597717285156","420.3","2019",,,,,,,,,,,,,"2.42"," ,N,1129, ",,,,,"30.19"," ,N",,,,,,,,
"USR0000COWE","OWENS CAMP LOC CALIFORNIA, CA US","38.7333","-120.245","1597.2","2019","246",,,,,,"6","U,0211, ",,,,,,,"92","U,0826, ","5473","8",,,,,"49.9","U","63.7","U","36.1","U"
"US1CAMD0017","LAYTONVILLE 1.1 SW, CA US","39.672422","-123.489803","502.0","2019",,,,,,,,,,,,,"4.11"," ,N,0227, ",,,,,"65.71"," ,N",,,,,,,,
"US1CAAM0009","VOLCANO 3.2 N, CA US","38.4882","-120.6313","739.4","2019",,,,,,,,,,,,,"3.10"," ,N,0117, ",,,,,"64.28"," ,N",,,,,,,,
"USR0000CKON","KONOCTI CALIFORNIA, CA US","38.9119","-122.7064","659.3","2019","1518",,,,,,"27","U,0210,+",,,,,,,"101","U,0815,+",,,,,,,"60.6","U","70.2","U","51.0","U"
"USC00048713","SUTTER HILL CDF, CA US","38.3772","-120.8008","483.4","2019",,,,,,,,,,,,,,,,,,,,,,,,,,,,
"USR0000COWV","OWENS VALLEY CALIFORNIA, CA US","37.39","-118.5506","1414.3","2019","1424",,,,,,"14","U,0211, ",,,,,,,"102","U,0728, ","3773","3",,,,,"58.0","U","71.5","U","44.4","U"
"USC00043261","FRIANT GOVERNMENT CAMP, CA US","36.9969","-119.7072","125.0","2019","1638",,,,,,"30","7,0223,+",,,,,"1.09"," ,7,0117, ","107","7,0817,+","2242","6","15.86"," ,7",,,"63.2","7","77.3","7","49.2","7"
"US1CASR0036","FAWNSKIN 0.3 NE, CA US","34.271186","-116.93834","2142.7","2019",,,,,,,,,,,,,"3.26"," ,N,0215, ",,,,,"33.01"," ,N",,,,,,,,
"USC00046773","PEARBLOSSOM, CA US","34.5025","-117.8969","945.2","2019","1950",,,,"         1","7","24","7,0212,+",,,"4.0"," ,7,1128, ","2.60"," ,7,0510, ","104","7,0901,+","2557","7","14.43"," ,7","4.0"," ,7","62.6","7","75.5","7","49.7","7"
"US1CAMD0001","UKIAH 8.4 NW, CA US","39.2206","-123.3312","759.6","2019",,,,,,,,,,,,,"3.83"," ,N,0226, ",,,,,"58.68"," ,N",,,,,,,,
"US1CAMD0003","BOONVILLE 2.2 WSW, CA US","39.00623","-123.408373","323.4","2019",,,,,,,,,,,,,,,,,,,"56.49"," ,N",,,,,,,,
"USC00043038","FIDDLETOWN DEXTER RANCH, CA US","38.5236","-120.7061","658.4","2019",,,"        0",,"         1","7",,,"0"," ,7,1231,+","1.5"," ,7,1128, ","2.17"," ,7,0117, ",,,,,"51.43"," ,7","1.5"," ,7",,,,,,
"USR0000CKNO","KNOXVILLE CREEK CALIFORNIA, CA US","38.8619","-122.4172","670.6","2019","1147",,,,,,"24","U,1128, ",,,,,,,"101","U,0815, ","3224","4",,,,,"58.9","U","69.7","U","48.1","U"
"USR0000CMS2","MOUNT SHASTA CALIFORNIA, CA US","41.3156","-122.3156","0.0","2019","357",,,,,,"10","U,0222, ",,,,,,,"97","U,0827, ","5373","9",,,,,"50.7","U","63.4","U","38.0","U"
"US1CASR0026","HESPERIA 3.9 SW, CA US","34.3725","-117.34038","1090.6","2019",,,,,,,,,,,,,"2.04"," ,N,0203, ",,,,,"16.57"," ,N",,,,,,,,
"USR0000CMRK","MARKLEEVILLE CALIFORNIA, CA US","38.6833","-119.7667","1676.7","2019","299",,,,,,"-1","U,0219, ",,,,,,,"94","U,0814, ","6276","7",,,,,"48.1","U","62.3","U","33.8","U"
"US1CAMD0033","MENDOCINO 2.7 NNE, CA US","39.341511","-123.776148","128.3","2019",,,,,,,,,,,,,"2.81"," ,N,0227, ",,,,,"51.33"," ,N",,,,,,,,
"US1CASR0052","LUCERNE VALLEY 2.7 SSE, CA US","34.406722","-116.948588","1032.4","2019",,,,,,,,,,,,,"0.90"," ,N,0214,+",,,,,"8.42"," ,N",,,,,,,,
"US1CASR0055","SAN BERNARDINO 5.1 NW, CA US","34.195019","-117.350246","528.8","2019",,,,,,,,,,,,,"4.80"," ,N,0117, ",,,,,"34.95"," ,N",,,,,,,,
"USR0000CEAG","EAGLE PEAK CALIFORNIA, CA US","39.9278","-122.6569","1131.7","2019",,,,,,,,,,,,,,,,,"3900","8",,,,,,,,,,
"USC00047888","SANTA ANA FIRE STATION, CA US","33.7442","-117.8667","41.1","2019","1448",,,,,,"37","7,0219, ",,,,,"2.59"," ,7,0214, ","98","7,1022,+","858","6","19.59"," ,7",,,"66.3","7","75.6","7","57.0","7"
"USC00047643","SAINT HELENA, CA US","38.5066","-122.4713","68.6","2019",,,,,,,,,,,,,"3.32"," ,7,0226, ",,,,,"24.01"," ,7",,,,,,,,
"US1CAHM0009","MCKINLEYVILLE 2.3 NE, CA US","40.9778","-124.086","82.3","2019",,,,,,,,,,,,,"3.46"," ,N,0225, ",,,,,"59.84"," ,N",,,,,,,,
"US1CAMD0022","LAYTONVILLE 9.8 NNW, CA US","39.814","-123.5343","633.4","2019",,,,,,,,,,,,,"3.71"," ,N,0227, ",,,,,"72.56"," ,N",,,,,,,,
"US1CAMD0021","ALBION 4.0 SE, CA US","39.1878","-123.7096","193.9","2019",,,,,,,,,,,,,"3.38"," ,N,0226, ",,,,,"52.33"," ,N",,,,,,,,
"US1CAHM0005","MCKINLEYVILLE 7.3 ESE, CA US","40.896186","-123.998374","111.6","2019",,,,,,,,,,,,,"2.54"," ,N,0227, ",,,,,"54.30"," ,N",,,,,,,,
"US1CAHM0004","MCKINLEYVILLE 2.7 SE, CA US","40.9231","-124.084","99.1","2019",,,,,,,,,,,,,"2.77"," ,N,0227,+",,,,,"54.72"," ,N",,,,,,,,
"US1CASR0044","YUCAIPA 1.5 NNE, CA US","34.05425","-117.0383","846.1","2019",,,,,,,,,,,,,,,,,,,"27.17"," ,N",,,,,,,,
"USR0000CMOU","MOUNTAIN REST CALIFORNIA, CA US","37.0544","-119.3711","1249.7","2019","1122",,,,,,"19","U,0211, ",,,,,,,"93","U,0728,+","3742","8",,,,,"57.3","U","65.2","U","49.4","U"
"US1CAMD0026","CASPAR 1.4 ESE, CA US","39.361","-123.789","98.5","2019",,,,,,,,,,,,,"2.80"," ,N,0227, ",,,,,"51.77"," ,N",,,,,,,,
"USR0000CVAY","VALYERMO CALIFORNIA, CA US","34.4456","-117.8511","1152.1","2019","1239",,,,,,"18","U,0211, ",,,,,,,"102","U,0901, ","3414","5",,,,,"58.5","U","73.3","U","43.8","U"
"USR0000CVAN","VAN BREMMER CALIFORNIA, CA US","41.6431","-121.7939","1502.1","2019","356",,,,,,"10","U,0222, ",,,,,,,"93","U,0827, ","6172","7",,,,,"48.5","U","59.6","U","37.5","U"
"USR0000CVAL","VALLEY CENTER CALIFORNIA, CA US","33.2372","-117.0086","452.0","2019","1180",,,,,,"30","U,0219,+",,,,,,,"101","U,0610, ","1872","3",,,,,"62.8","U","74.9","U","50.6","U"
"USC00047414","RICHMOND, CA US","37.9191","-122.3772","6.1","2019","392",,,,,,"37","7,0206,+",,,,,"2.85"," ,7,0213, ","101","7,0610, ",,,"33.57"," ,7",,,"59.9","7","67.9","7","51.9","7"
"USS0019L44S","HORSE MEADOW, CA US","38.84","-119.89","2608.2","2019","1",,"      208",,,,"0","T,0222, ","116"," ,T,0216, ",,,"1.80"," ,T,0213, ","77","T,0827, ","8293","0","38.76"," ,T",,,"41.2","T","50.4","T","31.9","T"
"US1CAPC0024","APPLEGATE 0.5 SE, CA US","38.996224","-120.985965","604.4","2019",,,,,,,,,,,,,"2.97"," ,N,0107, ",,,,,"59.75"," ,N",,,,,,,,
"USC00048758","TAHOE CITY, CA US","39.1678","-120.1428","1898.9","2019","12",,"      147",,"        44","7","1","7,0211, ","67"," ,7,0217, ","27.0"," ,7,0210, ","3.21"," ,7,0214, ","86","7,0621, ","7517","3","46.19"," ,7","255.9"," ,7","43.1","7","54.8","7","31.4","7"
"USR0000CMOR","MORMON ROCK CALIFORNIA, CA US","34.3175","-117.5019","1005.8","2019","906",,,,,,"26","U,0211,+",,,,,,,"97","U,0727, ","3240","9",,,,,"58.1","U","68.3","U","47.9","U"
"USR0000CBZE","BRAZIE RANCH CALIFORNIA, CA US","41.6853","-122.5942","914.4","2019","915",,,,,,"21","U,1129,+",,,,,,,"99","U,0827, ","4627","5",,,,,"54.4","U","64.9","U","43.9","U"
"USC00044394","JOHNSON VALLEY, CA US","34.3591","-116.5378","965.3","2019",,,,,,,,,,,,,,,,,,,,,,,,,,,,
"US1CALA0081","GLENDORA 1.4 ESE, CA US","34.13545","-117.82381","293.2","2019",,,,,,,,,,,,,"2.66"," ,N,1226, ",,,,,"32.33"," ,N",,,,,,,,
"USC00046572","OXNARD WEATHER FORECAST OFFICE, CA US","34.2066","-119.1375","15.8","2019","537",,,,,,"34","7,0206, ",,,,,"1.87"," ,7,0202, ","98","7,1025, ","1541","2","25.28"," ,7",,,"61.9","7","71.7","7","52.1","7"
"USC00046336","OAKLAND MUSEUM, CA US","37.7983","-122.2642","9.1","2019","401",,,,,,"37","7,0206, ",,,,,"2.09"," ,7,0213, ","99","7,0611, ","2056","1","22.72"," ,7",,,"60.5","7","68.3","7","52.6","7"
"US1CASA0031","FOLSOM 0.5 W, CA US","38.675429","-121.155577","102.1","2019",,,,,,,,,,,,,"2.36"," ,N,0226, ",,,,,"32.00"," ,N",,,,,,,,
"US1CASA0030","LA RIVIERA 1.0 NE, CA US","38.575267","-121.340006","19.5","2019",,,,,,,,,,,,,"1.81"," ,N,0226, ",,,,,"26.52"," ,N",,,,,,,,
"USC00047681","SALSIPUEDES GAGING STATION, CA US","34.58511","-120.40826","77.4","2019",,,,,,,,,,,,,"3.30"," ,7,0202, ",,,,,"31.44"," ,7",,,,,,,,
"USS0019L43S","FORESTDALE CREEK, CA US","38.68","-119.96","2443.6","2019","2",,"      217",,,,"0","T,0222, ","145"," ,T,0307,+",,,"3.20"," ,T,0213, ","80","T,0826, ","7807","5","63.28"," ,T",,,"42.4","T","52.5","T","32.3","T"
"USC00043083","FIVE POINTS 5 SSW, CA US","36.3642","-120.1561","86.9","2019",,,,,,,,,,,,,"0.92"," ,7,0510, ",,,,,"8.00"," ,7",,,,,,,,
"USS0020L06S","ECHO PEAK, CA US","38.85","-120.08","2337.8","2019","13",,"      206",,,,"6","T,0222, ","152"," ,T,0307, ",,,"4.50"," ,T,0213, ","80","T,0827, ","7405","0","71.15"," ,T",,,"43.7","T","51.5","T","35.9","T"
"US1CAPC0013","NEWCASTLE 1.6 SSE, CA US","38.851","-121.123","243.8","2019",,,,,,,,,,,,,,,,,,,"36.15"," ,N",,,,,,,,
"US1CAPC0011","COLFAX 3.1 SW, CA US","39.060983","-120.99115","633.1","2019",,,,,,,,,,,,,"3.06"," ,N,0226, ",,,,,"61.13"," ,N",,,,,,,,
"USC00047672","SALINAS DAM, CA US","35.3372","-120.5038","424.3","2019",,,,,,,,,,,,,"3.57"," ,7,0203, ",,,,,"37.25"," ,7",,,,,,,,
"USC00049855","YOSEMITE PARK HEADQUARTERS, CA US","37.75027","-119.58972","1224.7","2019",,,,,,,,,,,,,,,,,,,,,,,,,,,,
"USR0000CMNC","MONTECITO CALIFORNIA, CA US","34.4614","-119.6481","457.2","2019","1097",,,,,,"38","U,0206, ",,,,,,,"96","U,0610, ",,,,,,,"62.0","U","68.0","U","56.1","U"
"USC00048760","TAHOMA, CA US","39.06","-120.1292","1924.8","2019",,,"      167",,"        46","7",,,"92"," ,7,0217, ","35.5"," ,7,0205, ","3.20"," ,7,0206, ","83","7,0816, ",,,"56.10"," ,7","353.4"," ,7",,,"52.2","7",,
"US1CAME0004","MERCED 1.2 NW, CA US","37.310242","-120.496842","51.2","2019",,,,,,,,,,,,,,,,,,,"18.11"," ,N",,,,,,,,
"USS0019L42S","SUMMIT MEADOW, CA US","38.4","-119.54","2838.6","2019","0",,"      211",,,,"-2","T,0222, ","127"," ,T,0306, ",,,"1.90"," ,T,0202, ","76","T,0824, ","9034","7","33.56"," ,T",,,"39.2","T","47.8","T","30.6","T"
"US1CABT0026","GRIDLEY 3.3 SE, CA US","39.334813","-121.645757","28.0","2019",,,,,,,,,,,,,"2.86"," ,N,0214, ",,,,,"37.46"," ,N",,,,,,,,
"USR0000CQUA","QUARTZ HILL CALIFORNIA, CA US","41.5992","-122.9336","1287.8","2019","810",,,,,,"17","U,0205, ",,,,,,,"99","U,0827, ","4990","4",,,,,"52.9","U","63.1","U","42.6","U"
"USR0000CMLR","MALLORY RIDGE CALIFORNIA, CA US","37.8172","-121.7789","621.8","2019","1110",,,,,,"30","U,0205, ",,,,,,,"98","U,0815,+","3054","7",,,,,"59.3","U","66.8","U","51.8","U"
"USC00041907","COLEMAN FISHERIES STATION, CA US","40.4","-122.1433","128.0","2019",,,"        0",,"         0","7",,,"0"," ,7,1231,+","0.0"," ,7,1231,+","2.22"," ,7,0122, ",,,,,"42.12"," ,7","0.0"," ,7",,,,,,
"US1CASR0014","JOSHUA TREE 2.0 S, CA US","34.097337","-116.31783","1039.1","2019",,,,,,,,,,,,,"1.58"," ,N,0203, ",,,,,"11.16"," ,N",,,,,,,,
"USC00049866","YREKA, CA US","41.70303","-122.64132","825.7","2019","715",,"       14",,"         9","7","14","7,1129, ","8"," ,7,1127,+","8.3"," ,7,1127, ","1.20"," ,7,0213, ","102","7,0828, ","4678","1","16.48"," ,7","27.9"," ,7","53.3","7","67.4","7","39.1","7"
"USC00045026","LODGEPOLE, CA US","36.6044","-118.7325","2052.8","2019",,,,,,,,,,,,,,,,,,,,,,,,,,,,
"USC00046597","PACIFIC HOUSE, CA US","38.7583","-120.503","1051.6","2019","639",,"       59",,"        17","7","14","7,0212,+","34"," ,7,0218, ","24.0"," ,7,0205, ","3.49"," ,7,0215, ","100","7,0620, ","4462","9","75.94"," ,7","112.4"," ,7","53.9","7","67.7","7","40.2","7"
"USR0000CQUI","QUINCY RD CALIFORNIA, CA US","39.9733","-120.9419","1066.8","2019","477",,,,,,"13","U,0222, ",,,,,,,"105","U,0827, ","5013","1",,,,,"52.1","U","67.4","U","36.6","U"
"US1CALA0068","ARTESIA 0.5 W, CA US","33.8675","-118.089","18.0","2019",,,,,,,,,,,,,"2.90"," ,N,1226, ",,,,,"20.14"," ,N",,,,,,,,
"US1CABT0033","PALERMO 2.7 SE, CA US","39.406398","-121.499978","84.1","2019",,,,,,,,,,,,,"3.13"," ,N,0214, ",,,,,"41.61"," ,N",,,,,,,,
"USS0019L41S","BURNSIDE LAKE, CA US","38.72","-119.89","2477.7","2019","0",,"      206",,,,"-19","T,0219, ","126"," ,T,0306, ",,,"2.70"," ,T,0213, ","77","T,0826, ","9573","4","58.37"," ,T",,,"37.8","T","51.3","T","24.2","T"
"USR0000COPA","OPAL MOUNTAIN CALIFORNIA, CA US","35.1542","-117.1756","987.6","2019","2150",,,,,,"26","U,0218,+",,,,,,,"105","U,0728, ","2497","5",,,,,"63.4","U","74.0","U","52.8","U"
"US1CALA0064","LOS ANGELES 2.6 NW, CA US","34.080912","-118.272927","123.4","2019",,,,,,,,,,,,,"2.31"," ,N,0203, ",,,,,"23.86"," ,N",,,,,,,,
"USC00041912","COLFAX, CA US","39.0901","-120.947","723.3","2019","1338",,,,,,"24","7,0207, ",,,,,"3.23"," ,7,0116, ","102","7,0816,+","3304","4","59.75"," ,7",,,"59.0","7","70.5","7","47.4","7"
"USC00041916","COLGATE POWERHOUSE, CA US","39.3308","-121.1922","181.4","2019",,,"        0",,"         0","7",,,"0"," ,7,1231,+","0.0"," ,7,1231,+","2.56"," ,7,0116, ",,,,,"50.35"," ,7","0.0"," ,7",,,,,,
"US1CALA0036","PASADENA 2.0 SE, CA US","34.13916","-118.11611","225.2","2019",,,,,,,,,,,,,"3.05"," ,N,0202, ",,,,,"29.89"," ,N",,,,,,,,
"USR0000CDIA","DIABLO GRANDE CALIFORNIA, CA US","37.3292","-121.2939","563.9","2019","1461",,,,,,"32","U,0205, ",,,,,,,"100","U,0725, ","2652","3",,,,,"61.4","U","70.3","U","52.6","U"
"US1CABT0005","OROVILLE 4.8 E, CA US","39.4932","-121.477","203.6","2019",,,,,,,,,,,,,"4.12"," ,N,0226, ",,,,,"49.15"," ,N",,,,,,,,
"US1CASA0002","SACRAMENTO 8.0 NE, CA US","38.635","-121.3611","29.0","2019",,,,,,,,,,,,,"2.26"," ,N,0227, ",,,,,"30.30"," ,N",,,,,,,,
"USR0000CBEA","BEAR PEAK CALIFORNIA, CA US","35.8842","-118.0517","2507.9","2019","132",,,,,,"5","U,0206, ",,,,,,,"80","U,0728, ","6745","2",,,,,"45.5","U","52.5","U","38.6","U"
"USR0000CSFD","SANTA FE DAM CALIFORNIA, CA US","34.1208","-117.9458","152.4","2019","1768",,,,,,"36","U,0222, ",,,,,,,"103","U,0904,+","1005","4",,,,,"66.7","U","78.3","U","55.1","U"
"USR0000CBDY","BRADLEY CALIFORNIA, CA US","35.8644","-120.8031","163.7","2019","1205",,,,,,"21","U,0101, ",,,,,,,"109","U,0727, ","2501","2",,,,,"61.2","U","78.1","U","44.3","U"
"USR0000CJUA","JUANITA LAKE CALIFORNIA, CA US","41.7861","-122.0056","1645.9","2019","394",,,,,,"12","U,0222, ",,,,,,,"94","U,0827, ","6037","7",,,,,"49.0","U","60.2","U","37.7","U"
"USR0000CBEN","BENTON CALIFORNIA, CA US","37.8431","-118.4778","1661.2","2019","593",,,,,,"-2","U,0211, ",,,,,,,"99","U,0827,+","5291","7",,,,,"51.2","U","68.1","U","34.4","U"
"USC00044997","LIVERMORE, CA US","37.68194","-121.75139","161.2","2019","948",,,,,,"27","7,0219, ",,,,,"1.35"," ,7,0213, ","105","7,0815, ","2503","8","17.60"," ,7",,,"60.6","7","73.1","7","48.1","7"
"USC00043669","GROVELAND 2, CA US","37.8444","-120.2258","853.4","2019","779",,"        3",,"         3","7","16","7,0314, ","2"," ,7,1128, ","2.0"," ,7,1128, ","3.73"," ,7,1202, ","98","7,0817,+","4056","6","50.03"," ,7","4.0"," ,7","55.5","7","69.5","7","41.4","7"
"USR0000CWOF","WOFFORD HEIGHTS CALIFORNIA, CA US","35.7217","-118.4989","960.1","2019","1217",,,,,,"18","U,0211, ",,,,,,,"101","U,0827, ",,,,,,,"58.4","U","69.2","U","47.6","U"
"USR0000CJUN","JUNIPER CREEK CALIFORNIA, CA US","41.3322","-120.4725","1332.6","2019","313",,,,,,"-2","U,0222,+",,,,,,,"97","U,0827, ","6383","2",,,,,"47.9","U","61.5","U","34.4","U"
"USR0000CLYO","LYONS VALLEY CALIFORNIA, CA US","39.1258","-123.0736","975.4","2019","989",,,,,,"26","U,0204, ",,,,,,,"93","U,0925,+","3937","2",,,,,"56.2","U","62.4","U","49.9","U"
"USR0000CJUL","JULIAN CALIFORNIA, CA US","33.0758","-116.5908","1292.4","2019","783",,,,,,"20","U,0219, ",,,,,,,"93","U,0806,+","3815","7",,,,,"56.2","U","65.5","U","46.8","U"
"USR0000CLYT","LYTLE CREEK CALIFORNIA, CA US","34.2339","-117.4803","851.0","2019","1102",,,,,,"25","U,0206, ",,,,,,,"102","U,0904,+","2622","7",,,,,"60.4","U","73.0","U","47.8","U"
"USC00042574","DUNSMUIR TREATMENT PLANT, CA US","41.1831","-122.28167","661.1","2019","557",,"       28",,"         6","7","21","7,1129, ","13"," ,7,1201, ","11.0"," ,7,1127,+","4.15"," ,7,0227, ","101","7,0828, ","4772","2","81.84"," ,7","34.0"," ,7","52.9","7","66.4","7","39.4","7"
"US1CALA0043","PASADENA 1.8 E, CA US","34.16192","-118.107335","277.7","2019",,,,,,,,,,,,,"2.97"," ,N,0203, ",,,,,"29.93"," ,N",,,,,,,,
"USR0000CSEC","SECRET TOWN CALIFORNIA, CA US","39.1836","-120.8847","861.4","2019","1061",,,,,,"23","U,0219, ",,,,,,,"99","U,0816,+","3502","6",,,,,"57.8","U","70.3","U","45.3","U"
"USW00023213","SANTA ROSA SONOMA CO AIRPORT, CA US","38.5038","-122.8102","34.7","2019","542",,"        0",,,,"25","W,1129, ","0"," ,H,1231,+",,,"4.64"," ,W,0226, ","105","W,0925, ","2800","7","51.99"," ,W",,,"58.7","W","72.1","W","45.3","W"
"USC00042346","DELANO, CA US","35.7683","-119.26","92.0","2019",,,,,,,,,,,,,,,,,,,,,,,,,,,,
"USC00046946","PIT RIVER PH 5, CA US","40.9869","-121.9772","444.4","2019",,,"        6",,"         2","7",,,"7"," ,7,0214, ","7.0"," ,7,0214, ","4.88"," ,7,0226, ",,,,,"102.02"," ,7","9.3"," ,7",,,,,,
"USC00046940","PIRU 2 ESE, CA US","34.4061","-118.7569","217.0","2019",,,,,,,,,,,,,"1.44"," ,7,1226, ",,,,,"25.17"," ,7",,,,,,,,
"USC00041253","CACHUMA LAKE, CA US","34.58223","-119.98159","240.5","2019","951",,,,,,"27","7,0223,+",,,,,"2.81"," ,7,0117, ","106","7,0915,+",,,"29.80"," ,7",,,"62.0","7","78.0","7","45.9","7"
"USR0000CUHL","UHL HOT SPRINGS, CA US","35.8889","-118.6333","1133.9","2019","886",,,,,,"18","U,0211, ",,,,,,,"96","U,0728, ","3732","3",,,,,"56.6","U","68.0","U","45.2","U"
"US1CALA0010","WHITTIER 2.9 WNW, CA US","33.986232","-118.066418","52.1","2019",,,,,,,,,,,,,"2.47"," ,N,1226, ",,,,,"25.02"," ,N",,,,,,,,
"USR0000CSDD","SADDLEBACK CALIFORNIA, CA US","39.6375","-120.8653","2033.0","2019",,,,,,,"12","U,0221, ",,,,,,,"88","U,0827, ",,,,,,,"47.1","U","53.9","U","40.3","U"
"USC00046719","PASADENA, CA US","34.1483","-118.1447","263.3","2019","1550",,,,,,"36","7,0219,+",,,,,"3.20"," ,7,0203, ","101","7,0611, ","1358","6","29.43"," ,7",,,"65.0","7","76.9","7","53.2","7"
"USR0000CSDC","SODA CREEK CALIFORNIA, CA US","39.425","-122.9772","540.4","2019","732",,,,,,"19","U,1030,+",,,,,,,"103","U,0827,+","4001","6",,,,,"55.8","U","71.8","U","39.9","U"
"USC00045866","MORRO BAY FIRE DEPARTMENT, CA US","35.367","-120.8447","36.0","2019",,,,,,,,,,,,,"1.89"," ,7,0302, ",,,,,"20.26"," ,7",,,,,,,,
"USC00042598","EAGLE MOUNTAIN, CA US","33.8089","-115.4508","296.6","2019",,,"        0",,"         0","7",,,"0"," ,7,1231,+","0.0"," ,7,1231,+",,,,,,,,,"0.0"," ,7",,,,,,
"USR0000CHOR","HORSE THIEF SPRINGS CALIFORNIA, CA US","35.7706","-115.9092","1524.0","2019","1617",,,,,,"20","U,0222,+",,,,,,,"98","U,0728, ","3707","5",,,,,"58.8","U","67.1","U","50.5","U"
"US1CACC0004","WALNUT CREEK 1.7 SSE, CA US","37.87832","-122.033766","74.1","2019",,,,,,,,,,,,,"1.83"," ,N,0117, ",,,,,"28.02"," ,N",,,,,,,,
"USR0000CDGR","DEVILS GARDEN CALIFORNIA, CA US","41.53","-120.6714","1530.7","2019","367",,,,,,"1","U,0222, ",,,,,,,"94","U,0827, ","6404","7",,,,,"47.9","U","59.0","U","36.8","U"
"USR0000CBCN","BELL CANYON CALIFORNIA, CA US","33.5417","-117.5917","213.4","2019","1096",,,,,,"36","U,0206, ",,,,,,,"102","U,0610, ","1364","6",,,,,"63.9","U","73.6","U","54.1","U"
"US1CACC0001","MARTINEZ 0.8 SSE, CA US","37.989778","-122.108496","76.8","2019",,,,,,,,,,,,,"1.88"," ,N,0214, ",,,,,"26.33"," ,N",,,,,,,,
"USR0000CHOO","HOOPA CALIFORNIA, CA US","41.0478","-123.6714","114.3","2019","803",,,,,,"29","U,1030, ",,,,,,,"106","U,0827, ",,,,,,,"58.3","U","70.3","U","46.2","U"
"USC00045860","MORONGO VALLEY NORTH, CA US","34.0864","-116.5622","958.6","2019","1968",,"        2",,"         1","7","27","7,0219,+","4"," ,7,0221, ","3.7"," ,7,0221, ","3.75"," ,7,0221, ","104","7,0806, ","2547","3","20.78"," ,7","3.8"," ,7","62.9","7","73.4","7","52.5","7"
"USR0000CHOL","HORSE LAKE CALIFORNIA, CA US","40.6306","-120.5028","1554.5","2019","234",,,,,,"0","U,0219,+",,,,,,,"94","U,0828,+","6802","9",,,,,"46.5","U","60.4","U","32.6","U"
"US1CALA0023","DIAMOND BAR 1.9 NNE, CA US","34.02319","-117.79646","285.0","2019",,,,,,,,,,,,,"2.82"," ,N,0214, ",,,,,"24.98"," ,N",,,,,,,,
"USR0000CSCI","SANTA CRUZ ISLAND CALIFORNIA, CA US","33.9958","-119.7222","76.2","2019","574",,,,,,"34","U,0219,+",,,,,,,"99","U,0913, ","1764","3",,,,,"61.3","U","72.3","U","50.2","U"
"US1CASA0012","SACRAMENTO 2.0 SE, CA US","38.5499","-121.4374","10.4","2019",,,,,,,,,,,,,"2.53"," ,N,0227, ",,,,,"28.28"," ,N",,,,,,,,
"USR0000CBAR","BARNABY CALIFORNIA, CA US","38.0281","-122.7022","378.0","2019","412",,,,,,"33","U,0205, ",,,,,,,"100","U,0925,+","2888","3",,,,,"58.2","U","67.8","U","48.6","U"
"USR0000CFIV","FIVE MILE CALIFORNIA, CA US","35.8717","-117.9183","1264.9","2019","2347",,,,,,"27","U,1129,+",,,,,,,"103","U,0728, ","2662","1",,,,,"63.5","U","72.2","U","54.9","U"
"USR0000CDES","DESCANSO CALIFORNIA, CA US","32.8569","-116.6222","1060.7","2019","809",,,,,,"21","U,0223,+",,,,,,,"99","U,0901,+","3273","6",,,,,"57.8","U","71.2","U","44.4","U"
"USR0000CBAT","BATTERSON CALIFORNIA, CA US","37.2319","-119.5083","963.2","2019","1445",,,,,,"20","U,0206,+",,,,,,,"99","U,0827,+","3232","4",,,,,"59.7","U","70.4","U","49.0","U"
"USR0000CYOL","YOLLA BOLLA CALIFORNIA, CA US","40.3375","-123.0656","1378.8","2019","603",,,,,,"12","U,0205, ",,,,,,,"98","U,0827,+","4974","6",,,,,"52.6","U","64.4","U","40.7","U"
"USC00041277","CALAVERAS BIG TREES, CA US","38.2769","-120.3113","1431.0","2019",,,,,"        22","7",,,,,"16.5"," ,7,0210, ","4.05"," ,7,0214, ",,,,,"76.64"," ,7","143.7"," ,7",,,,,,
"USC00044303","IRVINE RANCH, CA US","33.72","-117.723","164.6","2019","1535",,,,,,"34","7,0206, ",,,,,"3.40"," ,7,0214, ","102","7,1022, ","1078","1","22.75"," ,7",,,"66.1","7","77.2","7","55.0","7"
"US1CACC0018","WALNUT CREEK 1.4 SSE, CA US","37.884602","-122.028472","84.4","2019",,,,,,,,,,,,,"1.81"," ,N,0214,+",,,,,"26.63"," ,N",,,,,,,,
"USC00047813","SAN JACINTO, CA US","33.7965","-116.9753","464.8","2019","1813",,,,,,"29","7,0222,+",,,,,"3.48"," ,7,0214, ","105","7,0901,+","1757","2","18.58"," ,7",,,"64.9","7","78.1","7","51.7","7"
"US1CACC0016","CONCORD 0.8 WNW, CA US","37.978325","-122.013418","37.8","2019",,,,,,,,,,,,,"1.58"," ,N,0117, ",,,,,"19.54"," ,N",,,,,,,,
"US1CASA0005","CARMICHAEL 0.9 NE, CA US","38.64294","-121.30592","39.6","2019",,,,,,,,,,,,,"1.89"," ,N,1202, ",,,,,"27.66"," ,N",,,,,,,,
"US1CASA0007","FOLSOM 1.2 SSE, CA US","38.66001944","-121.13952222","110.3","2019",,,,,,,,,,,,,"2.11"," ,N,0519, ",,,,,"32.76"," ,N",,,,,,,,
"USR0000CHNM","HUNTER MOUNTAIN CALIFORNIA, CA US","36.5625","-117.4736","2097.0","2019","490",,,,,,"7","U,0206, ",,,,,,,"90","U,0729, ","5838","1",,,,,"49.6","U","60.1","U","39.1","U"
"US1CASR0072","TWENTYNINE PALMS 0.3 NNE, CA US","34.1430609","-116.0632069","624.8","2019",,,,,,,,,,,,,"1.64"," ,N,1227, ",,,,,"7.13"," ,N",,,,,,,,
"US1CASR0073","HIGHLAND 1.8 ESE, CA US","34.1106","-117.1592","429.8","2019",,,,,,,,,,,,,"1.76"," ,N,1129, ",,,,,"24.12"," ,N",,,,,,,,
"US1CASC0053","LOS GATOS 9.6 SSE, CA US","37.1039123535156","-121.889633178711","670.3","2019",,,,,,,,,,,,,"4.24"," ,N,0214, ",,,,,"64.31"," ,N",,,,,,,,
"USR0000CSBB","SANTA BARBARA ISLAND CALIFORNI, CA US","33.4833","-119.0333","53.6","2019","153",,,,,,"50","U,1226,+",,,,,,,"88","U,1024, ","1446","5",,,,,"60.8","U","63.6","U","57.9","U"
"US1CASC0054","GILROY 0.1 SE, CA US","37.009232","-121.577019","64.3","2019",,,,,,,,,,,,,"2.40"," ,N,0107, ",,,,,"31.25"," ,N",,,,,,,,
"USW00023244","MOFFETT FEDERAL AIRFIELD, CA US","37.4058","-122.0481","11.9","2019",,,,,,,,,,,,,,,,,,,,,,,,,,,,
"USC00044555","KING CITY, CA US","36.2069","-121.1377","97.5","2019","689",,,,,,"25","7,0102, ",,,,,"1.66"," ,7,1201, ","108","7,0611, ","2215","5","20.35"," ,7",,,"60.5","7","74.9","7","46.2","7"
"USR0000CFIS","FISH CREEK MOUNTAIN CALIFORNIA, CA US","32.9903","-116.0669","231.6","2019","4988",,,,,,"42","U,0102, ",,,,,,,"115","U,0815, ","601","2",,,,,"76.5","U","84.7","U","68.3","U"
"USC00040192","ANAHEIM, CA US","33.8647","-117.8425","71.6","2019","1804",,,,,,"36","7,0222,+",,,,,"2.88"," ,7,0214, ","103","7,1022, ","853","9","25.37"," ,7",,,"67.3","7","77.8","7","56.7","7"
"USR0000CBAL","BALD MOUNTAIN LOC CALIFORNIA, CA US","38.9056","-120.6972","1426.5","2019","1011",,,,,,"19","U,0211, ",,,,,,,"95","U,0827, ","4251","8",,,,,"55.5","U","63.7","U","47.3","U"
"USR0000CFIG","FIGUEROA CALIFORNIA, CA US","34.7331","-120.0067","975.4","2019","1421",,,,,,"30","U,0206,+",,,,,,,"96","U,0914,+","2690","7",,,,,"60.9","U","68.9","U","52.9","U"
"USR0000CBAC","BACKBONE CALIFORNIA, CA US","40.8892","-123.1422","1432.6","2019","731",,,,,,"16","U,0205, ",,,,,,,"98","U,0827, ","4916","3",,,,,"52.8","U","61.9","U","43.6","U"
"USC00046730","PASO ROBLES, CA US","35.6277","-120.6855","222.5","2019","923",,,,,,"23","7,0101, ",,,,,"2.12"," ,7,0203, ","105","7,0902,+","2595","5","22.54"," ,7",,,"60.1","7","76.5","7","43.6","7"
"US1CALA0003","TORRANCE 2.8 SW, CA US","33.79018","-118.33689","61.0","2019",,,,,,,,,,,,,"2.32"," ,N,1223, ",,,,,"24.60"," ,N",,,,,,,,
"US1CALA0001","GLENDALE 2.4 WSW, CA US","34.1689","-118.2947","155.8","2019",,,"        0",,"         0","N",,,"0"," ,N,1231,+","0.0"," ,N,1231,+","2.67"," ,N,0203, ",,,,,"25.31"," ,N","0.0"," ,N",,,,,,
"USW00023254","CONCORD BUCHANAN FIELD, CA US","37.9917","-122.055","5.5","2019","1272",,"        0",,,,"31","W,0103, ","0"," ,H,1231,+",,,"1.60"," ,W,0213, ","105","W,0815,+","1948","1","20.18"," ,W",,,"63.0","W","74.6","W","51.3","W"
"USR0000CHLD","HOPLAND CALIFORNIA, CA US","39.0308","-123.0806","817.5","2019","1296",,,,,,"25","U,0205, ",,,,,,,"99","U,0815, ","3324","7",,,,,"59.0","U","67.5","U","50.6","U"
"USW00023259","MONTEREY PENINSUL AIRPORT, CA US","36.5881","-121.8453","50.3","2019","180",,"        0",,,,"33","W,0219, ","0"," ,W,1231,+",,,"2.30"," ,W,1202, ","96","W,1024,+",,,"26.35"," ,W",,,"58.2","W","66.1","W","50.3","W"
"USR0000CSAD","SADDLEBACK BUTTE CALIFORNIA, CA US","34.6847","-117.8208","789.4","2019","1728",,,,,,"16","U,1031, ",,,,,,,"106","U,0815,+","2940","4",,,,,"60.9","U","76.5","U","45.4","U"
"USW00023258","MODESTO AIRPORT, CA US","37.6241","-120.9505","22.3","2019","1688",,"        0",,,,"29","W,0103,+","0"," ,H,1231,+",,,"0.92"," ,W,0302, ","106","W,0611, ","2160","2","11.81"," ,W",,,"63.6","W","76.1","W","51.1","W"
"USR0000CSAC","SACRAMENTO NWR CALIFORNIA, CA US","39.4172","-122.1825","36.6","2019","1598",,,,,,"31","U,1129,+",,,,,,,"105","U,0815,+","2198","3",,,,,"63.0","U","75.4","U","50.6","U"
"USW00023257","MERCED MUNICIPAL AIRPORT, CA US","37.28472","-120.51278","46.3","2019","1561",,,,,,"25","W,0103, ",,,,,"2.00"," ,W,1130, ","105","W,0816,+","2391","2","14.37"," ,W",,,"62.5","W","76.4","W","48.6","W"
"USR0000CFHL","FORT HUNTER LIGGET CALIFORNIA, CA US","36.0117","-121.2417","335.3","2019","1010",,,,,,"23","U,0101, ",,,,,,,"105","U,0727, ","2662","7",,,,,"60.1","U","76.5","U","43.7","U"
"USR0000CSAW","SAWYERS BAR CALIFORNIA, CA US","41.3003","-123.1322","668.1","2019","927",,,,,,"19","U,1129,+",,,,,,,"106","U,0827, ",,,,,,,"55.7","U","69.6","U","41.8","U"
"US1CASD0090","LA MESA 2.6E, CA US","32.76984","-116.978811","309.1","2019",,,,,,,,,,,,,"1.74"," ,N,1129, ",,,,,"21.88"," ,N",,,,,,,,
"USC00046506","ORLAND, CA US","39.7458","-122.1997","77.4","2019","1779",,"        0",,"         0","7","27","7,0103, ","0"," ,7,1231,+","0.0"," ,7,1231,+","2.53"," ,7,0214, ","108","7,0827,+","2529","1","31.52"," ,7","0.0"," ,7","63.1","7","75.7","7","50.5","7"
"USR0000CHLR","HOLLISTER CALIFORNIA, CA US","36.8422","-121.3622","123.1","2019","575",,,,,,"29","U,0219,+",,,,,,,"105","U,0611, ","2319","4",,,,,"60.0","U","72.2","U","47.9","U"
"USR0000CLTU","LITTLE TUJUNGA CALIFORNIA, CA US","34.2936","-118.3608","423.7","2019","1303",,,,,,"35","U,0218,+",,,,,,,"100","U,0611,+","1667","3",,,,,"63.4","U","73.8","U","53.0","U"
"US1CASR0068","CHINO 1.9 E, CA US","34.0089","-117.6534","220.7","2019",,,,,,,,,,,,,"1.94"," ,N,1129, ",,,,,"23.64"," ,N",,,,,,,,
"US1CASR0069","WRIGHTWOOD 4.8 NE, CA US","34.416703","-117.5819","1297.2","2019",,,,,,,,,,,,,"1.65"," ,N,1226, ",,,,,"15.21"," ,N",,,,,,,,
"US1CASD0097","CARLSBAD 8.3SE, CA US","33.079419","-117.24189","67.7","2019",,,,,,,,,,,,,"2.31"," ,N,1129, ",,,,,"19.24"," ,N",,,,,,,,
"USR0000CSAU","SAUGUS CALIFORNIA, CA US","34.425","-118.525","442.0","2019","1620",,,,,,"32","U,0223, ",,,,,,,"103","U,0913,+","1802","0",,,,,"63.9","U","75.0","U","52.8","U"
"USR0000CWHC","WHITE CLOUD CALIFORNIA, CA US","39.3167","-120.8375","1316.7","2019","933",,,,,,"21","U,0219,+",,,,,,,"93","U,0815, ","4064","9",,,,,"55.6","U","63.6","U","47.6","U"
"US1CASC0032","SAN JOSE 6.2 W, CA US","37.31851","-121.960763","42.4","2019",,,,,,,,,,,,,"1.67"," ,N,0214,+",,,,,"22.36"," ,N",,,,,,,,
"USR0000CWHH","WHITTIER HILLS CALIFORNIA, CA US","33.9839","-118.01","289.6","2019","1512",,,,,,"38","U,0222,+",,,,,,,"102","U,0724, ","1250","5",,,,,"65.3","U","75.5","U","55.2","U"
"USW00023225","BLUE CANYON NYACK AIRPORT, CA US","39.2774","-120.7102","1608.1","2019","434",,,,,,"17","W,0219,+",,,,,"3.81"," ,W,0213, ","85","W,0826,+","5332","2","84.27"," ,W",,,"50.8","W","57.4","W","44.2","W"
"USR0000CLST","LAS TABLAS CALIFORNIA, CA US","35.6564","-120.9242","303.0","2019","744",,,,,,"21","U,0101, ",,,,,,,"105","U,0901, ","2901","6",,,,,"58.9","U","76.3","U","41.5","U"
"USR0000CJOH","JOHNSONDALE CALIFORNIA, CA US","35.9717","-118.545","1432.6","2019","246",,,,,,"-2","U,0222,+",,,,,,,"96","U,0827, ","5544","3",,,,,"49.9","U","66.9","U","32.9","U"
"USR0000CWHT","WHITMORE CALIFORNIA, CA US","40.6194","-121.8994","736.7","2019","1336",,,,,,"21","U,0205, ",,,,,,,"102","U,0815,+","3446","5",,,,,"58.8","U","70.2","U","47.4","U"
"US1CASD0080","SAN DIEGO 13.9N, CA US","32.917304","-117.162625","123.7","2019",,,,,,,,,,,,,"1.88"," ,N,1129, ",,,,,"21.80"," ,N",,,,,,,,
"USC00043244","FREMONT, CA US","37.5422","-122.0158","11.6","2019","530",,,,,,"31","7,0219, ",,,,,"0.97"," ,7,0117, ","99","7,0611,+","2299","4","18.43"," ,7",,,"60.0","7","70.3","7","49.6","7"
"USW00023230","OAKLAND METROPOLITAN, CA US","37.7214","-122.2208","1.8","2019","364",,"        0",,,,"33","W,0102, ","0"," ,W,1231,+",,,"1.46"," ,W,0213, ","99","W,0611, ","2415","9","20.02"," ,W",,,"59.8","W","68.2","W","51.4","W"
"USW00023232","SACRAMENTO AIRPORT ASOS, CA US","38.5069","-121.495","4.6","2019","1339",,"        0",,,,"29","W,0102, ","0"," ,H,1231,+",,,"2.11"," ,W,0213, ","105","W,0815, ","2363","6","24.89"," ,W",,,"62.2","W","74.6","W","49.7","W"
"USW00023237","STOCKTON AIRPORT, CA US","37.8891","-121.2258","7.9","2019","1646",,"        0",,,,"29","W,0103,+","0"," ,H,1231,+",,,"1.16"," ,W,0226, ","108","W,0611, ","2105","4","17.05"," ,W",,,"63.8","W","77.0","W","50.5","W"
"USW00023234","SAN FRANCISCO INTERNATIONAL AIRPORT, CA US","37.6197","-122.3647","2.4","2019","359",,"        0",,,,"38","W,1130,+","0"," ,H,1231,+",,,"1.64"," ,W,0106, ","100","W,0610, ",,,"23.51"," ,W",,,"59.8","W","67.6","W","51.9","W"
"USW00023233","SALINAS AIRPORT, CA US","36.6636","-121.6081","22.6","2019","255",,"        0",,,,"30","W,0101, ","0"," ,H,1231,+",,,"1.21"," ,W,1202, ","105","W,0610, ","2334","5","14.26"," ,W",,,"59.3","W","68.8","W","49.9","W"
"US1CASC0040","LOS GATOS 5.4 SSW, CA US","37.15603","-121.98754","506.6","2019",,,,,,,,,,,,,"4.77"," ,N,0214, ",,,,,"66.11"," ,N",,,,,,,,
"USC00048702","SUSANVILLE 2 SW, CA US","40.4167","-120.6631","1283.8","2019","385",,"       23",,"        10","7","8","7,0222,+","11"," ,7,0217,+","6.0"," ,7,0216,+","1.70"," ,7,1208, ","93","7,0829,+","5649","2","19.54"," ,7","35.4"," ,7","49.4","7","62.9","7","35.9","7"
"US1CASB0001","GOLETA 3.7 WNW, CA US","34.439672","-119.896144","48.2","2019",,,,,,,,,,,,,"2.55"," ,N,0107, ",,,,,"30.12"," ,N",,,,,,,,
"USC00043491","GOLD RUN 2 SW, CA US","39.165","-120.8566","1011.9","2019",,,"       25",,"         7","7",,,"13"," ,7,1128, ","11.5"," ,7,0210, ","3.01"," ,7,0226, ",,,,,"69.26"," ,7","38.5"," ,7",,,,,,
"US1CASD0076","OCEANSIDE 8.1ENE, CA US","33.249867","-117.255878","57.6","2019",,,,,,,,,,,,,"2.37"," ,N,0214, ",,,,,"23.19"," ,N",,,,,,,,
"US1CAYB0001","CHALLENGE BROWNSVILLE 1.3 WSW, CA US","39.451765","-121.280096","624.5","2019",,,,,,,,,,,,,"5.85"," ,N,0226, ",,,,,"74.04"," ,N",,,,,,,,
"USC00043256","FRESNO 5 NE, CA US","36.7672","-119.7092","103.0","2019",,,,,,,,,,,,,,,,,,,,,,,,,,,,
"US1CAYB0003","MARYSVILLE 5.0 N, CA US","39.224066","-121.594033","22.3","2019",,,,,,,,,,,,,"2.51"," ,N,0214, ",,,,,"35.08"," ,N",,,,,,,,
"USC00046521","OROVILLE, CA US","39.5177","-121.553","52.1","2019","1588",,"        0",,"         0","7","31","7,1129,+","0"," ,7,1231,+","0.0"," ,7,1231,+","4.80"," ,7,0306, ","106","7,0728, ","2097","2","54.24"," ,7","0.0"," ,7","63.9","7","76.2","7","51.5","7"
"USC00047851","SAN LUIS OBISPO POLY, CA US","35.3056","-120.6619","93.9","2019","473",,,,,,"32","7,0104,+",,,,,"1.80"," ,7,0302,+","98","7,1024,+","1782","3","29.07"," ,7",,,"60.9","7","71.9","7","49.9","7"
"USW00023285","LIVERMORE MUNICIPAL AIRPORT, CA US","37.6927","-121.8144","119.8","2019","938",,"        0",,,,"27","W,0219, ","0"," ,H,1231,+",,,"1.35"," ,W,0213, ","106","W,0815, ","2553","4","16.29"," ,W",,,"60.5","W","73.1","W","47.9","W"
"US1CASD0055","SAN DIEGO 5.2WNW, CA US","32.734805","-117.24466","76.5","2019",,,,,,,,,,,,,"1.80"," ,N,1129, ",,,,,"17.60"," ,N",,,,,,,,
"USC00047195","QUINCY, CA US","39.9366","-120.9475","1042.4","2019","263",,,,,,"12","7,0223,+",,,,,"3.82"," ,7,0117, ","98","7,0828, ","5594","7","61.98"," ,7",,,"49.6","7","64.5","7","34.8","7"
"US1CASD0059","ESCONDIDO 0.8 NNE, CA US","33.1474","-117.0656","223.7","2019",,,,,,,,,,,,,"2.00"," ,N,1129, ",,,,,"24.98"," ,N",,,,,,,,
"US1CASC0011","CAMBRIAN PARK 2.2 SE, CA US","37.23413","-121.89738","76.8","2019",,,,,,,,,,,,,,,,,,,"30.43"," ,N",,,,,,,,
"USR0000CSNL","SAN LUIS NWR CALIFORNIA, CA US","37.1822","-120.7939","19.8","2019","1375",,,,,,"27","U,0102, ",,,,,,,"107","U,0816,+","2237","0",,,,,"62.5","U","77.0","U","47.9","U"
"USR0000CSNR","SANTA RITA CALIFORNIA, CA US","36.3478","-120.5978","1524.0","2019","769",,,,,,"18","U,0206,+",,,,,,,"89","U,0724, ","4552","9",,,,,"54.1","U","61.4","U","46.8","U"
"US1CATL0011","THREE RIVERS 1.7 NE, CA US","36.4584","-118.8858","307.8","2019",,,,,,,,,,,,,"1.87"," ,N,0306, ",,,,,"26.24"," ,N",,,,,,,,
"USR0000CMCB","MILL CREEK BDF CALIFORNIA, CA US","34.0836","-117.0347","899.2","2019","1466",,,,,,"29","U,0206, ",,,,,,,"99","U,0831,+","2361","7",,,,,"62.1","U","72.7","U","51.5","U"
"USR0000CSOL","SOLDIER MOUNTAIN CALIFORNIA, CA US","40.9258","-121.5856","1130.8","2019","747",,,,,,"15","U,0222, ",,,,,,,"100","U,0827, ","4832","6",,,,,"53.1","U","64.0","U","42.2","U"
"US1CASC0001","MOUNTAIN VIEW 1.2 S, CA US","37.384765","-122.075183","33.2","2019",,,,,,,,,,,,,"1.72"," ,N,0117, ",,,,,"19.51"," ,N",,,,,,,,
"USC00040798","BIG TUJUNGA DAM FC46, CA US","34.29481","-118.18849","709.0","2019",,,,,,,,,,,,,"3.98"," ,7,0203, ",,,,,"36.58"," ,7",,,,,,,,
"USR0000CWWO","WHITE WOLF CALIFORNIA, CA US","37.8511","-119.65","2446.0","2019",,,,,,,,,,,,,,,,,"7926","1",,,,,,,,,,
"US1CASC0003","SUNNYVALE 1.9 SE, CA US","37.364707","-122.004155","25.9","2019",,,,,,,,,,,,,"1.65"," ,N,0117, ",,,,,"19.86"," ,N",,,,,,,,
"USC00043824","HAT CREEK, CA US","40.9316","-121.5433","919.0","2019",,,"        1",,"         2","7",,,"2"," ,7,1127, ","2.0"," ,7,1127, ","2.25"," ,7,0214, ",,,"5512","4","25.69"," ,7","3.0"," ,7",,,,,,
"US1CASD0060","SAN DIEGO 9.5 NNW, CA US","32.842752","-117.220795","86.6","2019",,,,,,,,,,,,,"1.37"," ,N,1226,+",,,,,"19.96"," ,N",,,,,,,,
"USC00040790","BIG SUR STATION, CA US","36.2472","-121.7802","61.0","2019",,,,,,,,,,,,,,,,,,,"60.94"," ,7",,,,,,,,
"USC00049367","VISALIA, CA US","36.32833","-119.2997","92.4","2019",,,,,,,,,,,,,,,,,,,,,,,,,,,,
"US1CASN0016","SEBASTOPOL 4.5 WSW, CA US","38.375265","-122.903541","128.9","2019",,,,,,,,,,,,,"4.99"," ,N,0226, ",,,,,"58.24"," ,N",,,,,,,,
"USR0000CMAN","MANZANITA LAKE CALIFORNIA, CA US","40.54","-121.5803","1725.2","2019","33",,,,,,"1","U,0222, ",,,,,,,"89","U,0827, ","6871","2",,,,,"45.5","U","58.4","U","32.6","U"
"USR0000CBLD","BLUE DOOR CALIFORNIA, CA US","41.0547","-120.3375","1711.5","2019","142",,,,,,"-4","U,0222, ",,,,,,,"91","U,0828, ","7364","9",,,,,"44.8","U","56.2","U","33.4","U"
"USW00023293","SAN JOSE INTERNATIONAL AIRPORT, CA US","37.3591","-121.924","15.5","2019","727",,,,,,"33","W,0223,+",,,,,"1.02"," ,W,0116, ","100","W,0610, ",,,"16.11"," ,W",,,"61.2","W","71.5","W","50.9","W"
"US1CADN0006","SMITH RIVER 1.1 SSE, CA US","41.915283203125","-124.135986328125","36.6","2019",,,,,,,,,,,,,"7.07"," ,N,0408, ",,,,,"88.74"," ,N",,,,,,,,
"USR0000CMAL","MALIBU HILLS CALIFORNIA, CA US","34.0583","-118.6333","480.1","2019","1161",,,,,,"39","U,0218, ",,,,,,,"97","U,0610, ","1825","0",,,,,"62.7","U","69.5","U","55.9","U"
"USS0020H06S","CEDAR PASS, CA US","41.58","-120.3","2142.7","2019","62",,"      178",,,,"6","T,0222, ","62"," ,T,0309, ",,,"1.60"," ,T,0408, ","83","T,0828, ","7749","2","35.76"," ,T",,,"43.3","T","50.9","T","35.7","T"
"USC00042500","DOWNIEVILLE, CA US","39.5633","-120.8238","888.5","2019","449",,,,"        14","7","18","7,0218, ",,,"8.0"," ,7,1126,+","5.63"," ,7,0225, ","97","7,0826,+","4812","4","92.54"," ,7","59.5"," ,7","52.5","7","66.1","7","38.8","7"
"USR0000CBLT","BEN BOLT CALIFORNIA, CA US","38.5908","-120.9336","275.8","2019","1356",,,,,,"27","U,0219, ",,,,,,,"107","U,0728, ","2578","4",,,,,"61.4","U","74.3","U","48.4","U"
"US1CASC0015","SARATOGA 0.5 N, CA US","37.274817","-122.022649","113.7","2019",,,,,,,,,,,,,"3.14"," ,N,0214, ",,,,,"34.94"," ,N",,,,,,,,
"USC00048045","SCOTIA, CA US","40.4833","-124.1038","41.5","2019","95",,,,,,"30","7,0101, ",,,,,"3.91"," ,7,0225, ","94","7,0611, ","3512","1","57.96"," ,7",,,"55.9","7","64.3","7","47.4","7"
"USW00093138","PALM SPRINGS ASOS, CA US","33.8222","-116.5043","124.7","2019","4453",,,,,,"35","W,0103, ",,,,,"3.69"," ,W,0214, ","121","W,0805, ","806","6","9.50"," ,W",,,"74.5","W","87.6","W","61.4","W"
"USS0019L08S","LEAVITT MEADOWS, CA US","38.3","-119.55","2194.0","2019","3",,"      154",,,,"-10","T,0219, ","77"," ,T,0210, ",,,"3.40"," ,T,0116, ","84","T,0827, ","7720","7","40.34"," ,T",,,"43.0","T","57.1","T","28.9","T"
"US1CASD0053","SAN DIEGO COUNTRY ESTATES 1.5 WNW, CA US","33.015801","-116.806778","449.3","2019",,,,,,,,,,,,,"2.22"," ,N,0215, ",,,,,"27.67"," ,N",,,,,,,,
"USC00049378","VISTA, CA US","33.2354","-117.2322","131.1","2019","810",,,,,,"33","7,0222, ",,,,,"3.01"," ,7,0214, ","100","7,1024, ","1568","9","24.69"," ,7",,,"62.5","7","71.7","7","53.3","7"
"USC00049152","U C L A, CA US","34.0697","-118.4427","131.1","2019","947",,"        0",,"         0","7","41","7,1129, ","0"," ,7,1231,+","0.0"," ,7,1231,+","2.42"," ,7,0117, ","94","7,1022, ","1068","4","27.21"," ,7","0.0"," ,7","64.3","7","71.8","7","56.9","7"
"USR0000CDOG","DOG VALLEY CALIFORNIA, CA US","39.5619","-120.0478","1821.5","2019","175",,,,,,"-5","U,0222,+",,,,,,,"96","U,0814, ","7249","2",,,,,"45.2","U","60.4","U","30.0","U"
"US1CASD0035","RANCHO BERNARDO 0.5SE, CA US","33.01838","-117.06664","147.2","2019",,,,,,,,,,,,,"2.03"," ,N,0215, ",,,,,"23.39"," ,N",,,,,,,,
"USC00041428","CAMP PARDEE, CA US","38.2486","-120.8433","200.6","2019",,,"        0",,"         0","7",,,"0"," ,7,1231,+","0.0"," ,7,1231,+","1.62"," ,7,1207, ",,,,,"28.35"," ,7","0.0"," ,7",,,,,,
"USC00041424","CAMPO, CA US","32.6263","-116.4699","801.6","2019","770",,,,,,"21","7,0220, ",,,,,"3.75"," ,7,0214, ","104","7,0805, ","2990","0","25.46"," ,7",,,"58.5","7","75.9","7","41.2","7"
"USR0000CMAD","MAD RIVER CALIFORNIA, CA US","40.4633","-123.5239","845.8","2019",,,,,,,,,,,,,,,,,"4384","4",,,,,,,,,,
"USR0000CSMI","SAN MIGUEL CALIFORNIA, CA US","32.685","-116.9736","129.5","2019","972",,,,,,"37","U,0219, ",,,,,,,"98","U,1024, ","1194","3",,,,,"64.2","U","72.8","U","55.5","U"
"USR0000CDOY","DOYLE CALIFORNIA, CA US","40.0222","-120.1056","1292.4","2019","630",,,,,,"10","U,0219,+",,,,,,,"97","U,0828,+","5432","9",,,,,"51.3","U","65.0","U","37.7","U"
"USS0019L07S","SONORA PASS, CA US","38.31","-119.6","2690.5","2019","0",,"      210",,,,"-5","T,0222, ","113"," ,T,0306, ",,,"2.70"," ,T,0725, ","77","T,0826, ","8803","7","46.06"," ,T",,,"39.8","T","49.9","T","29.7","T"
"US1CASD0040","EL CAJON 2.3 S, CA US","32.769751","-116.959325","224.9","2019",,,,,,,,,,,,,"1.91"," ,N,1129, ",,,,,"22.37"," ,N",,,,,,,,
"USW00023273","SANTA MARIA PUBLIC AIRPORT, CA US","34.8994","-120.4486","73.8","2019","252",,"        0",,,,"31","W,0223,+","0"," ,H,1231,+",,,"1.06"," ,W,0131, ","100","W,0924, ","1966","3","17.11"," ,W",,,"59.7","W","70.7","W","48.8","W"
"USR0000CFRE","FREMONT CANYON CALIFORNIA, CA US","33.8081","-117.7111","542.8","2019","1558",,,,,,"34","U,0221, ",,,,,,,"101","U,0724, ","1694","4",,,,,"64.3","U","73.4","U","55.1","U"
"USW00023275","UKIAH MUNICIPAL AIRPORT, CA US","39.12583","-123.20083","183.2","2019",,,,,,,,,,,,,"3.47"," ,W,0225, ","106","W,0815, ","2781","2","42.68"," ,W",,,,,"74.5","W",,
"US1CASD0027","SAN DIEGO 3.5NE, CA US","32.746514","-117.109797","104.9","2019",,,,,,,,,,,,,"1.66"," ,N,1129, ",,,,,"20.33"," ,N",,,,,,,,
"USR0000COCR","OAK CREEK CALIFORNIA, CA US","36.8425","-118.2594","1479.8","2019","1522",,,,,,"19","U,1130,+",,,,,,,"98","U,0826,+","3568","0",,,,,"58.8","U","69.0","U","48.7","U"
"USW00023272","SAN FRANCISCO DOWNTOWN, CA US","37.7705","-122.4269","45.7","2019","202",,,,,,"40","W,0210,+",,,,,"2.49"," ,W,0213, ","97","W,0610, ","2704","5","26.28"," ,W",,,"58.4","W","64.4","W","52.3","W"
"USR0000CFRI","FRIEND MOUNTAIN CALIFORNIA, CA US","40.505","-123.3417","1219.2","2019",,,,,,,,,,,,,,,,,"5098","2",,,,,,,,,,
"USW00023271","SACRAMENTO 5 ESE, CA US","38.5552","-121.4183","11.6","2019","1701",,,,,,"32","W,0207,+",,,,,"2.52"," ,W,0226, ","107","W,0815, ","1980","9","26.31"," ,W",,,"64.1","W","76.2","W","52.0","W"
"USW00023277","WATSONVILLE MUNICIPAL AIRPORT, CA US","36.9358","-121.7886","48.8","2019","252",,,,,,"29","W,0101, ",,,,,"2.58"," ,W,1201, ","101","W,0925, ","2789","4","33.66"," ,W",,,"58.5","W","68.8","W","48.2","W"
"US1CAMA0009","LAKE MADERA 1.3 NNE, CA US","37.036736","-119.984218","109.4","2019",,,,,,,,,,,,,"0.85"," ,N,1201, ",,,,,"16.11"," ,N",,,,,,,,
"USC00043855","HAYFIELD PUMPING PLANT, CA US","33.7044","-115.6289","417.6","2019",,,"        0",,"         0","7",,,"0"," ,7,1231,+","0.0"," ,7,1231,+",,,,,,,,,"0.0"," ,7",,,,,,
"US1CAMA0002","RAYMOND 6.8 NE, CA US","37.2717","-119.80204","549.2","2019",,,,,,,,,,,,,"2.41"," ,N,0205, ",,,,,"32.83"," ,N",,,,,,,,
"US1CAMA0003","YOSEMITE LAKES 4.7 S, CA US","37.124097","-119.760981","487.1","2019",,,,,,,,,,,,,"1.34"," ,N,1209, ",,,,,"21.32"," ,N",,,,,,,,
"USS0019L06S","POISON FLAT, CA US","38.51","-119.63","2357.9","2019","0",,"      193",,,,"-8","T,0219, ","90"," ,T,0306, ",,,"2.10"," ,T,0214, ","77","T,0827, ","8816","9","40.35"," ,T",,,"40.1","T","52.4","T","27.8","T"
"USR0000CDNK","DINKEY CALIFORNIA, CA US","37.0664","-119.0394","1727.6","2019","44",,,,,,"-3","U,0211, ",,,,,,,"89","U,0827, ","6575","0",,,,,"46.3","U","61.5","U","31.1","U"
"USR0000CSLA","SLATER BUTTE CALIFORNIA, CA US","41.8586","-123.3525","1423.4","2019","503",,,,,,"18","U,0205, ",,,,,,,"93","U,0827, ","5451","3",,,,,"50.0","U","58.3","U","41.7","U"
"US1CASD0030","LA JOLLA 2.1 SE, CA US","32.825728","-117.25006","149.7","2019",,,,,,,,,,,,,"1.83"," ,N,1129, ",,,,,"19.37"," ,N",,,,,,,,
"USC00040343","ASH MOUNTAIN, CA US","36.4914","-118.8253","520.6","2019","1889",,,,,,"27","7,0211, ",,,,,,,"103","7,0817,+","2534","8",,,,,"62.8","7","74.9","7","50.8","7"
"USS0020H01S","STATE LINE, CA US","41.99","-120.72","1731.3","2019","89",,"      138",,,,"3","T,0222, ","41"," ,T,0309, ",,,"1.20"," ,T,1213, ","88","T,0827, ","7183","6","26.45"," ,T",,,"45.1","T","55.1","T","35.2","T"
"US1CASD0012","POWAY 3.2NE, CA US","32.9956","-117.00441","367.6","2019",,,,,,,,,,,,,"1.92"," ,N,0215, ",,,,,"25.54"," ,N",,,,,,,,
"USR0000CDMC","DEMOCRAT CALIFORNIA, CA US","35.5317","-118.6303","718.1","2019","1599",,,,,,"24","U,0211, ",,,,,,,"106","U,0728, ","2725","0",,,,,"61.4","U","74.2","U","48.5","U"
"US1CASD0011","ENCINITAS 2.7N, CA US","33.075685","-117.292027","57.3","2019",,,,,,,,,,,,,"2.02"," ,N,1129, ",,,,,"18.37"," ,N",,,,,,,,
"US1CASD0018","CHULA VISTA 6.3E, CA US","32.638125","-116.975343","169.2","2019",,,,,,,,,,,,,,,,,,,"18.37"," ,N",,,,,,,,
"USW00093110","OXNARD VENTURA CO AIRPORT, CA US","34.20083","-119.20694","11.0","2019","349",,,,,,"35","W,0206, ",,,,,"1.95"," ,W,1222, ","98","W,1025, ",,,"20.29"," ,W",,,"61.1","W","68.7","W","53.4","W"
"USW00093112","NORTH ISLAND NAS, CA US","32.7","-117.2","7.9","2019","650",,,,,,"39","W,0103, ",,,,,,,"94","W,1024, ","802","4",,,,,"64.2","W","70.7","W","57.7","W"
"USC00044710","LAKESIDE 2 E, CA US","32.8536","-116.8947","210.3","2019",,,,,,,,,,,,,"1.76"," ,7,0214, ",,,,,"23.57"," ,7",,,,,,,,
"USR0000CBIR","BIG ROCK CALIFORNIA, CA US","38.0394","-122.57","457.2","2019","646",,,,,,"33","U,0205, ",,,,,,,"101","U,0815, ","2756","0",,,,,"59.0","U","67.3","U","50.8","U"
"US1CACC0028","EL CERRITO 1.3 NW, CA US","37.936324","-122.3157","78.6","2019",,,,,,,,,,,,,"2.95"," ,N,0214, ",,,,,"31.42"," ,N",,,,,,,,
"USC00044712","LAKE SOLANO, CA US","38.492","-122.0039","57.0","2019","1644",,"        0",,"         0","7","29","7,0102, ","0"," ,7,1231,+","0.0"," ,7,1231,+","4.41"," ,7,0214, ","108","7,0729, ","2182","1","44.57"," ,7","0.0"," ,7","63.4","7","76.5","7","50.2","7"
"USR0000CBIP","BIG PINES CALIFORNIA, CA US","34.3789","-117.6919","2108.3","2019","430",,,,,,"10","U,0219,+",,,,,,,"88","U,0831,+","5340","6",,,,,"50.8","U","60.3","U","41.2","U"
"USC00044957","LINDSAY, CA US","36.2032","-119.0545","132.6","2019","1754",,,,,,"28","7,0211,+",,,,,"1.57"," ,7,0306, ","105","7,0614,+","2260","4","13.69"," ,7",,,"63.2","7","77.3","7","49.1","7"
"USW00093107","SAN DIEGO MIRAMAR NAS, CA US","32.86667","-117.13333","145.4","2019",,,,,,,,,,,,,,,,,,,,,,,,,,,,
"USR0000CHUR","HURLEY CALIFORNIA, CA US","37.0153","-119.5678","366.1","2019","1313",,,,,,"24","U,0222,+",,,,,,,"105","U,0816,+","2989","5",,,,,"60.0","U","75.1","U","44.9","U"
