"STATION","NAME","LATITUDE","LONGITUDE","ELEVATION","DATE","CDSD","CDSD_ATTRIBUTES","DSND","DSND_ATTRIBUTES","DSNW","DSNW_ATTRIBUTES","EMNT","EMNT_ATTRIBUTES","EMSD","EMSD_ATTRIBUTES","EMSN","EMSN_ATTRIBUTES","EMXP","EMXP_ATTRIBUTES","EMXT","EMXT_ATTRIBUTES","HDSD","HDSD_ATTRIBUTES","PRCP","PRCP_ATTRIBUTES","SNOW","SNOW_ATTRIBUTES","TAVG","TAVG_ATTRIBUTES","TMAX","TMAX_ATTRIBUTES","TMIN","TMIN_ATTRIBUTES"
"US1COAR0071","BENNETT 11.3 SSW, CO US","39.5973","-104.468","1787.0","2008",,,,,,,,,,,,,"1.43"," ,N,0807, ",,,,,"15.82"," ,N",,,,,,,,
"US1COAR0072","BENNETT 5.6 S, CO US","39.6763","-104.4056","1713.0","2008",,,,,"        12","N",,,,,"3.0"," ,N,0502, ","1.52"," ,N,0811, ",,,,,"14.87"," ,N","29.7"," ,N",,,,,,
"USC00051294","CANON CITY, CO US","38.4599","-105.2255","1639.2","2008","781",,"       25",,"        11","0","-19","0,1215, ","6"," ,0,1210,+","6.4"," ,0,0303, ","0.82"," ,0,1209, ","100","0,0803,+","5608","4","8.63"," ,0","39.8"," ,0","51.7","0","67.3","0","36.0","0"
"USR0000CTHM","THOMPSON MOUNTAIN COLORADO CCDBLMFT, CO US","38.6197","-105.3908","2579.5","2008",,,,,,,,,,,,,,,,,"8350","7",,,,,,,,,,
"USC00053592","GREEN MOUNTAIN DAM, CO US","39.8789","-106.3333","2359.2","2008",,,,,,,,,,,,,,,,,,,,,,,,,,,,
"US1COJF0125","EVERGREEN 4.6 S, CO US","39.5677","-105.308","2410.1","2008",,,,,"        31","N",,,,,"9.8"," ,N,0417, ","1.34"," ,N,0912, ",,,,,"15.61"," ,N","101.6"," ,N",,,,,,
"US1COJF0003","DENVER 6.1 WSW, CO US","39.7005","-105.0985","1699.0","2008",,,,,"        17","N",,,,,"6.3"," ,N,1209, ","1.23"," ,N,0817, ",,,,,"12.72"," ,N","45.5"," ,N",,,,,,
"US1COJF0245","ARVADA 2.7 NNW, CO US","39.8379","-105.1123","1716.0","2008",,,,,"        21","N",,,,,"5.7"," ,N,0131, ","1.23"," ,N,0816, ",,,,,"11.14"," ,N","52.2"," ,N",,,,,,
"USS0006J12S","ROACH, CO US","40.88","-106.05","2956.6","2008","0",,"      341",,,,"-10","T,0117, ","83"," ,T,0411, ",,,"1.10"," ,T,0605, ","79","T,0801, ","10956","7","32.97"," ,T",,,"34.8","T","45.6","T","24.0","T"
"USS0006K45S","BEAVER CK VILLAGE, CO US","39.6","-106.51","2590.8","2008","13",,,,,,"-8","T,0117, ",,,,,"1.80"," ,T,0816, ","86","T,0708, ","8801","4","31.91"," ,T",,,"40.6","T","51.5","T","29.8","T"
"USS0007J05S","RIPPLE CREEK, CO US","40.11","-107.29","3151.6","2008","0",,,,,,"-18","T,0117, ",,,,,"1.30"," ,T,0410, ","76","T,0801, ","10908","8","39.87"," ,T",,,"34.3","T","43.9","T","24.6","T"
"USS0007K14S","OVERLAND RES., CO US","39.09","-107.63","2999.2","2008","0",,,,,,"-21","T,0117, ",,,,,"1.40"," ,T,0105, ","75","T,0801, ",,,"32.36"," ,T",,,"35.4","T","46.7","T","24.1","T"
"USC00051179","BYERS 5 ENE, CO US","39.74062","-104.12742","1554.8","2008","640",,"       63",,"        16","0","-22","0,1215, ","5"," ,0,1111,+","6.0"," ,0,1111, ","1.73"," ,0,0825, ","104","0,0803, ","6487","1","13.91"," ,0","37.7"," ,0","48.6","0","64.1","0","33.1","0"
"USC00053116","FRASER, CO US","39.9425","-105.8172","2609.1","2008",,,"      143",,"        51","0",,,"36"," ,0,0207, ","12.0"," ,0,0201, ","2.00"," ,0,0810, ",,,,,"23.80"," ,0","167.0"," ,0",,,,,,
"USC00057950","STERLING, CO US","40.6279","-103.2084","1211.3","2008","770",,"       53",,"        12","0","-15","0,1215, ","7"," ,0,0104,+","2.0"," ,0,1219,+","2.15"," ,0,0726, ","103","0,0804, ","6276","8","12.36"," ,0","18.0"," ,0","49.9","0","64.1","0","35.7","0"
"US1COLR0187","WELLINGTON 5.5 NW, CO US","40.7689","-105.064","1653.8","2008",,,,,"         7","N",,,,,"3.8"," ,N,1204, ","1.68"," ,N,0816, ",,,,,"13.44"," ,N","17.6"," ,N",,,,,,
"USC00055531","MESA VERDE NATIONAL PARK, CO US","37.1996","-108.4893","2176.9","2008","524",,"      102",,"        33","0","-9","0,0118, ","36"," ,0,0205, ","12.5"," ,0,0204, ","1.78"," ,0,0106, ","92","0,0804,+","6508","6","21.09"," ,0","121.7"," ,0","48.5","0","60.8","0","36.2","0"
"USC00054444","KARVAL, CO US","38.7411","-103.5427","1546.9","2008",,,"       27",,"         9","0",,,"5"," ,0,0206,+","5.0"," ,0,0205, ","1.62"," ,0,0811, ",,,,,"12.56"," ,0","20.9"," ,0",,,,,,
"US1COEP0007","CALHAN 3.1 N, CO US","39.0804","-104.2931","1939.1","2008",,,,,"        22","N",,,,,"4.2"," ,N,1111, ","1.27"," ,N,0806, ",,,,,"10.76"," ,N","46.6"," ,N",,,,,,
"US1COYU0052","WRAY 19 NNE, CO US","40.3454","-102.1418","1106.1","2008",,,,,"        10","N",,,,,"10.0"," ,N,1111, ","2.90"," ,N,0605, ",,,,,"18.62"," ,N","31.5"," ,N",,,,,,
"USR0000CDIN","DINOSAUR N.M. COLORADO, CO US","40.5086","-108.9106","1816.6","2008","781",,,,,,"-1","U,0117, ",,,,,,,"97","U,0725, ","6978","6",,,,,"48.4","U","60.2","U","36.5","U"
"USS0007K01S","NORTH LOST TRAIL, CO US","39.08","-107.14","2804.2","2008",,,,,,,,,,,,,"1.80"," ,T,0105, ",,,,,"42.42"," ,T",,,,,,,,
"USS0007M31S","VALLECITO, CO US","37.49","-107.51","3316.2","2008","0",,,,,,"-8","T,0116, ",,,,,"2.20"," ,T,0105, ","72","T,0628, ","9801","0","37.65"," ,T",,,"38.1","T","46.6","T","29.6","T"
"USS0007K13S","TRAPPER LAKE, CO US","40.0","-107.24","2956.6","2008","0",,,,,,"-22","T,0117, ",,,,,"0.90"," ,T,1129, ","76","T,0801, ","10700","6","32.51"," ,T",,,"35.5","T","46.6","T","24.3","T"
"US1COBO0144","LONGMONT 3.2 SW, CO US","40.138","-105.1475","1539.8","2008",,,,,"        13","N",,,,,"4.8"," ,N,0317, ","1.30"," ,N,0816, ",,,,,"12.40"," ,N","36.5"," ,N",,,,,,
"USS0006K46S","CHAPMAN TUNNEL, CO US","39.26","-106.63","3081.5","2008","0",,,,,,"-20","T,0117, ",,,,,"1.20"," ,T,0807, ","76","T,0801, ",,,"35.82"," ,T",,,"34.4","T","47.4","T","21.5","T"
"US1COBO0143","LONGMONT 2.1 N, CO US","40.2001","-105.1087","1538.9","2008",,,,,"        10","N",,,,,"4.5"," ,N,0317, ","1.15"," ,N,0912, ",,,,,"12.46"," ,N","30.8"," ,N",,,,,,
"US1COYU0059","KIRK 6.2 E, CO US","39.614238","-102.483259","1261.0","2008",,,,,"        14","N",,,,,"8.0"," ,N,0411, ","4.00"," ,N,0807, ",,,,,"27.13"," ,N","38.7"," ,N",,,,,,
"USR0000CRDS","REDSTONE COLORADO, CO US","40.5708","-105.2264","1853.8","2008","462",,,,,,"-14","U,1215, ",,,,,,,"99","U,0802,+","6268","5",,,,,"48.8","U","61.7","U","35.9","U"
"US1COBO0146","LYONS 0.3 NNE, CO US","40.226333","-105.266667","1645.6","2008",,,,,"        14","N",,,,,"3.8"," ,N,1214,+","1.25"," ,N,0912, ",,,,,"13.91"," ,N","41.1"," ,N",,,,,,
"USC00055402","MARSTON FILTER PLANT, CO US","39.6211","-105.0655","1709.9","2008","573",,"       20",,"        11","0","-8","0,1216,+","4"," ,0,1210,+","4.0"," ,0,1209, ","1.77"," ,0,0817, ","100","0,0802, ","5994","8","13.82"," ,0","26.5"," ,0","49.8","0","63.6","0","35.9","0"
"USC00052494","EASTONVILLE 2 NNW, CO US","39.1091","-104.5997","2197.6","2008",,,"      121",,"        31","0",,,"11"," ,0,1203,+","7.4"," ,0,1201, ","2.54"," ,0,0806, ",,,,,"20.58"," ,0","99.4"," ,0",,,,,,
"US1COAR0085","CENTENNIAL 5.5 E, CO US","39.5845","-104.764","1825.1","2008",,,,,"        13","N",,,,,"5.0"," ,N,1209,+","1.02"," ,N,0817, ",,,,,"12.28"," ,N","35.7"," ,N",,,,,,
"USS0008L02S","COLUMBINE PASS, CO US","38.42","-108.38","2865.1","2008","12",,,,,,"-14","T,0117, ",,,,,"2.40"," ,T,0203, ","81","T,0801, ","8955","8","34.43"," ,T",,,"40.5","T","51.0","T","30.0","T"
"USS0006K10S","IVANHOE, CO US","39.29","-106.55","3169.9","2008",,,,,,,,,,,,,"1.10"," ,T,0314,+","74","T,0801,+","11274","5","41.99"," ,T",,,,,"45.2","T",,
"USS0006J01S","DRY LAKE, CO US","40.53","-106.78","2560.3","2008","9",,,,,,"-9","T,0117, ",,,,,"1.00"," ,T,0225,+","82","T,0801, ","9333","8","39.53"," ,T",,,"39.1","T","50.2","T","28.1","T"
"US1CODR0003","DOVE CREEK 12.4 SSW, CO US","37.6009","-108.9951","2012.9","2008",,,,,"        24","N",,,,,"11.0"," ,N,0128, ","1.64"," ,N,0106, ",,,,,"16.54"," ,N","92.6"," ,N",,,,,,
"US1COAR0081","AURORA 7.6 ESE, CO US","39.6863","-104.6991","1724.9","2008",,,,,"        14","N",,,,,"5.7"," ,N,1205, ","1.66"," ,N,0809, ",,,,,"17.44"," ,N","48.8"," ,N",,,,,,
"US1COLR0075","FORT COLLINS 2.8 WSW, CO US","40.5538","-105.1289","1567.0","2008",,,,,"         9","N",,,,,"5.6"," ,N,1204, ","1.39"," ,N,0816, ",,,,,"15.57"," ,N","33.1"," ,N",,,,,,
"US1COBO0030","BOULDER 1.9 SE, CO US","39.9915","-105.2403","1636.2","2008",,,,,"        21","N",,,,,"9.1"," ,N,1209, ","1.27"," ,N,0912, ",,,,,"14.54"," ,N","59.7"," ,N",,,,,,
"US1COBO0150","LONGMONT 2.0 SSW, CO US","40.1421","-105.1179","1523.1","2008",,,,,"        13","N",,,,,"3.5"," ,N,0317, ","1.59"," ,N,0816, ",,,,,"13.14"," ,N","29.1"," ,N",,,,,,
"USR0000CBDR","SUGARLOAF COLORADO, CO US","40.0181","-105.3614","2052.2","2008",,,,,,,"-11","U,1215, ",,,,,,,"102","U,0801, ","6191","7",,,,,"48.7","U","61.3","U","36.2","U"
"USS0007K02S","BURRO MOUNTAIN, CO US","39.88","-107.6","2865.1","2008","0",,,,,,"-16","T,0117, ",,,,,"1.10"," ,T,0810, ","78","T,0801, ","9807","3","37.00"," ,T",,,"37.8","T","48.9","T","26.6","T"
"USS0007M32S","BEARTOWN, CO US","37.71","-107.51","3535.7","2008","0",,,,,,"-19","T,0116, ",,,,,"1.90"," ,T,1225, ","75","T,0731, ","10891","6","42.81"," ,T",,,"35.0","T","47.6","T","22.4","T"
"US1COBO0033","BOULDER 3.3 SE, CO US","39.9735","-105.238","1673.0","2008",,,,,"        20","N",,,,,"9.5"," ,N,1209, ","1.23"," ,N,0912, ",,,,,"14.67"," ,N","58.0"," ,N",,,,,,
"USS0005J42S","NIWOT, CO US","40.04","-105.54","3020.6","2008","0",,"      318",,,,"-11","T,0116, ","51"," ,T,0416,+",,,"0.80"," ,T,0513, ","80","T,0801, ","10384","9","19.31"," ,T",,,"36.3","T","46.9","T","25.7","T"
"USS0006J38S","LOST DOG, CO US","40.82","-106.75","2840.7","2008","31",,,,,,"-9","T,0117, ",,,,,"1.00"," ,T,0111,+","78","T,0801, ",,,"39.83"," ,T",,,"38.7","T","46.6","T","30.7","T"
"US1COJF0024","CONIFER 4.2 ENE, CO US","39.5346","-105.2273","2364.9","2008",,,,,"        33","N",,,,,"11.2"," ,N,0303, ","1.36"," ,N,0816, ",,,,,"19.09"," ,N","132.1"," ,N",,,,,,
"USC00056765","PUEBLO RESERVOIR, CO US","38.25971","-104.71784","1481.6","2008","1079",,,,,,"-7","0,1216, ",,,,,"1.33"," ,0,0817, ","106","0,0803, ","5263","2","10.35"," ,0",,,"53.4","0","69.2","0","37.6","0"
"USC00053496","GRAND LAKE 1 NW, CO US","40.2669","-105.8322","2657.9","2008","0",,"      174",,"        58","0","-18","0,0117, ","40"," ,0,0314, ","10.0"," ,0,0201, ","1.86"," ,0,0912, ","87","0,0802, ","10258","1","19.13"," ,0","174.1"," ,0","36.1","0","52.0","0","20.3","0"
"USC00051071","BUENA VISTA 2 S, CO US","38.8246","-106.1276","2424.4","2008","124",,"       86",,"        19","0","-14","0,0101, ","13"," ,0,0208, ","5.2"," ,0,0208, ","0.93"," ,0,0807, ","93","0,0722, ","7754","0","9.18"," ,0","53.0"," ,0","43.3","0","59.1","0","27.5","0"
"USC00052281","DILLON 1 E, CO US","39.62455","-106.03353","2767.9","2008","0",,"      158",,"        59","0","-20","0,1215, ","25"," ,0,0226, ","8.0"," ,0,1214, ","0.98"," ,0,0912, ","82","0,0802,+","10903","5","16.41"," ,0","143.2"," ,0","33.7","0","49.5","0","18.0","0"
"USS0007M34S","STUMP LAKES, CO US","37.48","-107.63","3413.8","2008","0",,"      250",,,,"-16","T,0116, ","85"," ,T,0203, ",,,"2.30"," ,T,0105, ","71","T,0802, ","10650","5","40.21"," ,T",,,"35.1","T","44.5","T","25.6","T"
"USC00053016","FORT LEWIS, CO US","37.2309","-108.0514","2320.7","2008","58",,"      114",,"        25","0","-18","0,0131,+","49"," ,0,0203, ","12.0"," ,0,0105, ","1.45"," ,0,0105, ","87","0,0802,+","8300","3","15.89"," ,0","119.0"," ,0","42.4","0","56.7","0","28.0","0"
"USC00053258","GENOA, CO US","39.2771","-103.4945","1704.7","2008",,,,,,,,,,,,,,,,,,,,,,,,,,,,
"US1COLR0284","FCL 3.0 W, CO US","40.587602","-105.147301","1591.1","2008",,,,,"        12","N",,,,,"7.0"," ,N,1204, ","1.47"," ,N,0816, ",,,,,"13.96"," ,N","33.0"," ,N",,,,,,
"US1COEP0029","YODER 4.2 SE, CO US","38.7969","-104.1652","1848.0","2008",,,,,"        10","N",,,,,"4.5"," ,N,0417, ","1.70"," ,N,0811, ",,,,,"10.61"," ,N","25.2"," ,N",,,,,,
"USS0007M33S","RED MOUNTAIN PASS, CO US","37.89","-107.71","3413.8","2008","0",,"      238",,,,"-21","T,0116, ","105"," ,T,0411, ",,,"1.40"," ,T,1011,+","72","T,0731, ","11304","0","49.55"," ,T",,,"33.9","T","45.4","T","22.3","T"
"US1COCF0020","MAYSVILLE 2.2 NE, CO US","38.5432444","-106.1923972","2567.9","2008",,,,,"        30","N",,,,,"10.2"," ,N,1209, ","0.95"," ,N,0724, ",,,,,"15.49"," ,N","94.4"," ,N",,,,,,
"USS0007M21S","MIDDLE CREEK, CO US","37.62","-107.03","3429.0","2008","0",,,,,,"-25","T,0116, ",,,,,"3.50"," ,T,1011, ","70","T,0801, ","11488","4","43.84"," ,T",,,"33.1","T","45.0","T","21.2","T"
"USS0006J15S","ELK RIVER, CO US","40.85","-106.97","2651.8","2008","13",,,,,,"-12","T,0117, ",,,,,"0.70"," ,T,0214,+","83","T,0801, ","9637","0","34.33"," ,T",,,"38.3","T","49.0","T","27.6","T"
"USS0006K24S","COPPER MOUNTAIN, CO US","39.49","-106.17","3215.6","2008","0",,,,,,"-18","T,1227, ",,,,,"0.80"," ,T,0816,+","76","T,0720, ","11359","8","32.26"," ,T",,,"33.6","T","46.5","T","20.8","T"
"US1COAD0082","WESTMINSTER 0.8 ESE, CO US","39.878193","-105.036363","1688.0","2008",,,,,"        19","N",,,,,"5.5"," ,N,1209, ","1.33"," ,N,0816, ",,,,,"15.19"," ,N","52.6"," ,N",,,,,,
"US1COBO0165","BOULDER 1.8 ESE, CO US","40.0124","-105.2307","1605.1","2008",,,,,"        21","N",,,,,"8.8"," ,N,1209, ","1.35"," ,N,0912, ",,,,,"13.39"," ,N","56.5"," ,N",,,,,,
"USS0006J03S","COLUMBINE, CO US","40.39","-106.6","2792.0","2008","0",,,,,,"-10","T,0116, ",,,,,"1.20"," ,T,0225, ","80","T,0801, ","10344","7","38.23"," ,T",,,"36.4","T","47.9","T","24.8","T"
"US1COBO0042","BOULDER 3.5 S, CO US","39.9707","-105.2505","1681.9","2008",,,,,"        21","N",,,,,"9.0"," ,N,1209, ","1.30"," ,N,0912, ",,,,,"15.72"," ,N","59.7"," ,N",,,,,,
"USS0006J27S","NEVER SUMMER, CO US","40.4","-105.96","3133.3","2008","0",,,,,,"-23","T,0117, ",,,,,"1.20"," ,T,0911, ","75","T,0801, ","12165","3","35.11"," ,T",,,"31.4","T","42.9","T","19.8","T"
"US1COAD0087","BRIGHTON 1.7 ESE, CO US","39.9752","-104.7909","1544.1","2008",,,,,"         1","N",,,,,"3.5"," ,N,1209, ","2.28"," ,N,0807, ",,,,,"11.56"," ,N","4.0"," ,N",,,,,,
"USS0005J41S","LAKE ELDORA, CO US","39.94","-105.59","2956.6","2008","13",,,,,,"-7","T,0117, ",,,,,"1.20"," ,T,0816, ","81","T,0801, ","9474","2","29.83"," ,T",,,"38.7","T","48.3","T","29.1","T"
"USC00051186","CABIN CREEK, CO US","39.6552","-105.7088","3054.1","2008","0",,"      143",,"        42","0","-13","0,0117, ","27"," ,0,0317, ","10.0"," ,0,0515, ","1.21"," ,0,1012, ","78","0,0802, ","10423","4","24.17"," ,0","163.0"," ,0","35.9","0","47.1","0","24.7","0"
"US1COJF0010","DENVER 5.5 WSW, CO US","39.7191","-105.0888","1669.7","2008",,,,,"        19","N",,,,,"6.7"," ,N,1209, ","1.20"," ,N,0817, ",,,,,"12.18"," ,N","56.9"," ,N",,,,,,
"USC00055427","MATHESON 8 SE, CO US","39.1288","-103.8455","1777.0","2008",,,,,,,,,,,,,,,,,,,,,,,,,,,,
"USC00051060","BUCKHORN MOUNTAIN 1 E, CO US","40.6158","-105.2969","2255.5","2008","252",,"       73",,"        26","0","-10","0,0122, ","9"," ,0,1205, ","7.1"," ,0,1204, ","2.04"," ,0,0606, ","94","0,0802, ","7622","6","18.82"," ,0","106.0"," ,0","44.3","0","56.1","0","32.4","0"
"USS0006K12S","MIDDLE FORK CAMP, CO US","39.8","-106.03","2724.9","2008","0",,,,,,"-25","T,0101, ",,,,,"1.00"," ,T,0816, ","83","T,0801,+","10471","1","31.20"," ,T",,,"35.9","T","51.7","T","20.1","T"
"USS0007M35S","CASCADE NUMBER 2, CO US","37.66","-107.8","2718.8","2008","29",,,,,,"-13","T,0117, ",,,,,"3.00"," ,T,0831, ","92","T,0628, ","7732","5","36.63"," ,T",,,"44.3","T","59.3","T","29.3","T"
"USC00053006","FORT COLLINS 4 E, CO US","40.5756","-105.0236","1499.6","2008","518",,"       56",,"         8","0","-14","0,1215, ","7"," ,0,0102,+","3.8"," ,0,0316, ","2.02"," ,0,0409, ","99","0,0801,+","6472","4","14.12"," ,0","24.0"," ,0","48.6","0","62.8","0","34.4","0"
"USC00053005","FORT COLLINS, CO US","40.5763","-105.0857","1525.2","2008",,,,,,,,,,,,,,,,,,,,,,,,,,,,
"USC00053489","GRAND JUNCTION 6 ESE, CO US","39.0422","-108.4663","1450.8","2008","1221",,"       42",,"         9","0","1","0,1227, ","3"," ,0,1223,+","3.3"," ,0,0107, ","0.89"," ,0,1128, ","100","0,0802,+","5775","5","7.55"," ,0","21.7"," ,0","52.6","0","65.6","0","39.6","0"
"US1COPH0005","HOLYOKE 2 NW, CO US","40.6011","-102.342","1146.0","2008",,,,,,,,,,,,,"1.83"," ,N,0707, ",,,,,"19.03"," ,N",,,,,,,,
"USC00053246","GATEWAY 1 ENE, CO US","38.68778","-108.9609","1423.7","2008","1060",,,,"        11","0","1","0,0117, ",,,"9.0"," ,0,0203, ","0.78"," ,0,0410, ","102","0,0719, ","5377","5","9.73"," ,0","33.3"," ,0","53.3","0","68.8","0","37.8","0"
"USC00058931","WESTCLIFFE, CO US","38.13137","-105.466","2399.7","2008","25",,"      101",,"        20","0","-24","0,0117, ","14"," ,0,0109,+","8.3"," ,0,0302, ","1.20"," ,0,0707, ","88","0,0802, ","8430","5","12.78"," ,0","70.2"," ,0","42.1","0","58.4","0","25.8","0"
"USC00055422","MASSADONA 3 E, CO US","40.2844","-108.605","1871.5","2008",,,"      113",,"        29","0",,,"20"," ,0,0207,+","6.5"," ,0,1214, ","0.80"," ,0,1214, ","98","0,0803,+",,,"13.34"," ,0","67.1"," ,0",,,"59.1","0",,
"USR0000CDEV","DEVIL MOUNTAIN COLORADO, CO US","37.2269","-107.3047","2243.3","2008","420",,,,,,"-5","U,0117, ",,,,,,,"95","U,0731, ","6317","3",,,,,"49.1","U","63.5","U","34.6","U"
"US1COYU0062","VERNON 3.6 NNE, CO US","39.97743","-102.250747","1164.0","2008",,,,,"         5","N",,,,,"4.4"," ,N,0205, ","2.82"," ,N,0807, ",,,,,"20.84"," ,N","17.0"," ,N",,,,,,
"US1COEP0012","COLORADO SPRINGS 18.7 N, CO US","39.0988","-104.7629","2265.0","2008",,,"      132",,"        35","N",,,"16"," ,N,1201, ","11.0"," ,N,1201, ","1.93"," ,N,0704, ",,,,,"20.25"," ,N","122.9"," ,N",,,,,,
"US1COAD0094","WESTMINSTER 3.9 S, CO US","39.8261","-105.0414","1609.0","2008",,,,,,,,,,,,,,,,,,,"11.74"," ,N",,,,,,,,
"USS0008M02S","MANCOS, CO US","37.43","-108.17","3048.0","2008","3",,,,,,"-6","T,1227, ",,,,,"1.70"," ,T,0105, ","74","T,0823,+","8876","2","33.04"," ,T",,,"40.9","T","49.1","T","32.8","T"
"USS0005J40S","WILLOW PARK, CO US","40.43","-105.73","3261.4","2008","0",,,,,,"-15","T,0116, ",,,,,"1.10"," ,T,0605, ","74","T,0802, ","11718","2","37.81"," ,T",,,"32.7","T","43.0","T","22.4","T"
"USS0006J20S","RAWAH, CO US","40.71","-106.01","2749.3","2008",,,,,,,,,,,,,"0.90"," ,T,1130, ",,,,,"29.59"," ,T",,,,,,,,
"USC00054242","IDALIA, CO US","39.7033","-102.2939","1208.5","2008",,,"       45",,"         9","0",,,"4"," ,0,0104,+","2.0"," ,0,0412,+",,,,,,,"20.04"," ,0","12.6"," ,0",,,,,,
"USC00056306","PAONIA 1 SW, CO US","38.85234","-107.62249","1701.1","2008","607",,"       73",,"        22","0","-2","0,0118,+","11"," ,0,1225,+","6.0"," ,0,1223, ","1.84"," ,0,0807, ","96","0,0802,+","6447","9","11.53"," ,0","53.8"," ,0","49.1","0","63.5","0","34.6","0"
"USC00057515","SEDGWICK 5 S, CO US","40.8658","-102.51615","1218.0","2008",,,,,,,,,,,,,,,,,,,,,,,,,,,,
"USC00052184","DEL NORTE 3 ENE, CO US","37.69099","-106.30791","2391.2","2008","0",,"      111",,"        17","0","-24","0,0117, ","19"," ,0,0303,+","9.7"," ,0,1209, ","1.18"," ,0,0808, ","82","0,0802,+","9827","3","9.29"," ,0","64.5"," ,0","38.1","0","54.3","0","21.9","0"
"USC00057510","SEDALIA 4 SSE, CO US","39.38559","-104.94537","1830.9","2008",,,,,"        23","0",,,,,"11.0"," ,0,1201, ","1.22"," ,0,0816, ",,,,,"13.11"," ,0","81.9"," ,0",,,,,,
"USC00053038","FORT MORGAN, CO US","40.25694","-103.86987","1333.8","2008","615",,"       75",,"        14","0","-25","0,1215, ","10"," ,0,0122,+","3.0"," ,0,1214, ","1.53"," ,0,0726, ","101","0,0803,+","7041","8","13.44"," ,0","24.2"," ,0","47.4","0","62.8","0","32.1","0"
"US1COJF0040","GOLDEN 0.7 NW, CO US","39.7611","-105.2297","1761.7","2008",,,"       63",,"        22","N",,,"11"," ,N,1209, ","11.4"," ,N,1209, ","1.41"," ,N,0817, ",,,,,"14.79"," ,N","77.2"," ,N",,,,,,
"USR0000CDEM","DEMAREE COLORADO, CO US","39.46","-108.88","2181.5","2008","682",,,,,,"-2","U,0117, ",,,,,,,"94","U,0801, ","7015","3",,,,,"47.6","U","58.3","U","36.9","U"
"USR0000CBAI","BAILEY COLORADO, CO US","39.3794","-105.3394","2420.1","2008","228",,,,,,"-10","U,0117, ",,,,,,,"93","U,0801, ","7080","5",,,,,"45.8","U","59.4","U","32.2","U"
"USR0000CCCI","COLORADO CITY COLORADO, CO US","37.9478","-104.8692","1886.7","2008","605",,,,,,"-6","U,0117, ",,,,,,,"101","U,0802, ","5499","2",,,,,"51.3","U","65.7","U","37.1","U"
"US1COLP0016","HESPERUS 5.7 SW, CO US","37.2141","-108.0916","2283.9","2008",,,,,"        30","N",,,,,"15.3"," ,N,0204, ","1.59"," ,N,0106, ",,,,,"17.17"," ,N","125.8"," ,N",,,,,,
"USR0000CLUJ","LUJAN COLORADO, CO US","38.2544","-106.5678","3399.7","2008",,,,,,,,,,,,,,,,,"10606","5",,,,,,,,,,
"USC00053387","GOLDEN 3 SW, CO US","39.7197","-105.2471","2272.3","2008",,,"      118",,"        27","0","-6","0,1214,+","12"," ,0,0205, ","10.0"," ,0,1208, ","1.34"," ,0,0816, ",,,,,"20.01"," ,0","115.4"," ,0",,,,,"34.0","0"
"US1COJF0276","ASPEN SPRINGS 4.9 ESE, CO US","39.81431","-105.39451","2648.1","2008",,,,,"        32","N",,,,,"9.0"," ,N,0303, ","1.01"," ,N,0912, ",,,,,"18.82"," ,N","107.4"," ,N",,,,,,
"USC00055446","MAYBELL, CO US","40.5158","-108.0947","1811.7","2008",,,"      121",,"        26","0",,,"20"," ,0,0304,+","8.5"," ,0,0502, ","0.72"," ,0,1214, ",,,,,"13.63"," ,0","80.4"," ,0",,,,,,
"USC00055327","MANCOS 1 SW, CO US","37.335","-108.3161","2102.2","2008","182",,"       98",,"        30","0","-19","0,0117, ","16"," ,0,0206,+","13.0"," ,0,1216, ","1.10"," ,0,0726, ","92","0,0802,+","7476","3","15.91"," ,0","104.9"," ,0","44.8","0","61.1","0","28.4","0"
"USS0006K30S","KILN, CO US","39.32","-106.61","2926.1","2008","0",,,,,,"-22","T,0101, ",,,,,"0.80"," ,T,0806,+","80","T,0720, ","10598","7","31.01"," ,T",,,"35.2","T","49.5","T","20.9","T"
"US1COAR0163","AURORA 1.4 SE, CO US","39.6847","-104.7949","1708.1","2008",,,,,"        16","N",,,,,"4.7"," ,N,1209, ","1.58"," ,N,0817, ",,,,,"18.01"," ,N","45.9"," ,N",,,,,,
"USR0000CSAN","SANBORN PARK COLORADO, CO US","38.1917","-108.2167","2417.1","2008","129",,,,,,"-11","U,0117, ",,,,,,,"91","U,0731, ","7827","5",,,,,"44.5","U","58.8","U","30.1","U"
"US1COAR0043","DENVER 9.4 S, CO US","39.6025","-104.9762","1676.4","2008",,,,,"        17","N",,,,,"5.9"," ,N,1209, ","1.09"," ,N,0817, ",,,,,"13.11"," ,N","44.7"," ,N",,,,,,
"USC00053261","GEORGETOWN, CO US","39.7052","-105.6996","2596.9","2008",,,,,,,,,,,,,,,,,,,,,,,,,,,,
"USR0000CSAL","SALTER COLORADO, CO US","37.6511","-108.5364","2484.1","2008","27",,,,,,"-9","U,0117, ",,,,,,,"87","U,0719, ","8230","2",,,,,"42.6","U","55.4","U","29.7","U"
"US1COJF0157","EVERGREEN 4.2 SSE, CO US","39.5795","-105.2789","2378.0","2008",,,,,"        33","N",,,,,"12.5"," ,N,0303, ","1.30"," ,N,0817, ",,,,,"16.81"," ,N","117.0"," ,N",,,,,,
"USC00058839","WATERDALE, CO US","40.4256","-105.2103","1594.1","2008","570",,"       35",,"         7","0","-20","0,1215, ","4"," ,0,1214,+","3.7"," ,0,1204, ","1.45"," ,0,0816, ","103","0,0802, ","6113","9","13.97"," ,0","15.7"," ,0","49.2","0","64.5","0","33.9","0"
"US1COJF0271","PINE 3.6 NNW, CO US","39.470833","-105.345587","2481.1","2008",,,,,"        32","N",,,,,"9.5"," ,N,0303, ","0.97"," ,N,0912, ",,,,,"13.48"," ,N","103.8"," ,N",,,,,,
"USC00055322","MANASSA, CO US","37.1712","-105.94013","2345.4","2008","42",,,,"        19","0","-23","0,0117, ",,,"4.0"," ,0,0205, ","1.20"," ,0,0721, ","87","0,0802, ","8521","2","6.42"," ,0","38.0"," ,0","41.8","0","58.0","0","25.7","0"
"USC00053146","FRUITA, CO US","39.14449","-108.728","1371.0","2008",,,,,"        10","0",,,,,"5.0"," ,0,1223,+",,,,,,,,,"29.3"," ,0",,,,,,
"US1COEP0037","COLORADO SPRINGS 5.7 WNW, CO US","38.905232","-104.849076","2012.9","2008",,,,,"        21","N",,,,,"4.4"," ,N,0323, ","1.55"," ,N,0912, ",,,,,"13.90"," ,N","56.8"," ,N",,,,,,
"US1COBO0072","BOULDER 1.3 NW, CO US","40.0242","-105.2689","1638.9","2008",,,,,"        17","N",,,,,"8.0"," ,N,1209, ","1.29"," ,N,0816, ",,,,,"14.25"," ,N","52.7"," ,N",,,,,,
"USS0005J10S","LAKE IRENE, CO US","40.41","-105.82","3261.4","2008","0",,"      349",,,,"-18","T,0117, ","92"," ,T,0411,+",,,"0.90"," ,T,0330, ","74","T,0801, ","11526","5","37.61"," ,T",,,"32.4","T","43.2","T","21.7","T"
"US1COAD0076","THORNTON 5.4 NNE, CO US","39.9417","-104.9353","1616.0","2008",,,,,"        10","N",,,,,"4.5"," ,N,1209, ",,,,,,,"11.45"," ,N","25.7"," ,N",,,,,,
"USC00054388","JOHN MARTIN DAM, CO US","38.0634","-102.9298","1162.5","2008","1285",,,,"         3","0","-4","0,0118,+",,,"3.0"," ,0,0205, ","1.89"," ,0,0703, ","111","0,0804, ","5354","4","9.82"," ,0","6.9"," ,0","54.0","0","70.3","0","37.7","0"
"USC00055236","LOVELAND 2 N, CO US","40.435","-105.085","1548.4","2008","420",,"       51",,"        14","0","-21","0,1216, ","7"," ,0,0101, ","4.2"," ,0,0317, ","1.11"," ,0,0816, ","101","0,0802, ","6660","0","11.47"," ,0","32.6"," ,0","47.7","0","64.0","0","31.3","0"
"USC00056205","OURAY NUMBER 2, CO US","38.0263","-107.6725","2352.4","2008","101",,"      127",,"        62","0","-8","0,0117, ","25"," ,0,1209, ","27.6"," ,0,1209, ","1.37"," ,0,1209, ","87","0,0803,+","7927","8","25.73"," ,0","276.9"," ,0","43.6","0","55.9","0","31.4","0"
"USC00057656","SILVERTON, CO US","37.8088","-107.6633","2830.1","2008",,,,,,,,,,,,,,,,,,,,,,,,,,,,
"USS0006K43S","ROUGH AND TUMBLE, CO US","39.03","-106.08","3157.7","2008","0",,,,,,"-13","T,1215, ",,,,,"1.50"," ,T,1011, ","79","T,0801, ","10279","7","21.41"," ,T",,,"36.6","T","47.6","T","25.7","T"
"USS0008M10S","COLUMBUS BASIN, CO US","37.44","-108.02","3287.3","2008","0",,,,,,"-13","T,0116, ",,,,,"2.90"," ,T,0831, ","72","T,0731, ","10496","0","49.94"," ,T",,,"36.3","T","45.4","T","27.2","T"
"USC00056320","PARADOX 2 N, CO US","38.3897","-108.9494","1660.2","2008","732",,"       71",,"        16","0","-5","0,0118,+","15"," ,0,1225, ","6.0"," ,0,1225, ","0.84"," ,0,0809, ","104","0,0802, ","6528","7","11.13"," ,0","46.9"," ,0","49.3","0","66.6","0","32.0","0"
"USC00058860","WAVERLY 1 W, CO US","37.42914","-106.03076","2317.1","2008","2",,"       90",,"        11","0","-32","0,0117, ","12"," ,0,0205, ","6.0"," ,0,0205, ","0.48"," ,0,1111, ","85","0,0803, ","9858","7","4.91"," ,0","35.4"," ,0","37.7","0","55.5","0","19.9","0"
"US1COEP0158","COLORADO SPRINGS 2.7 WSW, CO US","38.8161","-104.8645","1914.1","2008",,,,,,,,,,,,,"1.90"," ,N,0912, ",,,,,"13.71"," ,N",,,,,,,,
"US1COJF0063","GOLDEN 4.8 NW, CO US","39.7866","-105.2811","2293.0","2008",,,,,"        27","N",,,,,"9.8"," ,N,1209, ","1.24"," ,N,0817, ",,,,,"15.35"," ,N","87.7"," ,N",,,,,,
"USC00056323","PARKER, CO US","39.5144","-104.7502","1799.5","2008","481",,"       59",,"        18","0","-14","0,1215, ","7"," ,0,0410,+","6.5"," ,0,0410, ","1.55"," ,0,0816, ","100","0,0801, ","6187","5","12.67"," ,0","53.2"," ,0","49.0","0","66.1","0","31.9","0"
"USC00058501","TWIN LAKES RESERVOIR, CO US","39.09419","-106.35064","2815.1","2008",,,,,,,"-21","0,0316, ",,,,,"0.50"," ,0,0225, ","83","0,0722, ",,,"9.73"," ,0",,,"36.4","0","50.7","0","22.0","0"
"US1COLR0093","WINDSOR 3.4 SW, CO US","40.443","-104.948","1516.1","2008",,,,,"        10","N",,,,,"3.5"," ,N,0317, ","1.31"," ,N,0816, ",,,,,"12.56"," ,N","26.4"," ,N",,,,,,
"US1COEP0068","COLORADO SPRINGS 5.8 ENE, CO US","38.872","-104.726167","1976.9","2008",,,,,,,,,,,,,"3.44"," ,N,0912, ",,,,,"13.29"," ,N",,,,,,,,
"USS0007K11S","SCHOFIELD PASS, CO US","39.02","-107.05","3261.4","2008",,,,,,,,,,,,,"2.80"," ,T,0105, ",,,"11344","3","62.27"," ,T",,,,,,,,
"US1COEP0064","COLORADO SPRINGS 2.1 NW, CO US","38.849677","-104.853693","1887.9","2008",,,,,"        21","N",,,,,"5.0"," ,N,0323, ","1.82"," ,N,0410, ",,,,,"13.48"," ,N","48.7"," ,N",,,,,,
"USC00050909","BRECKENRIDGE, CO US","39.48637","-106.04314","2925.5","2008",,,"      199",,"        71","0",,,"56"," ,0,0323,+","9.0"," ,0,0417,+","1.26"," ,0,0912, ",,,,,"23.07"," ,0","213.7"," ,0",,,,,,
"US1COAD0040","NORTHGLENN .84 WSW, CO US","39.8798","-105.0013","1674.9","2008",,,,,,,,,,,,,,,,,,,"12.30"," ,N",,,,,,,,
"USC00054135","HOURGLASS RESERVOIR, CO US","40.583","-105.632","2901.7","2008",,,"      188",,"        60","0",,,"41"," ,0,0411, ","8.0"," ,0,0411,+","1.04"," ,0,0912, ",,,"10107","9","20.65"," ,0","144.0"," ,0",,,,,,
"USC00058613","VERNON 4 ENE, CO US","39.97694","-102.25178","1164.6","2008",,,"       58",,"        14","0",,,"9"," ,0,0206, ","6.0"," ,0,0411, ","4.00"," ,0,0807, ",,,,,"20.14"," ,0","36.7"," ,0",,,,,,
"USC00052196","DELTA 3 E, CO US","38.7538","-108.0277","1532.2","2008","761",,"       23",,"         5","0","-1","0,0118,+","2"," ,0,1219,+","1.8"," ,0,1216, ","0.90"," ,0,1226, ","102","0,0802, ","6139","8","6.02"," ,0","9.1"," ,0","50.2","0","66.5","0","34.0","0"
"USC00054254","IGNACIO 6 ESE, CO US","37.0855","-107.5333","1995.8","2008","305",,"       89",,"        19","0","-12","0,1228,+","23"," ,0,0204, ","14.6"," ,0,0204, ","1.50"," ,0,0204, ","94","0,0801, ","7316","5","14.24"," ,0","75.8"," ,0","45.4","0","62.1","0","28.6","0"
"USS0006K44S","MCCOY PARK, CO US","39.6","-106.54","2889.5","2008","4",,,,,,"-12","T,0117,+",,,,,"1.10"," ,T,0816,+","79","T,0801, ","9196","7","32.94"," ,T",,,"39.6","T","50.0","T","29.1","T"
"US1COJF0179","LAKEWOOD 2.2 ESE, CO US","39.68353","-105.07579","1681.0","2008",,,,,"        21","N",,,,,"5.5"," ,N,0205, ","1.40"," ,N,0817, ",,,,,"13.76"," ,N","41.3"," ,N",,,,,,
"US1COJF0290","WHEAT RIDGE 2.8 WSW, CO US","39.756366","-105.146817","1696.5","2008",,,,,"        17","N",,,,,"7.6"," ,N,1209, ","1.19"," ,N,0817, ",,,,,"11.77"," ,N","50.9"," ,N",,,,,,
"USS0007J04S","CROSHO, CO US","40.17","-107.06","2773.7","2008","2",,,,,,"-14","T,0117, ",,,,,"0.90"," ,T,0410, ","80","T,0801, ","9802","4","28.52"," ,T",,,"37.8","T","49.7","T","25.8","T"
"US1COJF0051","EVERGREEN 5.3 S, CO US","39.5561","-105.3114","2436.9","2008",,,,,"        34","N",,,,,"10.5"," ,N,0417, ","1.89"," ,N,0809, ",,,,,"17.86"," ,N","114.4"," ,N",,,,,,
"US1COBO0092","NEDERLAND .47 ESE, CO US","39.9588","-105.5026","2541.1","2008",,,,,"        43","N",,,,,"8.7"," ,N,0303, ","1.20"," ,N,0912, ",,,,,"20.13"," ,N","150.6"," ,N",,,,,,
"US1COLK0010","LEADVILLE 6.3 S, CO US","39.1601","-106.2816","2959.0","2008",,,,,,,,,,,,,"0.90"," ,N,0410, ",,,,,"13.24"," ,N",,,,,,,,
"US1COLP0022","DURANGO 0.8 SSW, CO US","37.2736","-107.8749","2019.0","2008",,,,,"        27","N",,,,,"16.6"," ,N,0204, ",,,,,,,,,"124.6"," ,N",,,,,,
"USR0000CTAY","TAYLOR PARK COLORADO, CO US","38.9078","-106.6017","3173.0","2008","0",,,,,,"-18","U,0117, ",,,,,,,"83","U,0720, ","10896","2",,,,,"35.2","U","48.5","U","21.9","U"
"USS0007J03S","BEAR RIVER, CO US","40.06","-107.01","2767.6","2008","0",,,,,,"-19","T,0117, ",,,,,"0.80"," ,T,0722,+","79","T,0801,+","10521","3","25.88"," ,T",,,"36.0","T","48.2","T","23.8","T"
"USS0007K12S","BISON LAKE, CO US","39.76","-107.36","3316.2","2008","0",,,,,,"-16","T,0116, ",,,,,"1.50"," ,T,1218, ","70","T,0802, ","12044","2","45.91"," ,T",,,"31.7","T","40.1","T","23.3","T"
"US1COGL0013","BLACK HAWK 3.8 E, CO US","39.79605","-105.419233","2734.7","2008",,,"       92",,"        32","N",,,"12"," ,N,0303, ","12.1"," ,N,0303, ","1.07"," ,N,0912, ",,,,,"15.67"," ,N","113.6"," ,N",,,,,,
"USS0007M30S","SLUMGULLION, CO US","37.99","-107.2","3486.9","2008","0",,"      268",,,,"-19","T,0116, ","68"," ,T,0411, ",,,"0.70"," ,T,1218,+","75","T,0801, ","11220","3","23.72"," ,T",,,"34.2","T","44.6","T","23.8","T"
"US1COEP0055","MONUMENT 2.9 N, CO US","39.1125","-104.859","2214.1","2008",,,,,"        37","N",,,,,"11.2"," ,N,1201, ","1.39"," ,N,0817, ",,,,,"16.16"," ,N","117.2"," ,N",,,,,,
"US1COAR0068","BUCKLEY AFB 10 SSE, CO US","39.5689","-104.71","1822.1","2008",,,,,"        24","N",,,,,"7.2"," ,N,0303, ","2.08"," ,N,0817, ",,,,,"19.80"," ,N","87.9"," ,N",,,,,,
"USC00054380","JOES, CO US","39.6552","-102.68043","1303.0","2008",,,,,"        15","0",,,,,"7.0"," ,0,0205, ","2.07"," ,0,0807, ","112","0,0802, ",,,"14.65"," ,0","33.0"," ,0",,,"65.3","0",,
"US1COEP0050","COLORADO SPRINGS 3.7 N, CO US","38.9167","-104.76512","2067.2","2008",,,,,"        12","N",,,,,"6.0"," ,N,1130, ","1.01"," ,N,0815, ",,,,,"9.97"," ,N","33.3"," ,N",,,,,,
"US1COYU0024","LIBERTY 5.5 NW, CO US","39.7041","-102.708","1289.0","2008",,,,,"         7","N",,,,,"3.0"," ,N,0317, ","1.50"," ,N,0807, ",,,,,"19.08"," ,N","17.0"," ,N",,,,,,
"USS0008K04S","MESA LAKES, CO US","39.06","-108.06","3048.0","2008","0",,,,,,"-15","T,0116, ",,,,,"1.70"," ,T,1222, ","75","T,0801, ","10510","7","38.64"," ,T",,,"36.0","T","46.0","T","26.0","T"
"US1COAD0051","NORTHGLENN 3.8 NNE, CO US","39.9364","-104.9562","1610.0","2008",,,,,"        15","N",,,,,"5.6"," ,N,1209, ","1.55"," ,N,0807, ",,,,,"11.91"," ,N","47.3"," ,N",,,,,,
"USS0006H22S","WHISKEY PARK, WY US","41.0","-106.91","2728.0","2008","0",,,,,,"-12","T,0116, ",,,,,"1.20"," ,T,0111, ","79","T,0801, ","10503","8","47.74"," ,T",,,"35.6","T","47.0","T","24.2","T"
"USC00055934","NEW RAYMER 21 N, CO US","40.9319","-103.8678","1578.9","2008","250",,"       64",,"        14","0","-22","0,1215, ","10"," ,0,0102,+","7.0"," ,0,0410, ","2.44"," ,0,0703, ","97","0,0803,+","8365","3","16.80"," ,0","35.6"," ,0","42.7","0","57.1","0","28.3","0"
"US1COLR0225","DRAKE 3.0 NNE, CO US","40.47","-105.3092","2058.0","2008",,,,,"         5","N",,,,,"5.5"," ,N,0205, ","1.38"," ,N,0606, ",,,,,"15.41"," ,N","16.2"," ,N",,,,,,
"US1COLR0468","LOV 1.2 W, CO US","40.4154","-105.1114","1555.1","2008",,,,,"        10","N",,,,,"6.0"," ,N,1214, ","1.15"," ,N,0816, ",,,,,"10.94"," ,N","29.4"," ,N",,,,,,
"US1CODN0076","DENVER 6.7 SSW, CO US","39.6676","-104.9664","1641.0","2008",,,,,"        18","N",,,,,"6.3"," ,N,1209, ","1.57"," ,N,0817, ",,,,,"12.96"," ,N","46.9"," ,N",,,,,,
"USC00051458","CENTER 4 SSW, CO US","37.70667","-106.14444","2338.7","2008","13",,,,"        12","0","-27","0,0119, ",,,"8.0"," ,0,1218,+","0.35"," ,0,0807, ","87","0,0802, ","9186","6","4.38"," ,0","51.0"," ,0","39.7","0","56.3","0","23.1","0"
"USC00054726","LA JUNTA 20 S, CO US","37.75144","-103.47671","1283.2","2008",,,"        9",,"         7","0",,,"9"," ,0,1210, ","9.0"," ,0,1210, ","1.52"," ,0,1012, ",,,,,"13.14"," ,0","27.2"," ,0",,,,,,
"USC00059058","WILD HORSE 6 N, CO US","38.90264","-103.0192","1418.5","2008",,,,,,,,,,,,,,,,,,,,,,,,,,,,
"USC00050128","ALAMOSA 1 E, CO US","37.4702","-105.8569","2298.2","2008","34",,"       90",,"        13","0","-32","0,0117, ","8"," ,0,0209,+","4.7"," ,0,0205, ","0.40"," ,0,1111, ","89","0,0801, ","9261","1","5.36"," ,0","33.0"," ,0","39.6","0","58.4","0","20.8","0"
"US1CODN0074","DENVER 6.0 W, CO US","39.7603","-105.0499","1662.1","2008",,,,,,,,,,,,,"1.17"," ,N,0817, ",,,,,"12.46"," ,N",,,,,,,,
"USC00054603","KIT CARSON, CO US","38.76261","-102.79962","1311.2","2008","839",,"       15",,"         3","0","-13","0,0101, ","6"," ,0,0206,+","6.3"," ,0,0205, ","2.47"," ,0,1012, ","105","0,0712, ","6033","7","19.85"," ,0","13.8"," ,0","50.1","0","67.0","0","33.2","0"
"USC00054724","LA JUNTA, CO US","37.98236","-103.54397","1246.3","2008",,,,,"         7","0",,,,,"6.3"," ,0,0206, ","2.54"," ,0,1012, ",,,"5229","0","15.09"," ,0","31.4"," ,0",,,,,,
"US1COFM0041","COTOPAXI 5.0 SE, CO US","38.3131","-105.6298","2253.1","2008",,,,,"        17","N",,,,,"12.3"," ,N,1209, ","1.26"," ,N,1209, ",,,,,"12.56"," ,N","72.4"," ,N",,,,,,
"US1COLA0033","AGUILAR 7.2 WSW, CO US","37.3593","-104.7734","2200.0","2008",,,,,"        21","N",,,,,"14.6"," ,N,1209, ","1.03"," ,N,0816, ",,,,,"17.22"," ,N","88.8"," ,N",,,,,,
"US1COLR0340","FCL 2.55 NE, CO US","40.6068","-105.0634","1517.0","2008",,,,,"         9","N",,,,,"5.4"," ,N,1204, ","1.68"," ,N,0815, ",,,,,"13.85"," ,N","21.3"," ,N",,,,,,
"USR0000CCOC","CORRAL CREEK COLORADO, CO US","39.64","-105.4647","2502.4","2008","41",,,,,,"-12","U,0116, ",,,,,,,"92","U,0801, ","7971","2",,,,,"42.7","U","56.2","U","29.2","U"
"USW00024015","AKRON WASHINGTON CO AIRPORT, CO US","40.16667","-103.21667","1421.3","2008","724",,,,,,"-15","W,1215, ",,,,,"2.75"," ,W,0806, ","105","W,0802, ","6468","5","15.65"," ,W",,,"49.4","W","62.4","W","36.3","W"
"USC00059060","WILD HORSE 11 SSE, CO US","38.6675","-102.99361","1336.5","2008",,,,,,,,,,,,,,,,,,,,,,,,,,,,
"US1COFM0050","PENROSE 2.3 NNW, CO US","38.46221","-105.027701","1709.9","2008",,,,,"        12","N",,,,,"4.3"," ,N,0108, ","0.80"," ,N,0809, ",,,,,"9.11"," ,N","32.6"," ,N",,,,,,
"USR0000CLAD","LADORE COLORADO, CO US","40.7392","-108.8347","1798.3","2008","683",,,,,,"-12","U,0122, ",,,,,,,"98","U,0725, ","7238","1",,,,,"47.4","U","60.8","U","34.0","U"
"US1COWE0043","GREELEY 10.5 SSE, CO US","40.2917","-104.6394","1438.0","2008",,,,,"         8","N",,,,,"3.4"," ,N,1204, ","2.09"," ,N,0807, ",,,,,"14.17"," ,N","20.5"," ,N",,,,,,
"USC00054606","KIT CARSON 9 NNE, CO US","38.8867","-102.7232","1324.7","2008","816",,"       16",,"         6","0","-7","0,1215, ","6"," ,0,0206,+","3.0"," ,0,0101, ","4.20"," ,0,0807, ","105","0,0802, ","6070","5","19.35"," ,0","15.4"," ,0","50.0","0","66.3","0","33.7","0"
"USR0000CMCC","MCCLURE PASS COLORADO, CO US","39.1267","-107.2847","2748.7","2008","85",,,,,,"-8","U,0117,+",,,,,,,"90","U,0720, ","8902","8",,,,,"41.1","U","52.5","U","29.8","U"
"USR0000CCOP","COPPER GULCH COLORADO, CO US","38.3139","-105.4844","2365.2","2008","122",,,,,,"-24","U,0117, ",,,,,,,"95","U,0802, ","7407","2",,,,,"44.9","U","61.9","U","27.8","U"
"US1COMR0081","HILLROSE 2.5 SSW, CO US","40.29305","-103.54646","1285.0","2008",,,,,"        13","N",,,,,"3.0"," ,N,1219,+","1.24"," ,N,0807, ",,,,,"12.74"," ,N","25.5"," ,N",,,,,,
"USR0000CWWC","WILLOW CREEK COLORADO, CO US","40.3517","-106.2153","2962.7","2008",,,,,,,,,,,,,,,,,"9919","7",,,,,,,,,,
"US1COMR0084","BRUSH 0.3 E, CO US","40.256506","-103.627294","1293.9","2008",,,,,"         1","N",,,,,"1.7"," ,N,0110, ","2.38"," ,N,0726, ",,,,,"15.35"," ,N","1.7"," ,N",,,,,,
"USR0000CCOT","COTTONWOOD BASIN COLORADO, CO US","38.5731","-108.2778","2200.7","2008","446",,,,,,"-6","U,0117, ",,,,,,,"94","U,0731, ","7198","7",,,,,"46.9","U","59.1","U","34.7","U"
"USR0000CSOD","SODA CREEK COLORADO, CO US","39.56","-105.9864","2926.1","2008","0",,,,,,"-15","U,0117, ",,,,,,,"82","U,0801, ","10371","7",,,,,"36.2","U","49.8","U","22.7","U"
"US1COSA0002","CRESTONE 1.2 SSE, CO US","37.9802","-105.689","2464.3","2008",,,,,"        18","N",,,,,"11.1"," ,N,1209, ","0.85"," ,N,1209, ",,,,,"9.97"," ,N","64.1"," ,N",,,,,,
"USR0000CEST","ESTES PARK COLORADO, CO US","40.3667","-105.55","2383.5","2008","83",,,,,,"-7","U,1204, ",,,,,,,"92","U,0802, ","7783","9",,,,,"43.3","U","56.4","U","30.2","U"
"US1COMR0083","BRUSH 7.3 SSE, CO US","40.15391","-103.602386","1311.9","2008",,,,,"        10","N",,,,,"3.8"," ,N,1219, ","2.32"," ,N,0605, ",,,,,"15.64"," ,N","29.1"," ,N",,,,,,
"USC00051681","COAL CREEK CANYON, CO US","39.8958","-105.3847","2728.0","2008","16",,"      157",,"        38","0","-13","0,0116, ","34"," ,0,0302, ","13.0"," ,0,0302, ","1.01"," ,0,0816, ","84","0,0705, ","9383","7","22.51"," ,0","152.5"," ,0","38.9","0","50.3","0","27.6","0"
"USC00053867","HAYDEN, CO US","40.4926","-107.2548","1971.1","2008","231",,"      135",,"        54","0","-16","0,0117, ","37"," ,0,0208,+","8.8"," ,0,0109, ","0.68"," ,0,0501, ","95","0,0801, ","8304","6","17.52"," ,0","141.7"," ,0","43.0","0","57.5","0","28.5","0"
"USC00054834","LAS ANIMAS, CO US","38.0635","-103.2152","1185.7","2008","1148",,,,"         5","0","-6","0,0206, ",,,"3.0"," ,0,0118, ","2.25"," ,0,1011, ","107","0,0802,+","5174","4","14.37"," ,0","9.7"," ,0","54.1","0","70.3","0","37.8","0"
"US1COGR0045","KREMMLING 1.1 WNW, CO US","40.060125","-106.396202","2232.4","2008",,,,,,,,,,,,,,,,,,,"11.64"," ,N",,,,,,,,
"USC00051443","CEDAREDGE 3 E, CO US","38.90435","-107.89125","2084.2","2008","531",,,,,,"-2","0,0117, ",,,,,,,"92","0,0803,+","7013","4","10.97"," ,0",,,"47.6","0","58.9","0","36.3","0"
"USC00051564","CHEYENNE WELLS 2 NE, CO US","38.85753","-102.3329","1281.1","2008",,,"        8",,"         9","0",,,"4"," ,0,0102,+","4.0"," ,0,1204, ","2.13"," ,0,0807, ",,,,,"16.40"," ,0","16.0"," ,0",,,,,,
"USR0000CBLA","BLACK CANYON COLORADO, CO US","38.5428","-107.6869","2609.1","2008","106",,,,,,"-8","U,0117, ",,,,,,,"90","U,0801, ","8158","5",,,,,"43.3","U","56.6","U","30.1","U"
"USC00053500","GRAND LAKE 6 SSW, CO US","40.1849","-105.8666","2526.2","2008","1",,,,,,"-29","0,0117, ",,,,,"1.53"," ,0,0912, ","86","0,0801, ","10308","5","14.11"," ,0",,,"36.0","0","51.8","0","20.3","0"
"USC00053742","HAMILTON 1 SSE, CO US","40.358","-107.608","1944.6","2008",,,,,,,,,,,,,,,,,,,,,,,,,,,,
"USR0000CFTC","FORT CARSON COLORADO, CO US","38.6586","-104.8539","2042.2","2008","595",,,,,,"-9","U,1215, ",,,,,,,"99","U,0802, ","5665","5",,,,,"50.6","U","62.8","U","38.6","U"
"USR0000CBLU","BLUE PARK COLORADO, CO US","37.7978","-106.7792","3139.4","2008","0",,,,,,"-20","U,0101, ",,,,,,,"77","U,0828,+","10669","2",,,,,"35.5","U","50.3","U","20.7","U"
"US1COKC0050","LIBERTY 15 SW, CO US","39.4915","-102.8229","1382.0","2008",,,,,"        19","N",,,,,"6.0"," ,N,0417, ","2.17"," ,N,0807, ",,,,,"21.62"," ,N","45.5"," ,N",,,,,,
"USC00053629","GROSS RESERVOIR, CO US","39.9363","-105.3502","2429.3","2008","108",,"      123",,"        28","0","-9","0,1215, ","9"," ,0,0101, ","8.0"," ,0,1209,+","1.22"," ,0,0912, ","91","0,0803,+","7871","7","16.15"," ,0","66.7"," ,0","43.5","0","57.2","0","29.8","0"
"USC00059297","YUMA 10 NW, CO US","40.2094","-102.8116","1252.7","2008",,,"       65",,"         6","0",,,"14"," ,0,0102,+","6.6"," ,0,1111, ","1.37"," ,0,0605, ",,,,,"18.61"," ,0","27.6"," ,0",,,,,,
"US1COWE0176","GREELEY 3.8 W, CO US","40.3942","-104.7695","1499.9","2008",,,,,"        13","N",,,,,"4.6"," ,N,1214, ","3.21"," ,N,0807, ",,,,,"17.04"," ,N","35.5"," ,N",,,,,,
"USC00059295","YUMA, CO US","40.12367","-102.72171","1260.0","2008",,,,,,,,,,,,,,,,,,,,,,,,,,,,
"USR0000CBLK","BLACK MOUNTAIN COLORADO, CO US","37.8617","-105.2842","2737.7","2008","115",,,,,,"-7","U,0117,+",,,,,,,"88","U,0803, ","7574","0",,,,,"44.2","U","55.1","U","33.3","U"
"US1COSA0011","LA GARITA 5.6 WSW, CO US","37.7922","-106.3409","2514.9","2008",,,,,,,,,,,,,"1.17"," ,N,0808, ",,,,,"9.94"," ,N",,,,,,,,
"USR0000CERN","ERNIE GULCH COLORADO, CO US","40.0458","-108.2","2133.6","2008","462",,,,,,"-3","U,0117, ",,,,,,,"94","U,0720, ","7702","9",,,,,"45.6","U","56.0","U","35.1","U"
"USC00052441","DURANGO, CO US","37.2911","-107.8563","2060.8","2008","304",,,,"        27","0","-9","0,0117, ",,,"15.0"," ,0,1215, ","1.23"," ,0,0106, ","90","0,0808,+","6477","2","22.73"," ,0","124.3"," ,0","47.5","0","62.8","0","32.3","0"
"USC00053530","GRANT, CO US","39.4607","-105.6785","2644.1","2008","2",,"      138",,"        39","0","-13","0,1215,+","19"," ,0,0318,+","7.5"," ,0,0513, ","1.40"," ,0,1012, ","84","0,0802, ","9581","6","14.34"," ,0","103.0"," ,0","38.6","0","52.6","0","24.6","0"
"USC00050263","ANTERO RESERVOIR, CO US","38.99305","-105.89145","2724.6","2008","0",,"      127",,"        27","0","-33","0,0117, ","11"," ,0,0317, ","6.0"," ,0,0417,+","0.78"," ,0,1012, ","84","0,0801,+","11470","2","10.30"," ,0","72.0"," ,0","33.6","0","51.7","0","15.5","0"
"US1COCH0027","WILD HORSE 0.5 NW, CO US","38.82504","-103.0054","1364.0","2008",,,,,"         4","N",,,,,"4.0"," ,N,0205, ","1.96"," ,N,0729, ",,,,,"16.12"," ,N","10.7"," ,N",,,,,,
"USR0000CGUN","GUNSIGHT COLORADO, CO US","40.2092","-106.3292","2566.4","2008","27",,,,,,"-10","U,0117, ",,,,,,,"88","U,0801, ","9270","0",,,,,"39.1","U","51.3","U","26.9","U"
"US1COLA0018","TRINIDAD 9 NE, CO US","37.2528","-104.3743","1756.0","2008",,,,,"        16","N",,,,,"7.0"," ,N,0205, ","1.58"," ,N,1012, ",,,,,"14.74"," ,N","42.3"," ,N",,,,,,
"US1COLR0567","LA PORTE 10.0 NNW, CO US","40.7643","-105.1988","1858.1","2008",,,,,"         9","N",,,,,"8.5"," ,N,1204, ","1.28"," ,N,0816, ",,,,,"14.63"," ,N","33.2"," ,N",,,,,,
"US1COLR0688","FORT COLLINS 4.8 NW, CO US","40.607749","-105.127465","1549.9","2008",,,,,,,,,,,,,"1.40"," ,N,0816, ",,,,,"12.96"," ,N",,,,,,,,
"US1COFM0021","COTOPAXI 4.8 SSE, CO US","38.3086","-105.6417","2275.9","2008",,,,,,,,,,,,,"1.02"," ,N,1209, ",,,,,"10.95"," ,N",,,,,,,,
"US1COLG0002","STERLING 1.8 NW, CO US","40.6421","-103.2376","1218.9","2008",,,,,"        13","N",,,,,"2.6"," ,N,0411, ","1.17"," ,N,0726, ",,,,,"11.41"," ,N","27.9"," ,N",,,,,,
"US1COLR0320","FCL 1.7 SW, CO US","40.557","-105.1086","1545.9","2008",,,,,"        10","N",,,,,"6.5"," ,N,1204, ","1.41"," ,N,0816, ",,,,,"14.47"," ,N","27.4"," ,N",,,,,,
"USC00052446","EADS, CO US","38.4759","-102.777","1283.8","2008","951",,"       15",,"         4","0","-4","0,1215,+","4"," ,0,0206, ","2.0"," ,0,0206,+","3.10"," ,0,1012, ","105","0,0802, ","5819","9","13.37"," ,0","7.5"," ,0","51.7","0","67.2","0","36.2","0"
"US1COLA0012","MODEL 7.9 ESE, CO US","37.3369","-104.1084","1651.1","2008",,,,,"        12","N",,,,,"7.6"," ,N,0205, ","1.70"," ,N,1012, ",,,,,"15.86"," ,N","34.8"," ,N",,,,,,
"USC00054742","LAKE GEORGE 8 SW, CO US","38.9075","-105.4705","2606.0","2008","12",,"      102",,"        19","0","-30","0,0117, ","7"," ,0,0316,+","6.0"," ,0,0313, ","1.26"," ,0,0912, ","85","0,0803,+","10220","0","8.56"," ,0","40.0"," ,0","37.5","0","53.0","0","21.9","0"
"US1COFM0023","CANON CITY .49 NNE, CO US","38.4458","-105.2356","1631.0","2008",,,,,"         9","N",,,,,"7.0"," ,N,0303, ","0.79"," ,N,0817, ",,,,,"9.57"," ,N","34.9"," ,N",,,,,,
"USC00053652","GUFFEY 9 SE, CO US","38.6866","-105.3925","2717.3","2008",,,"      106",,"        20","0",,,"10"," ,0,0208,+","5.9"," ,0,0205, ","1.25"," ,0,0817, ",,,,,"15.96"," ,0","59.0"," ,0",,,,,,
"USR0000CDOW","DOWD JUNCTION COLORADO, CO US","39.6269","-106.4517","2742.6","2008","4",,,,,,"-12","U,0117, ",,,,,,,"83","U,0731,+","9818","3",,,,,"37.9","U","49.9","U","26.0","U"
"US1COWE0025","GREELEY 4.4 W, CO US","40.4108","-104.7914","1463.0","2008",,,,,"        12","N",,,,,"3.5"," ,N,1214, ","2.81"," ,N,0807, ",,,,,"16.52"," ,N","26.3"," ,N",,,,,,
"US1COWE0262","JOHNSTOWN 2.1 W, CO US","40.33","-104.95","1503.0","2008",,,,,"        13","N",,,,,"4.0"," ,N,0410, ","1.48"," ,N,0807, ",,,,,"12.59"," ,N","30.3"," ,N",,,,,,
"USC00050372","ASPEN 1 SW, CO US","39.1852","-106.838","2491.7","2008","38",,"      165",,"        65","0","-11","0,0117, ","56"," ,0,0314, ","12.0"," ,0,1223,+","1.15"," ,0,0106, ","87","0,0802, ","8430","2","27.32"," ,0","248.2"," ,0","41.0","0","55.3","0","26.8","0"
"US1CODN0049","DENVER 3.2 SSE, CO US","39.72","-104.9175","1643.2","2008",,,,,"        15","N",,,,,"6.2"," ,N,1209, ","2.66"," ,N,0809, ",,,,,"14.78"," ,N","32.6"," ,N",,,,,,
"USS0006K40S","BRUMLEY, CO US","39.09","-106.54","3230.9","2008","0",,,,,,"-21","T,1215, ",,,,,"0.80"," ,T,0513,+","76","T,0721, ","11317","2","29.00"," ,T",,,"33.4","T","46.9","T","20.0","T"
"USC00052790","EVERGREEN, CO US","39.63793","-105.31504","2134.2","2008","99",,"       94",,"        24","0","-14","0,0117, ","9"," ,0,0303, ","7.0"," ,0,1209, ","1.15"," ,0,0912, ","93","0,0802, ",,,"14.15"," ,0","67.6"," ,0","43.7","0","59.6","0","27.8","0"
"US1COEG0006","BASALT 5.8 E, CO US","39.3793","-106.9249","2183.6","2008",,,,,"        43","N",,,,,"14.3"," ,N,0204, ","0.85"," ,N,1214, ",,,,,"20.00"," ,N","176.0"," ,N",,,,,,
"US1COFM0030","CANON CITY 2.2 SE, CO US","38.4216","-105.207","1642.0","2008",,,,,"        12","N",,,,,"4.3"," ,N,0108, ","0.82"," ,N,0606, ",,,,,"8.29"," ,N","34.4"," ,N",,,,,,
"USC00054734","LAKE CITY, CO US","38.0247","-107.3147","2641.7","2008","11",,,,"        37","0","-25","0,0117, ",,,"9.5"," ,0,0106, ",,,"87","0,0801,+","9240","2",,,"103.8"," ,0","39.0","0","54.6","0","23.4","0"
"USS0005M08S","TRINCHERA, CO US","37.35","-105.23","3310.1","2008","0",,,,,,"-14","T,0117, ",,,,,"1.20"," ,T,1011, ","77","T,0802, ","9939","8","22.02"," ,T",,,"37.4","T","47.4","T","27.5","T"
"US1COLR0691","LOVELAND 1.8 W, CO US","40.415171","-105.104804","1547.2","2008",,,,,"        10","N",,,,,"4.5"," ,N,1214, ","1.10"," ,N,0912, ",,,,,"11.15"," ,N","27.4"," ,N",,,,,,
"USC00055706","MONTE VISTA 2 W, CO US","37.58114","-106.18656","2345.4","2008","2",,"      109",,"        18","0","-27","0,0101, ","18"," ,0,0205, ","8.0"," ,0,0303, ","0.95"," ,0,0729, ","85","0,0803, ","9500","9","8.59"," ,0","48.1"," ,0","38.1","0","56.1","0","20.0","0"
"USW00093037","COLORADO SPRINGS MUNICIPAL AIRPORT, CO US","38.81","-104.6884","1884.0","2008","538",,"       17",,"        13","0","-8","0,1215, ","2"," ,0,0417,+","3.9"," ,0,0316,+","4.29"," ,0,0911, ","99","0,0801, ","6308","4","12.97"," ,0","33.3"," ,0","49.1","0","63.2","0","35.1","0"
"USC00054762","LAKEWOOD, CO US","39.7488","-105.1205","1719.1","2008",,,,,,,,,,,,,,,,,,,,,,,,,,,,
"USC00052342","DOVE CREEK, CO US","37.7672","-108.9119","2091.8","2008","533",,"      100",,"        22","0","-7","0,0118, ","21"," ,0,0223, ","8.3"," ,0,0106, ","1.03"," ,0,0106, ","98","0,0621,+","7063","7","14.22"," ,0","76.9"," ,0","47.2","0","60.0","0","34.4","0"
"USC00055732","MONUMENT 1 SSE, CO US","39.0809","-104.866","2113.8","2008",,,"       65",,"        28","0",,,"13"," ,0,1130, ","13.0"," ,0,1130, ",,,,,,,,,"80.8"," ,0",,,,,,
"USR0000CHUM","HUNTSMAN MESA COLORADO, CO US","38.3319","-107.0889","2865.1","2008","21",,,,,,"-12","U,0117, ",,,,,,,"85","U,0731, ","8648","4",,,,,"40.9","U","53.1","U","28.7","U"
"US1COFM0009","CANON CITY .84 SE, CO US","38.4298","-105.2314","1644.1","2008",,,,,,,,,,,,,"1.05"," ,N,0817, ",,,,,"7.87"," ,N",,,,,,,,
"US1COLR0025","FORT COLLINS 3.7 SW, CO US","40.5287","-105.1194","1576.1","2008",,,,,"        10","N",,,,,"6.2"," ,N,1204, ","1.26"," ,N,0816, ",,,,,"14.87"," ,N","34.4"," ,N",,,,,,
"USC00051018","BROWNS PARK STORE, CO US","40.7838","-108.8538","1696.8","2008",,,,,"        14","0",,,,,"8.5"," ,0,0331, ",,,,,"7629","3",,,"34.6"," ,0",,,,,,
"US1COPU0021","PUEBLO 1.9 E, CO US","38.2948","-104.5848","1481.9","2008",,,,,"         6","N",,,,,"3.3"," ,N,0317, ","1.15"," ,N,0817, ",,,,,"9.78"," ,N","14.3"," ,N",,,,,,
"US1COBA0009","CAMPO 7.8 NE, CO US","37.178184","-102.470756","1278.9","2008",,,,,"         3","N",,,,,"1.7"," ,N,0119, ","2.43"," ,N,0719, ",,,,,"16.47"," ,N","5.2"," ,N",,,,,,
"US1COBA0006","SPRINGFIELD 0.7 NNW, CO US","37.4169166","-102.619433","1328.9","2008",,,,,"         3","N",,,,,"2.0"," ,N,0205, ","1.35"," ,N,0317, ",,,,,"10.06"," ,N","4.0"," ,N",,,,,,
"US1COFM0002","WILLIAMSBURG .63 WNW, CO US","38.3841","-105.162","1648.1","2008",,,,,"        10","N",,,,,"4.0"," ,N,1209,+","0.55"," ,N,0817, ",,,,,"7.29"," ,N","30.4"," ,N",,,,,,
"US1COLR0022","FORT COLLINS 0.9 SE, CO US","40.5691","-105.0682","1523.1","2008",,,,,"        10","N",,,,,"8.6"," ,N,1204, ","1.43"," ,N,0816, ",,,,,"13.57"," ,N","28.2"," ,N",,,,,,
"USC00052223","DENVER WATER DEPARTMENT, CO US","39.7294","-105.0083","1593.5","2008",,,,,,,,,,,,,,,,,,,,,,,,,,,,
"USC00053553","GREELEY UNC, CO US","40.4022","-104.6991","1437.1","2008","868",,"       67",,"         6","0","-13","0,1215, ","8"," ,0,0103,+","6.3"," ,0,1204, ",,,"105","0,0802,+","5497","0","16.80"," ,0","16.4"," ,0","52.2","0","68.6","0","35.9","0"
"US1COBA0012","SPRINGFIELD 0.5 SE, CO US","37.401538","-102.610936","1318.9","2008",,,,,"         8","N",,,,,"3.0"," ,N,0119, ","1.33"," ,N,0317, ",,,,,"12.08"," ,N","18.6"," ,N",,,,,,
"USR0000CRIF","RIFLE COLORADO, CO US","39.5122","-107.7492","1865.4","2008","668",,,,,,"-3","U,1227,+",,,,,,,"96","U,0801,+","6852","5",,,,,"48.5","U","61.3","U","35.7","U"
"USR0000CHUN","HUNTER CREEK COLORADO, CO US","39.7667","-108.3167","2231.1","2008","481",,,,,,"-5","U,0116, ",,,,,,,"95","U,0801,+","7533","2",,,,,"46.1","U","59.2","U","33.0","U"
"US1COME0024","MACK 5 NW, CO US","39.263019","-108.931904","1408.2","2008",,,,,"        12","N",,,,,"11.0"," ,N,0204, ","0.71"," ,N,0106, ",,,,,"10.17"," ,N","44.2"," ,N",,,,,,
"USR0000CWSC","WILLIS CREEK COLORADO, CO US","38.0039","-105.0564","2804.2","2008","35",,,,,,"-14","U,0116, ",,,,,,,"86","U,0802, ","8030","0",,,,,"42.1","U","54.6","U","29.5","U"
"USC00053541","GREAT SAND DUNES NATIONAL PARK AND PRESERVE, CO US","37.7332","-105.5119","2494.2","2008","117",,"      109",,"        11","0","-11","0,0119,+","8"," ,0,1223,+","7.6"," ,0,1128, ","0.93"," ,0,0826, ","88","0,0804,+","8231","7","11.17"," ,0","44.0"," ,0","42.9","0","55.5","0","30.3","0"
"USC00053662","GUNNISON 3 SW, CO US","38.5254","-106.9672","2323.2","2008","5",,"      122",,"        33","0","-38","0,0117, ","38"," ,0,0208, ","12.0"," ,0,0106, ","1.60"," ,0,0513, ","86","0,0802,+","11164","3","13.51"," ,0","104.9"," ,0","34.1","0","51.7","0","16.5","0"
"USC00051121","BURLINGTON, CO US","39.3062","-102.26085","1268.6","2008",,,,,,,,,,,,,,,,,,,,,,,,,,,,
"US1COAD0100","THORNTON 2.1 N, CO US","39.9222750546","-104.95539994","1598.4","2008",,,,,,,,,,,,,"1.44"," ,N,0807, ",,,,,"12.52"," ,N",,,,,,,,
"USC00055722","MONTROSE NUMBER 2, CO US","38.4858","-107.8791","1764.5","2008",,,,,"        13","0",,,,,"3.8"," ,0,1223, ","0.59"," ,0,0513, ",,,"6621","3","7.98"," ,0","32.7"," ,0",,,,,,
"USR0000CGRE","GREAT DIVIDE COLORADO, CO US","40.7578","-107.8533","2194.6","2008","344",,,,,,"-8","U,0117, ",,,,,,,"91","U,0801, ","8684","5",,,,,"42.4","U","53.0","U","31.9","U"
"US1COFM0019","CANON CITY 1.3 ENE, CO US","38.450718","-105.219189","1628.5","2008",,,,,"         8","N",,,,,"6.7"," ,N,1209, ","0.95"," ,N,1209, ",,,,,"8.40"," ,N","35.4"," ,N",,,,,,
"USC00056816","RALSTON RESERVOIR, CO US","39.8297","-105.2352","1798.3","2008","627",,"       45",,"        23","0","-14","0,1216,+","5"," ,0,1216,+","5.0"," ,0,1214,+","1.15"," ,0,0817, ","99","0,0802, ",,,"14.01"," ,0","45.4"," ,0","49.9","0","62.1","0","37.7","0"
"US1COLR0036","TIMNATH 4.1 NNE, CO US","40.587251","-104.963004","1534.1","2008",,,,,"         9","N",,,,,"4.5"," ,N,1204, ","1.45"," ,N,0410, ",,,,,"13.22"," ,N","22.8"," ,N",,,,,,
"USC00053307","GLADE PARK 17 W, CO US","38.9538","-109.0527","1927.3","2008","453",,"       96",,"        25","0","-12","0,1227, ","22"," ,0,0204, ","12.0"," ,0,0204, ","1.20"," ,0,0605, ","95","0,0802, ","7538","0","13.29"," ,0","79.1"," ,0","45.9","0","61.1","0","30.7","0"
"USR0000CPCG","PICKLE GULCH COLORADO, CO US","39.8744","-105.5164","2859.0","2008","39",,,,,,"-9","U,0116, ",,,,,,,"88","U,0801, ","9023","7",,,,,"40.2","U","51.5","U","28.9","U"
"US1COBA0019","DEORA 10.7 SW, CO US","37.483291","-103.072413","1475.8","2008",,,,,"        10","N",,,,,"3.0"," ,N,1209, ","2.14"," ,N,0913, ",,,,,"18.17"," ,N","20.0"," ,N",,,,,,
"USC00052213","DENVER 1 SW 7NEWS, CO US","39.7263","-104.985","1599.9","2008",,,"       25",,"        14","0",,,"4"," ,0,0205, ","4.5"," ,0,1209, ","1.81"," ,0,0809, ",,,,,"13.06"," ,0","35.5"," ,0",,,,,,
"US1COFM0014","COTOPAXI 4.9 SE, CO US","38.3137","-105.6306","2251.9","2008",,,,,"        13","N",,,,,"12.5"," ,N,1209, ","0.97"," ,N,1209, ",,,,,"9.85"," ,N","55.2"," ,N",,,,,,
"US1COPU0036","PUEBLO WEST 3.6 WSW, CO US","38.32","-104.8148","1524.0","2008",,,,,"         7","N",,,,,"4.5"," ,N,0205, ","1.30"," ,N,0816, ",,,,,"9.88"," ,N","18.2"," ,N",,,,,,
"US1COLR0273","FCL 2.2 NW, CO US","40.599849","-105.115094","1544.4","2008",,,"       49",,"        10","N",,,"6"," ,N,1205,+","6.2"," ,N,1204, ","1.58"," ,N,0816, ",,,,,"12.61"," ,N","29.9"," ,N",,,,,,
"US1COPU0041","PUEBLO WEST 2.3 WSW, CO US","38.3357","-104.7593","1553.0","2008",,,,,"         1","N",,,,,"4.0"," ,N,1215, ","0.82"," ,N,0816, ",,,,,"9.28"," ,N","4.0"," ,N",,,,,,
"USC00059096","WILLIAMS FORK DAM, CO US","40.0375","-106.2038","2322.0","2008","7",,"      152",,"        57","0","-23","0,0117, ","25"," ,0,0314, ","7.0"," ,0,0106, ","1.45"," ,0,0912, ","87","0,0802, ","10539","9","14.91"," ,0","111.9"," ,0","35.8","0","51.4","0","20.2","0"
"USR0000CPCY","PINION CANYON COLORADO, CO US","37.9056","-104.0556","1633.7","2008","992",,,,,,"-2","U,0116, ",,,,,,,"102","U,0803,+","4855","0",,,,,"54.0","U","68.4","U","39.7","U"
"USW00003016","RIFLE GARFIELD CO AIRPORT, CO US","39.52778","-107.71972","1683.1","2008",,,,,,,,,,,,,,,,,,,,,,,,,,,,
"USW00023067","LA JUNTA MUNICIPAL AIRPORT, CO US","38.04949","-103.51335","1278.3","2008","1199",,,,,,"-5","0,0206, ",,,,,"2.19"," ,0,1011, ","108","0,0802,+","5323","4","10.18"," ,0",,,"54.0","0","69.5","0","38.4","0"
"USW00003017","DENVER INTERNATIONAL AIRPORT, CO US","39.8328","-104.6575","1650.2","2008","807",,"       38",,"        11","0","-19","0,1215, ","5"," ,0,0101, ","3.6"," ,0,1204, ","1.29"," ,0,0806, ","104","0,0801, ","6119","7","10.21"," ,0","29.9"," ,0","50.3","0","64.7","0","35.9","0"
"USW00023066","GRAND JUNCTION WALKER FIELD, CO US","39.1342","-108.54","1480.7","2008","1178",,"       58",,"         6","0","-4","0,1227, ","6"," ,0,1224,+","5.1"," ,0,1222, ","0.82"," ,0,0831, ","102","0,0801, ","6205","5","7.28"," ,0","27.1"," ,0","51.5","0","64.7","0","38.2","0"
"USC00057936","STEAMBOAT SPRINGS, CO US","40.4883","-106.8233","2092.8","2008","43",,"      153",,,,"-15","0,0126,+","46"," ,0,0208, ",,,,,"90","0,0802, ",,,,,,,"38.6","0","53.5","0","23.6","0"
"USW00023061","ALAMOSA BERGMAN FIELD, CO US","37.4389","-105.8613","2296.1","2008","67",,"       89",,"        13","0","-32","0,0117, ","8"," ,0,0208,+","6.7"," ,0,0205, ","0.49"," ,0,1005, ","90","0,0731, ","9222","2","5.50"," ,0","32.5"," ,0","40.2","0","58.4","0","22.0","0"
"USW00093010","LIMON, CO US","39.275","-103.666","1638.0","2008","431",,,,,,"-14","W,0117, ",,,,,"1.28"," ,W,0806, ","102","W,0802, ","7246","7","12.51"," ,W",,,"46.5","W","63.2","W","29.8","W"
"US1COLR0247","ESTES PARK 3.3 SSW, CO US","40.3302","-105.5221","2467.1","2008",,,,,"        17","N",,,,,"7.5"," ,N,0331, ","1.15"," ,N,0605, ",,,,,"13.19"," ,N","53.0"," ,N",,,,,,
"USW00023062","DENVER STAPLETON, CO US","39.76746","-104.86948","1610.6","2008","691",,"       38",,"         9","0","-15","0,1215, ","5"," ,0,0101, ","3.1"," ,0,0205, ","1.46"," ,0,0817, ","102","0,0802, ","6197","9","10.84"," ,0","27.8"," ,0","49.7","0","64.1","0","35.2","0"
"USW00093013","MONTROSE REGIONAL AIRPORT, CO US","38.50583","-107.89889","1743.5","2008",,,,,,,,,,,,,,,,,,,,,,,,,,,,
"USC00054546","KIM 10 SSE, CO US","37.115","-103.2986","1602.3","2008","632",,"       14",,"         9","0","-8","0,0117, ","2"," ,0,1209,+","2.5"," ,0,1128, ","1.32"," ,0,0808, ","97","0,0801,+","5605","7","11.28"," ,0","15.4"," ,0","52.0","0","67.5","0","36.5","0"
"US1COLR0240","ESTES PARK 2.2 NE, CO US","40.4018","-105.4878","2368.9","2008",,,,,"        28","N",,,,,"9.3"," ,N,0331, ","1.22"," ,N,0605, ",,,,,"15.30"," ,N","77.8"," ,N",,,,,,
"USC00054664","KREMMLING, CO US","40.0576","-106.368","2273.8","2008","38",,"      121",,"        23","0","-22","0,0117,+","17"," ,0,0315, ","5.4"," ,0,0106, ","0.78"," ,0,0912, ","89","0,0802,+",,,"12.12"," ,0","63.6"," ,0","37.2","0","53.0","0","21.4","0"
"USW00003013","LAMAR MUNICIPAL AIRPORT, CO US","38.07178","-102.68747","1124.1","2008","1165",,,,,,"-6","W,0206,+",,,,,"0.95"," ,W,0814, ","109","W,0801, ","5621","9","9.46"," ,W",,,"53.1","W","69.8","W","36.4","W"
"US1COME0003","GRAND JUNCTION 8 NNW, CO US","39.177895","-108.61869","1448.1","2008",,,,,"         5","N",,,,,"8.0"," ,N,1223, ","0.75"," ,N,1128, ",,,,,"6.81"," ,N","20.2"," ,N",,,,,,
"US1COWE0187","HUDSON 4.8 WSW, CO US","40.044","-104.7254","1535.0","2008",,,,,"        11","N",,,,,"3.0"," ,N,1214,+","2.27"," ,N,0807, ",,,,,"11.80"," ,N","26.3"," ,N",,,,,,
"USW00093005","DURANGO LA PLATA CO AIRPORT, CO US","37.14306","-107.76028","2033.0","2008",,,,,,,,,,,,,"0.78"," ,W,0831, ",,,,,"10.13"," ,W",,,,,,,,
"USW00093009","LEADVILLE LAKE CO AIRPORT, CO US","39.22917","-106.31694","3027.3","2008",,,,,"        51","0","-21","0,1215, ",,,"10.0"," ,0,0513,+","0.64"," ,0,0912, ",,,,,"9.67"," ,0","165.4"," ,0",,,,,"20.3","0"
"US1CODL0008","HOTCHKISS 9.0 WNW, CO US","38.8511","-107.8753","1897.1","2008",,,,,"        18","N",,,,,"5.0"," ,N,1223, ","0.65"," ,N,0809, ",,,,,"9.20"," ,N","43.9"," ,N",,,,,,
"US1COSA0038","CENTER 1.2 NE, CO US","37.763611","-106.093333","2324.1","2008",,,,,"        11","N",,,,,"7.0"," ,N,1209, ","1.53"," ,N,0808, ",,,,,"7.82"," ,N","33.1"," ,N",,,,,,
"USC00055984","NORTHGLENN, CO US","39.8988","-105.0133","1648.1","2008","943",,"       29",,"        15","0","-17","0,1215, ","5"," ,0,0205, ","4.7"," ,0,0205, ","1.21"," ,0,0817, ","110","0,0802, ","5468","6","11.69"," ,0","31.7"," ,0","52.7","0","68.8","0","36.6","0"
"USC00056832","RANGELY 1 E, CO US","40.0889","-108.7727","1608.4","2008","637",,"       95",,"        16","0","-19","0,0116,+","18"," ,0,0210,+","5.4"," ,0,0301, ","0.67"," ,0,0901, ","100","0,0801, ","8428","0","8.07"," ,0","33.4"," ,0","44.4","0","60.0","0","28.7","0"
"USW00024046","CRAIG MOFFAT CO AIRPORT, CO US","40.49278","-107.52417","1886.7","2008",,,,,,,,,,,,,"0.52"," ,W,0901, ",,,,,"11.82"," ,W",,,,,,,,
"USC00054770","LAMAR, CO US","38.0936","-102.6306","1105.5","2008","1211",,"       12",,"        10","0","-5","0,0118,+","4"," ,0,0206, ","2.7"," ,0,0205, ","2.01"," ,0,0808, ","109","0,0802, ","5608","4","12.13"," ,0","17.1"," ,0","53.0","0","68.9","0","37.2","0"
"US1COJF0215","LITTLETON 6.2 WNW, CO US","39.6382","-105.1291","1715.1","2008",,,,,,,,,,,,,"1.75"," ,N,0817, ",,,,,"12.10"," ,N",,,,,,,,
"USR0000CCHE","CHEESEMAN COLORADO, CO US","39.1814","-105.2672","2286.0","2008",,,,,,,"-6","U,0117, ",,,,,,,"96","U,0902, ","6444","3",,,,,"47.9","U","61.5","U","34.4","U"
"US1COJF0212","LITTLETON 6.4 W, CO US","39.6082","-105.1371","1783.1","2008",,,,,"        20","N",,,,,"10.0"," ,N,1209, ","1.53"," ,N,0817, ",,,,,"15.17"," ,N","73.1"," ,N",,,,,,
"US1COLR0259","FCL 2.5 W, CO US","40.5857","-105.1317","1560.0","2008",,,,,"        10","N",,,,,"6.7"," ,N,1204, ","1.82"," ,N,0816, ",,,,,"13.94"," ,N","32.7"," ,N",,,,,,
"USC00054538","KIM 15 NNE, CO US","37.4536","-103.322","1581.9","2008","879",,"       30",,"        11","0","-12","0,0117, ","5"," ,0,1210,+","4.6"," ,0,1209, ",,,"104","0,0804, ","5478","3",,,"31.5"," ,0","52.3","0","68.2","0","36.3","0"
"USR0000CREF","RED FEATHER COLORADO, CO US","40.7981","-105.5722","2499.4","2008","49",,,,,,"-6","U,1204, ",,,,,,,"89","U,0801, ","8705","9",,,,,"40.8","U","53.6","U","28.0","U"
"US1COLR0255","FCL, CO US","40.5759","-105.0858","1527.0","2008",,,"       55",,"         9","N",,,"6"," ,N,0101, ","6.3"," ,N,1204, ","1.72"," ,N,0816, ",,,,,"13.31"," ,N","25.9"," ,N",,,,,,
"USR0000CRED","RED DEER COLORADO, CO US","38.8272","-106.2111","2682.2","2008","47",,,,,,"-7","U,0117,+",,,,,,,"88","U,0801,+","8154","8",,,,,"42.9","U","56.1","U","29.7","U"
"US1COLR0252","BELLVUE 1 NW, CO US","40.635","-105.1817","1599.0","2008",,,,,"         9","N",,,,,"6.5"," ,N,1204, ","1.24"," ,N,0816, ",,,,,"13.43"," ,N","26.5"," ,N",,,,,,
"USC00053446","GOULD 4 SE S F S P, CO US","40.5092","-106.0056","2743.2","2008","0",,"      191",,"        69","0","-30","0,0117, ","51"," ,0,0411, ","13.0"," ,0,0411, ","1.10"," ,0,0912, ","78","0,0803,+","12075","4","25.37"," ,0","223.3"," ,0","31.5","0","46.6","0","16.4","0"
"USC00051268","CAMPO 7 S, CO US","37.01029","-102.55367","1251.2","2008","1171",,,,"         8","0","-3","0,0117, ",,,"2.0"," ,0,1209,+","0.91"," ,0,0815, ","106","0,0603, ","5091","6","10.39"," ,0","9.9"," ,0","55.1","0","70.7","0","39.4","0"
"USC00054413","JULESBURG, CO US","40.9879","-102.2653","1059.8","2008",,,"       17",,"         9","0",,,"4"," ,0,1220,+","5.0"," ,0,1219, ","1.30"," ,0,1012, ",,,,,"18.27"," ,0","18.5"," ,0",,,,,,
"US1COLR0250","LIVERMORE 10.5 WSW, CO US","40.751","-105.4096","2268.9","2008",,,,,"        17","N",,,,,"4.0"," ,N,0410,+","1.92"," ,N,0523, ",,,,,"15.56"," ,N","44.4"," ,N",,,,,,
"US1COLR0251","STOVE PRAIRIE 2 WNW, CO US","40.6263","-105.3912","2357.9","2008",,,,,"        25","N",,,,,"6.2"," ,N,0205, ","1.93"," ,N,0605, ",,,,,"19.31"," ,N","85.1"," ,N",,,,,,
"US1COLR0372","FCL 2.1 S, CO US","40.5468","-105.0944","1545.9","2008",,,,,"         9","N",,,,,"6.5"," ,N,1204, ","1.62"," ,N,0816, ",,,,,"13.89"," ,N","28.6"," ,N",,,,,,
"USW00023070","TRINIDAD AIRPORT, CO US","37.2622","-104.3378","1749.9","2008","766",,,,,,"-4","0,0117,+",,,,,"0.83"," ,0,0810, ","99","0,0802, ","5314","4","9.35"," ,0",,,"52.3","0","68.0","0","36.6","0"
"US1CODL0015","DELTA 5.7 E, CO US","38.72977","-107.97015","1577.0","2008",,,,,"         8","N",,,,,"3.5"," ,N,0107, ","0.50"," ,N,0512, ",,,,,"4.02"," ,N","19.8"," ,N",,,,,,
"USC00058008","STRATTON, CO US","39.3047","-102.6002","1340.8","2008",,,,,,,,,,,,,,,,,,,"26.63"," ,0",,,,,,,,
"USS0005M03S","CULEBRA NUMBER 2, CO US","37.21","-105.2","3200.4","2008","0",,,,,,"-21","T,0117, ",,,,,"1.10"," ,T,0816,+","76","T,0802, ","10174","0","22.59"," ,T",,,"36.8","T","49.4","T","24.3","T"
"US1COLR0623","FORT COLLINS 5.4 WSW, CO US","40.518589","-105.158975","1724.9","2008",,,,,"        10","N",,,,,"5.0"," ,N,0317, ","1.65"," ,N,0816, ",,,,,"16.35"," ,N","36.7"," ,N",,,,,,
"US1COLR0500","LOV 3.8 S, CO US","40.3666","-105.0992","1549.9","2008",,,,,"         9","N",,,,,"4.6"," ,N,1214, ","1.23"," ,N,0816, ",,,,,"12.93"," ,N","26.4"," ,N",,,,,,
"US1CODG0126","CASTLE ROCK 0.3 NNW, CO US","39.383428","-104.853318","1919.0","2008",,,,,"        21","N",,,,,"12.0"," ,N,0303, ","1.32"," ,N,0817, ",,,,,"16.43"," ,N","57.3"," ,N",,,,,,
"USC00059213","WOODROW 6 NNE, CO US","40.075","-103.5677","1333.2","2008",,,"       53",,"        12","0",,,"8"," ,0,0101, ","8.2"," ,0,1111, ","1.07"," ,0,0807, ",,,,,"13.22"," ,0","36.0"," ,0",,,,,,
"US1COAM0011","ALAMOSA 6.9 NW, CO US","37.5363","-105.965509","2310.1","2008",,,,,"        10","N",,,,,"6.0"," ,N,0205, ","0.65"," ,N,0805, ",,,,,"5.94"," ,N","29.2"," ,N",,,,,,
"US1CODG0121","HIGHLANDS RANCH 2.7 SSE, CO US","39.518611","-104.949167","1851.1","2008",,,,,"        22","N",,,,,"7.9"," ,N,0303, ","1.52"," ,N,0817, ",,,,,"17.23"," ,N","72.6"," ,N",,,,,,
"US1COWE0203","LONGMONT 8.2 ESE, CO US","40.12","-104.96","1513.0","2008",,,,,"        11","N",,,,,"3.9"," ,N,1214, ","2.06"," ,N,0816, ",,,,,"10.44"," ,N","28.1"," ,N",,,,,,
"USS0005K09S","GRIZZLY PEAK, CO US","39.65","-105.87","3383.3","2008","0",,,,,,"-18","T,0117, ",,,,,"0.90"," ,T,1129,+","73","T,0801, ",,,"34.99"," ,T",,,"33.1","T","43.0","T","23.2","T"
"USW00094082","DINOSAUR 2 E, CO US","40.2446","-108.9677","1847.7","2008","825",,,,,,"-6","R,0117, ",,,,,"0.74"," ,R,0901, ","99","R,0801, ","7786","4","9.35"," ,R",,,"46.8","R","58.4","R","35.1","R"
"US1CODG0130","ROXBOROUGH PARK 1.7 NNW, CO US","39.46342","-105.088879","1822.1","2008",,,"       99",,"        27","N",,,"14"," ,N,1209, ","13.0"," ,N,1209, ","1.45"," ,N,0817, ",,,,,"17.82"," ,N","111.6"," ,N",,,,,,
"USC00052947","FLEMING 3 SW, CO US","40.6483","-102.8594","1297.2","2008","717",,"       51",,"         9","0","-16","0,1216,+","7"," ,0,0102,+","4.6"," ,0,0411, ","2.03"," ,0,0606, ","105","0,0803,+","6579","3","16.78"," ,0","27.2"," ,0","48.5","0","63.2","0","33.8","0"
"USC00051977","CRIPPLE CREEK 3 NNW, CO US","38.7955","-105.2004","2814.8","2008","27",,,,"        31","0","-11","0,0117, ",,,"7.0"," ,0,1022, ",,,"85","0,0802, ",,,"10.65"," ,0","78.7"," ,0","39.9","0","51.6","0","28.2","0"
"US1COME0064","GRAND JUNCTION 5.5 SW, CO US","39.039297","-108.634939","1509.1","2008",,,,,,,,,,,,,"0.84"," ,N,1128, ",,,,,"7.56"," ,N",,,,,,,,
"US1COLR0509","LOV 4.0 W, CO US","40.3926","-105.1587","1562.1","2008",,,,,"         8","N",,,,,"4.3"," ,N,0205, ","1.24"," ,N,0816, ",,,,,"12.59"," ,N","29.1"," ,N",,,,,,
"US1COMR0001","BRUSH 0.8 S, CO US","40.2469","-103.624","1296.9","2008",,,,,"        12","N",,,,,"4.1"," ,N,0410, ","2.12"," ,N,0703, ",,,,,"15.30"," ,N","28.1"," ,N",,,,,,
"USS0005M14S","WHISKEY CK, CO US","37.21","-105.12","3115.1","2008","0",,,,,,"-13","T,0116, ",,,,,"1.20"," ,T,0803, ","74","T,0802, ",,,"30.84"," ,T",,,"38.3","T","48.6","T","28.1","T"
"USW00003026","BURLINGTON CARSON AIRPORT, CO US","39.24472","-102.28417","1277.7","2008","762",,,,,,"-10","W,1215, ",,,,,"3.21"," ,W,1011, ","103","W,0801, ","6056","6","21.82"," ,W",,,"50.5","W","64.7","W","36.2","W"
"USW00094074","NUNN 7 NNE, CO US","40.8066","-104.7552","1642.9","2008","394",,,,,,"-16","R,1215, ",,,,,"1.72"," ,R,0815, ","102","R,0802,+","7243","0","12.02"," ,R",,,"46.3","R","61.4","R","31.1","R"
"USW00094075","BOULDER 14 W, CO US","40.0354","-105.5409","2995.6","2008","0",,,,,,"-13","R,0116, ",,,,,"1.40"," ,R,0816, ","78","R,0801, ","11131","7","30.87"," ,R",,,"34.0","R","44.4","R","23.6","R"
"US1COLR0758","FORT COLLINS 4.2 S, CO US","40.495523","-105.05669","1494.1","2008",,,,,,,,,,,,,"1.28"," ,N,0815, ",,,,,"14.18"," ,N",,,,,,,,
"US1COMZ0017","MANCOS 5.9 W, CO US","37.3305","-108.3991","2096.1","2008",,,,,"        31","N",,,,,"11.0"," ,N,0204, ","1.40"," ,N,0106, ",,,,,"18.89"," ,N","111.1"," ,N",,,,,,
"USW00003028","SPRINGFIELD COMANCHE NATIONAL GRASSLAND, CO US","37.28333","-102.61389","1335.9","2008","1035",,,,,,"-6","W,0117, ",,,,,"1.40"," ,W,0808, ","104","W,0801, ","5184","9","13.44"," ,W",,,"53.8","W","69.1","W","38.5","W"
"US1COLR0632","FORT COLLINS 4.8 SE, CO US","40.5321","-105.0253","1506.0","2008",,,,,"         9","N",,,,,"5.5"," ,N,1204, ","2.35"," ,N,0410, ",,,,,"16.46"," ,N","24.5"," ,N",,,,,,
"US1COLR0630","FORT COLLINS 9.6 SE, CO US","40.4765","-104.9685","1509.1","2008",,,,,"         9","N",,,,,"4.0"," ,N,1204, ","1.23"," ,N,0815, ",,,,,"13.48"," ,N","26.2"," ,N",,,,,,
"USC00050754","BLACK CANYON OF THE GUNNISON, CO US","38.5547","-107.6872","2484.4","2008","118",,"      157",,"        45","0","-15","0,0117, ","40"," ,0,0303, ","9.5"," ,0,1214,+","1.18"," ,0,0810, ","92","0,0731, ","7975","7","25.71"," ,0","163.5"," ,0","42.4","0","57.3","0","27.6","0"
"USC00051964","CRESTONE 2 SE, CO US","37.9806","-105.6897","2439.6","2008","96",,"      119",,"        20","0","-20","0,0117, ","13"," ,0,1208, ","10.9"," ,0,1208, ","0.82"," ,0,1208, ","91","0,0802, ","8736","2","9.94"," ,0","64.1"," ,0","41.6","0","57.9","0","25.4","0"
"USC00052932","FLAGLER 1 S, CO US","39.28135","-103.06207","1499.9","2008",,,,,"        10","0",,,,,"6.0"," ,0,0417, ","2.15"," ,0,0807, ","103","0,0802, ",,,"16.97"," ,0","33.5"," ,0",,,"65.1","0",,
"USR0000CPOR","PORCUPINE CREEK COLORADO, CO US","40.0978","-106.6464","2712.7","2008","0",,,,,,"-26","U,0101, ",,,,,,,"83","U,0731, ","11019","6",,,,,"34.1","U","50.2","U","18.0","U"
"USC00051609","CIMARRON, CO US","38.4432","-107.557","2100.1","2008","39",,,,"        39","0","-28","0,0101, ",,,"6.0"," ,0,1223,+","0.70"," ,0,1223,+","92","0,0801, ","8774","5","14.04"," ,0","130.5"," ,0","40.2","0","58.7","0","21.7","0"
"US1CODG0021","PARKER 1.3 WNW, CO US","39.5201","-104.7851","1788.0","2008",,,,,"        19","N",,,,,"7.2"," ,N,1209, ","1.18"," ,N,0817, ",,,,,"12.42"," ,N","53.5"," ,N",,,,,,
"USC00052816","FAIRPLAY S PARK RD, CO US","39.2219","-105.9936","3046.5","2008","0",,"      123",,"        28","0","-12","0,1215,+","12"," ,0,0318,+","8.0"," ,0,0513,+","0.75"," ,0,0629, ","81","0,0723,+","9961","1","14.72"," ,0","101.5"," ,0","37.1","0","48.8","0","25.4","0"
"USC00052934","FLATIRON RESERVOIR, CO US","40.3692","-105.2353","1677.6","2008",,,,,,,,,,,,,,,,,,,"13.66"," ,0","25.6"," ,0",,,,,,
"US1COLR0519","LOVELAND 7 SE, CO US","40.3748","-104.9708","1510.9","2008",,,,,"         8","N",,,,,"3.5"," ,N,0317, ","1.09"," ,N,0816, ",,,,,"11.48"," ,N","22.2"," ,N",,,,,,
"US1COLR0726","FORT COLLINS 3.2 W, CO US","40.562995","-105.12806","1563.9","2008",,,,,"         9","N",,,,,"6.8"," ,N,1204, ","1.42"," ,N,0807, ",,,,,"14.57"," ,N","28.8"," ,N",,,,,,
"USR0000CPNR","PINE RIDGE COLORADO, CO US","39.2603","-108.4072","2011.7","2008","580",,,,,,"-4","U,0117, ",,,,,,,"94","U,0801, ",,,,,,,"47.7","U","58.9","U","36.6","U"
"USC00050304","ARAPAHOE, CO US","38.8528","-102.1764","1225.3","2008",,,"       11",,"         6","0",,,"7"," ,0,0205, ","7.0"," ,0,0205, ","1.60"," ,0,0807, ",,,,,"16.77"," ,0","15.5"," ,0",,,,,,
"USC00052965","FLORISSANT FOSSIL BED, CO US","38.9127","-105.2849","2560.9","2008","0",,"      126",,"        22","0","-23","0,0117, ","13"," ,0,0208,+","7.0"," ,0,0314, ","0.86"," ,0,0605, ","88","0,0731, ",,,"9.87"," ,0","54.6"," ,0","38.6","0","56.2","0","20.9","0"
"USC00057296","RUSTIC 9 WSW, CO US","40.70082","-105.71193","2346.0","2008","62",,"       29",,"        34","0","-8","0,1215, ","11"," ,0,0412, ","8.0"," ,0,0410, ","0.75"," ,0,0816, ","90","0,0803, ","8760","7","11.21"," ,0","68.3"," ,0","40.7","0","53.7","0","27.8","0"
"US1CODG0029","CASTLE ROCK 6.5 SW, CO US","39.32389","-104.94959","1962.9","2008",,,,,"        29","N",,,,,"11.3"," ,N,1201, ","1.75"," ,N,0817, ",,,,,"17.19"," ,N","98.0"," ,N",,,,,,
"USC00051996","CROOK, CO US","40.86","-102.803","1130.5","2008","776",,"       43",,"         9","0","-17","0,1216, ","6"," ,0,0101, ","3.0"," ,0,1219,+","1.56"," ,0,0524, ","107","0,0803, ","6546","6","16.41"," ,0","19.0"," ,0","49.5","0","66.5","0","32.5","0"
"USR0000CCUC","CUCHARA COLORADO, CO US","37.0969","-104.9214","2533.8","2008","354",,,,,,"-4","U,0116, ",,,,,,,"94","U,0802, ","5938","0",,,,,"49.5","U","62.6","U","36.3","U"
"US1CODG0025","CASTLE PINES 2.2 NNE, CO US","39.46166","-104.89112","1980.0","2008",,,,,"        26","N",,,,,"8.0"," ,N,0303, ","1.40"," ,N,0817, ",,,,,"17.12"," ,N","88.3"," ,N",,,,,,
"US1CODG0030","FRANKTOWN 3.5 NE, CO US","39.4254","-104.7043","1951.0","2008",,,,,"        20","N",,,,,"4.8"," ,N,1209, ","1.86"," ,N,0817, ",,,,,"16.81"," ,N","53.3"," ,N",,,,,,
"US1COBR0013","BROOMFIELD 1.1 NE, CO US","39.939","-105.0826","1653.2","2008",,,"       39",,"        18","N",,,"6"," ,N,1209, ","6.7"," ,N,1209, ","1.30"," ,N,0817, ",,,,,"13.97"," ,N","50.7"," ,N",,,,,,
"USR0000CLGE","LAKE GEORGE COLORADO, CO US","38.9772","-105.3553","2281.4","2008","10",,,,,,"-31","U,0117, ",,,,,,,"91","U,0731, ","9034","8",,,,,"40.2","U","59.2","U","21.1","U"
"US1CODG0032","LITTLETON 7.7 ESE, CO US","39.5531","-104.8954","1790.1","2008",,,,,"        17","N",,,,,"6.1"," ,N,1209, ","1.39"," ,N,0817, ",,,,,"15.00"," ,N","52.6"," ,N",,,,,,
"USC00050306","ARAPAHOE 12 S, CO US","38.6841","-102.1614","1239.0","2008",,,,,,,,,,,,,,,,,,,,,,,,,,,,
"USS0005K06S","ARROW, CO US","39.92","-105.76","2950.5","2008","3",,,,,,"-10","T,0117, ",,,,,,,"78","T,0801, ",,,,,,,"37.4","T","46.9","T","27.9","T"
"USC00057167","ROCKY FORD 2 SE, CO US","38.03846","-103.69477","1271.0","2008","1144",,"       10",,"         7","0","-12","0,0206, ","5"," ,0,0205, ","5.5"," ,0,0205, ","1.60"," ,0,0830, ","107","0,0801, ","4904","4","11.14"," ,0","19.9"," ,0","55.2","0","73.6","0","36.8","0"
"USC00051743","COLLBRAN 1 WSW, CO US","39.2366","-107.9797","1831.5","2008","368",,"      100",,"        25","0","-17","0,0117, ","17"," ,0,0204, ","7.5"," ,0,0204, ","0.75"," ,0,0901, ","97","0,0802, ","7489","5","12.96"," ,0","78.2"," ,0","45.2","0","61.4","0","29.1","0"
"USC00057287","RUSH 1 N, CO US","38.8611","-104.094","1845.3","2008","454",,"       31",,"        15","0","-7","0,0117, ","6"," ,0,0417, ","8.0"," ,0,0417, ","1.33"," ,0,0811, ","98","0,0803,+","6612","2","12.44"," ,0","42.2"," ,0","47.6","0","62.4","0","32.8","0"
"USC00051620","CLARKVILLE 4 W, CO US","40.39644","-102.69662","1243.9","2008",,,,,"        14","0",,,,,"5.0"," ,0,1111, ",,,,,,,,,"28.4"," ,0",,,,,,
"US1CODG0041","FRANKTOWN 3.2 N, CO US","39.437","-104.7533","1869.0","2008",,,,,"        24","N",,,,,"6.0"," ,N,1130,+","1.36"," ,N,0816, ",,,,,"15.96"," ,N","68.2"," ,N",,,,,,
"USR0000CJAY","JAY COLORADO, CO US","38.8417","-107.7361","1889.8","2008","1102",,,,,,"0","U,0117, ",,,,,,,"104","U,0801, ","5690","4",,,,,"52.8","U","67.2","U","38.4","U"
"USW00093073","ASPEN PITKIN CO AIRPORT SARDY FIELD, CO US","39.23","-106.87056","2353.1","2008",,,,,,,,,,,,,"0.86"," ,W,0723, ",,,,,"14.73"," ,W",,,,,,,,
"US1COLR0546","BLV 4.0 NW, CO US","40.6754","-105.215","1631.9","2008",,,,,,,,,,,,,"1.83"," ,N,0807, ",,,,,"14.80"," ,N",,,,,,,,
"US1COKC0080","BURLINGTON 8.4 NNE, CO US","39.4166","-102.2036","1232.0","2008",,,,,"        14","N",,,,,"5.0"," ,N,0411, ","2.55"," ,N,1012, ",,,,,"19.35"," ,N","28.4"," ,N",,,,,,
"US1COLR0662","LOVELAND 2.0 SSE, CO US","40.3922","-105.05393","1513.0","2008",,,,,"         9","N",,,,,"3.7"," ,N,1214, ","1.34"," ,N,0816, ",,,,,"10.91"," ,N","17.1"," ,N",,,,,,
"USC00053951","HERMIT 8 SE, CO US","37.74933","-107.095","2727.7","2008",,,,,"        27","0",,,,,"12.0"," ,0,0215, ","0.71"," ,0,0128, ","84","0,0829,+","12157","7","11.64"," ,0","97.6"," ,0",,,"51.6","0",,
"USS0005M07S","APISHAPA, CO US","37.33","-105.07","3048.0","2008","1",,,,,,"-12","T,0116, ",,,,,"2.40"," ,T,0822, ","78","T,0802, ",,,"30.92"," ,T",,,"41.0","T","50.8","T","31.2","T"
"US1COWE0129","EATON 3.4 SE, CO US","40.4932","-104.6681","1446.0","2008",,,,,"         5","N",,,,,"4.0"," ,N,1204, ","2.51"," ,N,0816, ",,,,,"13.91"," ,N","13.5"," ,N",,,,,,
"USC00051772","COLORADO NATIONAL MONUMENT, CO US","39.1013","-108.7338","1762.0","2008",,,"       61",,"        16","0",,,"8"," ,0,0204, ","5.0"," ,0,0204, ","1.17"," ,0,0911, ",,,,,"10.73"," ,0","37.9"," ,0",,,,,,
"USR0000CJAC","JACKS CANYON COLORADO, CO US","38.7533","-108.5797","2334.8","2008","211",,,,,,"-12","U,0117, ",,,,,,,"92","U,0801, ","8023","2",,,,,"44.0","U","57.8","U","30.3","U"
"US1COWE0003","GREELEY 3.9 ENE, CO US","40.450468","-104.679875","1428.9","2008",,,,,"        10","N",,,,,"6.0"," ,N,1204, ","2.59"," ,N,0807, ",,,,,"15.02"," ,N","26.4"," ,N",,,,,,
"USC00051539","CHERAW 1 N, CO US","38.115","-103.51","1264.0","2008","911",,,,"         6","0","-11","0,0206, ",,,"3.1"," ,0,0205, ","1.68"," ,0,1012, ","104","0,0803,+","5818","5","13.17"," ,0","11.1"," ,0","51.6","0","68.4","0","34.8","0"
"USW00093069","CORTEZ MONTEZUMA CO AIRPORT, CO US","37.30694","-108.62639","1801.4","2008",,,,,,,,,,,,,"0.95"," ,W,0105, ",,,,,"11.42"," ,W",,,,,,,,
"US1COEL0046","KIOWA 12.7 ENE, CO US","39.4109","-104.2391","1869.0","2008",,,,,"        17","N",,,,,"7.0"," ,N,0502, ","1.25"," ,N,0807, ",,,,,"15.87"," ,N","63.9"," ,N",,,,,,
"USR0000CMES","MESA MOUNTAIN COLORADO, CO US","37.055","-107.7069","2249.4","2008","532",,,,,,"-5","U,0205, ",,,,,,,"93","U,0802,+","6296","8",,,,,"49.2","U","61.2","U","37.3","U"
"US1CODN0025","DENVER 2.1 ESE, CO US","39.7264","-104.9489","1645.9","2008",,,,,"        13","N",,,,,"4.5"," ,N,1209, ","1.90"," ,N,0809, ",,,,,"14.09"," ,N","36.9"," ,N",,,,,,
"USR0000CCRO","THE CROWN COLORADO, CO US","39.3528","-107.0931","2530.8","2008",,,,,,,,,,,,,,,"101","U,0704, ",,,,,,,,,"57.1","U",,
"US1COLR0316","FCL 1.5 N, CO US","40.5963","-105.0908","1524.0","2008",,,,,,,,,,,,,"1.63"," ,N,0816, ",,,,,"12.20"," ,N",,,,,,,,
"US1COLR0555","LIVERMORE 8.5 WSW, CO US","40.7335","-105.4052","2139.7","2008",,,,,,,,,,,,,"1.95"," ,N,0523, ",,,,,"15.07"," ,N",,,,,,,,
"USW00093067","DENVER CENTENNIAL AIRPORT, CO US","39.57028","-104.84889","1793.1","2008","636",,,,,,"-9","W,1215, ",,,,,"1.30"," ,W,0816, ","100","W,0801, ","6243","5","12.27"," ,W",,,"49.5","W","63.4","W","35.7","W"
"US1CODN0024","DENVER 1.8 E, CO US","39.7401","-104.9874","1610.0","2008",,,,,"        14","N",,,,,"5.0"," ,N,1209, ","1.60"," ,N,0817, ",,,,,"11.98"," ,N","33.4"," ,N",,,,,,
"US1COLR0311","FCL 2.3 NW, CO US","40.5999","-105.1175","1547.2","2008",,,,,"         9","N",,,,,"5.6"," ,N,1204, ","1.63"," ,N,0816, ",,,,,"12.96"," ,N","26.2"," ,N",,,,,,
"USW00003063","LA JUNTA 17 WSW, CO US","37.8639","-103.8224","1336.9","2008","926",,,,,,"-17","R,0117, ",,,,,"1.32"," ,R,0814, ","106","R,0802, ","6004","6","12.22"," ,R",,,"51.4","R","69.8","R","33.0","R"
"US1COLR0312","FCL 3.1 NE, CO US","40.624","-105.0649","1547.2","2008",,,,,"         8","N",,,,,"4.6"," ,N,1204, ","1.55"," ,N,0816, ",,,,,"12.28"," ,N","20.1"," ,N",,,,,,
"US1COLR0675","BUCKEYE 4.7 NNE, CO US","40.859154","-105.074949","1723.0","2008",,,,,"         6","N",,,,,"5.1"," ,N,0410, ","1.56"," ,N,0816, ",,,,,"13.15"," ,N","18.7"," ,N",,,,,,
"US1COLR0672","VIRGINIA DALE 7.2 SSW, CO US","40.852106","-105.399793","2048.9","2008",,,,,"        17","N",,,,,"6.2"," ,N,1204, ","1.61"," ,N,0523, ",,,,,"15.21"," ,N","46.4"," ,N",,,,,,
"USC00051401","CASTLE ROCK, CO US","39.4105","-104.9058","1885.2","2008","459",,"       75",,"        17","0","-11","0,1216,+","6"," ,0,0101, ","5.0"," ,0,1209, ","1.30"," ,0,0816, ","98","0,0802, ","6408","1","13.14"," ,0","52.1"," ,0","48.3","0","62.6","0","33.9","0"
"USC00058157","TACONY 13 SE, CO US","38.3421","-104.0567","1488.0","2008","898",,"        4",,"         7","0","7","0,0117, ","1"," ,0,1127,+","3.0"," ,0,0205, ","0.88"," ,0,0816, ","104","0,0802, ","4722","5","10.02"," ,0","10.9"," ,0","54.5","0","70.1","0","38.8","0"
"USC00059243","WRAY, CO US","40.08201","-102.20699","1083.0","2008","750",,,,"        10","0","-14","0,1216, ",,,"5.0"," ,0,1111, ","1.78"," ,0,0807, ","105","0,0803,+","6086","2","20.70"," ,0","24.8"," ,0","49.7","0","63.6","0","35.8","0"
"USC00050797","BLUE MESA LAKE, CO US","38.4666","-107.1677","2306.7","2008",,,,,"        43","0",,,,,"8.0"," ,0,1216,+",,,,,,,,,"109.3"," ,0",,,,,,
"USC00051886","CORTEZ, CO US","37.3444","-108.595","1879.7","2008","631",,"       72",,"        22","0","-9","0,0117, ","13"," ,0,0204, ","6.8"," ,0,1216, ","1.07"," ,0,0106, ","97","0,0803, ","6369","2","11.91"," ,0","64.5"," ,0","49.2","0","64.7","0","33.7","0"
"US1COEL0049","RAMAH 4.2 WNW, CO US","39.150333","-104.235907","1940.1","2008",,,,,"        26","N",,,,,"5.0"," ,N,0417,+","1.62"," ,N,0807, ",,,,,"13.98"," ,N","58.2"," ,N",,,,,,
"US1COEL0048","ELBERT 3.4 ESE, CO US","39.201582","-104.470261","2112.0","2008",,,,,"        23","N",,,,,"4.5"," ,N,1130, ","1.75"," ,N,0817, ",,,,,"18.42"," ,N","51.6"," ,N",,,,,,
"US1COSU0039","BRECKENRIDGE 0.9 NNE, CO US","39.519998","-106.041216","2909.0","2008",,,,,"        70","N",,,,,"8.5"," ,N,0417, ","0.99"," ,N,0912, ",,,,,"22.69"," ,N","224.4"," ,N",,,,,,
"USW00003068","BULLSEYE AUXILIARY AIRFIELD USAFA, CO US","38.76667","-104.3","1837.9","2008",,,,,,,,,,,,,,,,,,,,,,,,,,,,
"US1COWE0254","BLACK HOLLOW RESERVOIR 3.0 WSW, CO US","40.5903","-104.9274","1558.1","2008",,,,,"         8","N",,,,,"4.0"," ,N,1204, ","1.73"," ,N,0816, ",,,,,"12.70"," ,N","21.0"," ,N",,,,,,
"USS0006M17S","WOLF CREEK SUMMIT, CO US","37.48","-106.8","3352.8","2008",,,,,,,,,,,,,"3.70"," ,T,0105, ","72","T,0802, ",,,"59.91"," ,T",,,,,"44.4","T",,
"US1COKW0004","EADS .45 E, CO US","38.4797","-102.7735","1283.2","2008",,,,,"         6","N",,,,,"2.2"," ,N,0205, ","1.06"," ,N,0716, ",,,,,"13.02"," ,N","12.1"," ,N",,,,,,
"US1COWE0250","FCL 7.9 ENE, CO US","40.59488","-104.928187","1563.3","2008",,,,,"         5","N",,,,,"3.6"," ,N,1204, ","1.81"," ,N,0816, ",,,,,"12.52"," ,N","15.9"," ,N",,,,,,
"USC00051528","CHEESMAN, CO US","39.2202","-105.2783","2097.0","2008","252",,"       66",,"        29","0","-14","0,0118,+","6"," ,0,0417, ","6.0"," ,0,0417, ","0.82"," ,0,0912, ","94","0,0801, ","7093","8","12.37"," ,0","65.9"," ,0","45.8","0","61.7","0","30.0","0"
"USC00053828","HASWELL, CO US","38.4466","-103.1605","1378.3","2008",,,"       10",,"         4","0",,,"4"," ,0,0205, ","3.5"," ,0,0205, ","2.08"," ,0,0719, ",,,,,"16.33"," ,0","10.4"," ,0",,,,,,
"US1COWE0010","JOHNSTOWN 0.5 WSW, CO US","40.3324","-104.9207","1485.0","2008",,,,,"         7","N",,,,,"3.5"," ,N,1214,+","1.19"," ,N,0912, ",,,,,"12.23"," ,N","18.0"," ,N",,,,,,
"USW00003061","CORTEZ 8 SE, CO US","37.2553","-108.5035","2448.8","2008","297",,,,,,"-2","R,0117, ",,,,,"1.25"," ,R,0105, ","88","R,0802, ","7349","0","21.10"," ,R",,,"46.0","R","54.9","R","37.0","R"
"USW00003060","MONTROSE 11 ENE, CO US","38.544","-107.6928","2560.9","2008","63",,,,,,"-8","R,0117, ",,,,,,,"86","R,0801, ","8960","6",,,,,"40.9","R","51.4","R","30.4","R"
"USW00093058","PUEBLO MEMORIAL AIRPORT, CO US","38.28871","-104.50569","1441.4","2008","907",,"       10",,"         5","0","-9","0,1215,+","4"," ,0,0317, ","3.8"," ,0,0317, ","0.97"," ,0,0814, ","105","0,0802, ","5798","2","10.41"," ,0","19.8"," ,0","51.7","0","69.0","0","34.4","0"
"US1COLR0528","LOV 1.0 NNW, CO US","40.4326","-105.0923","1541.1","2008",,,,,,,,,,,,,"1.08"," ,N,0816, ",,,,,"11.82"," ,N",,,,,,,,
"US1CODN0016","DENVER 5.2 S, CO US","39.6656","-104.9657","1645.9","2008",,,,,"        16","N",,,,,"5.5"," ,N,1209, ","1.52"," ,N,0817, ",,,,,"13.14"," ,N","39.6"," ,N",,,,,,
"USS0005M17S","UTE CREEK, CO US","37.61","-105.37","3246.1","2008","0",,,,,,"-16","T,0116, ",,,,,"1.90"," ,T,0128, ","74","T,0802, ","10684","8","34.68"," ,T",,,"35.2","T","46.6","T","23.8","T"
"US1COLR0645","FORT COLLINS 4.0 S, CO US","40.528061","-105.092217","1551.1","2008",,,,,"        10","N",,,,,"6.5"," ,N,1204, ","1.39"," ,N,0816, ",,,,,"14.76"," ,N","26.8"," ,N",,,,,,
"US1COLR0767","ESTES PARK 1.8 S, CO US","40.346414","-105.521653","2420.1","2008",,,"       85",,"        23","N",,,"8"," ,N,0331, ","10.0"," ,N,0331, ","1.31"," ,N,0605, ",,,,,"15.13"," ,N","73.2"," ,N",,,,,,
"US1COLG0040","STERLING 15 SE, CO US","40.514722","-102.990556","1357.0","2008",,,,,"        11","N",,,,,"3.0"," ,N,1111,+","2.36"," ,N,0815, ",,,,,"15.19"," ,N","20.2"," ,N",,,,,,
"US1COLR0762","FORT COLLINS 4.6 N, CO US","40.62147","-105.06372","1548.1","2008",,,,,"         8","N",,,,,"5.2"," ,N,1204, ","1.58"," ,N,0816, ",,,,,"13.17"," ,N","20.8"," ,N",,,,,,
"USC00050105","AGUILAR 18 WSW, CO US","37.3169","-104.9504","2634.7","2008",,,"      150",,"        39","0",,,"20"," ,0,0310, ","12.0"," ,0,1209, ","1.44"," ,0,0817, ",,,,,"24.76"," ,0","129.8"," ,0",,,,,,
"USC00059278","YELLOW JACKET 4 NE, CO US","37.5594","-108.6636","2161.0","2008","339",,,,"        32","0","-13","0,0117, ",,,"10.0"," ,0,0204,+","1.10"," ,0,0831, ","93","0,0801, ","7002","0","17.68"," ,0","124.3"," ,0","46.3","0","59.8","0","32.9","0"
"USC00054945","LEROY 5 WSW, CO US","40.51461","-102.99068","1361.5","2008","641",,"       70",,"        10","0","-13","0,1215, ","8"," ,0,0103,+","4.7"," ,0,0411, ","1.56"," ,0,0606, ","104","0,0803, ","6700","2","13.30"," ,0","25.6"," ,0","48.3","0","61.2","0","35.3","0"
"USC00052761","ESTES PARK 3 SSE, CO US","40.34875","-105.52","2381.1","2008","95",,"      114",,"        27","0","-5","0,1205, ","7"," ,0,0331, ","10.8"," ,0,0331, ","1.24"," ,0,0912, ","91","0,0803, ","8358","5","14.53"," ,0","82.2"," ,0","42.0","0","53.5","0","30.5","0"
"US1CODG0074","HIGHLANDS RANCH 3.2 ESE, CO US","39.5404","-104.9123","1805.9","2008",,,"       35",,"        13","N",,,"6"," ,N,1209,+","6.1"," ,N,1209, ","1.38"," ,N,0817, ",,,,,"11.70"," ,N","34.6"," ,N",,,,,,
"USC00050109","AKRON 4 E, CO US","40.15507","-103.1418","1384.4","2008","661",,"       84",,"        15","0","-19","0,1215, ","12"," ,0,0101, ","7.0"," ,0,1111, ","2.39"," ,0,0807, ","103","0,0803, ","6692","8","18.55"," ,0","39.5"," ,0","48.3","0","61.8","0","34.8","0"
"USC00051780","COLORADO SPRINGS FIRE DEPARTMENT COMPLEX, CO US","38.825","-104.7586","1825.8","2008",,,,,,,,,,,,,,,,,,,,,,,,,,,,
"USC00051660","CLIMAX, CO US","39.3671","-106.1898","3457.7","2008","0",,"      222",,"       103","0","-24","0,0117, ","70"," ,0,0417,+","14.0"," ,0,1201,+","0.88"," ,0,0417, ","75","0,0802, ","12304","5","30.91"," ,0","362.4"," ,0","29.7","0","42.2","0","17.1","0"
"USC00051781","COLORADO SPRINGS FIRE STATION 18, CO US","38.92861","-104.86611","2021.7","2008",,,,,,,,,,,,,,,,,,,,,,,,,,,,
"USS0005M16S","MEDANO PASS, CO US","37.85","-105.44","2941.0","2008","3",,,,,,"-18","T,0116, ",,,,,"2.70"," ,T,0805, ","78","T,0802, ","9295","1","23.61"," ,T",,,"39.1","T","50.8","T","27.4","T"
"US1COLR0412","FORT COLLINS 2.9 NW, CO US","40.5968","-105.1329","1558.1","2008",,,,,"        10","N",,,,,"6.7"," ,N,1204, ","1.67"," ,N,0816, ",,,,,"13.46"," ,N","30.4"," ,N",,,,,,
"US1COLR0413","FORT COLLINS 3.1 SW, CO US","40.5393","-105.1185","1567.9","2008",,,,,"        10","N",,,,,"6.5"," ,N,1204, ","1.53"," ,N,0816, ",,,,,"14.41"," ,N","31.6"," ,N",,,,,,
"US1COLG0035","STERLING 2.6 SSW, CO US","40.6142","-103.2283","1203.0","2008",,,,,"         9","N",,,,,"1.9"," ,N,0411, ","1.87"," ,N,0726, ",,,,,"12.81"," ,N","18.0"," ,N",,,,,,
"USC00054934","LEMON DAM, CO US","37.3789","-107.6593","2471.9","2008","17",,"      134",,"        40","0","-18","0,0117, ","62"," ,0,0204, ","23.0"," ,0,0106, ","2.30"," ,0,0106, ","84","0,0829,+","8551","4","33.32"," ,0","243.1"," ,0","41.6","0","55.9","0","27.3","0"
"USR0000CDRA","DRAGON ROAD COLORADO, CO US","39.9153","-108.8875","1920.2","2008","657",,,,,,"-2","U,0117, ",,,,,,,"97","U,0801, ","7189","2",,,,,"47.4","U","60.1","U","34.6","U"
"USC00059265","YAMPA, CO US","40.15628","-106.91085","2394.8","2008","33",,"      160",,"        60","0","-21","0,0117, ","29"," ,0,0226, ","12.8"," ,0,0410, ","0.90"," ,0,0410, ","87","0,0802, ","9805","4","17.24"," ,0","167.4"," ,0","37.7","0","51.6","0","23.8","0"
"US1COLR0530","LOVELAND 3.4 NNE, CO US","40.458","-105.0641","1535.0","2008",,,,,,,,,,,,,,,,,,,"11.35"," ,N",,,,,,,,
"USC00050214","ALTENBERN, CO US","39.4992","-108.3809","1718.2","2008","371",,"       82",,"        28","0","-12","0,0131, ","23"," ,0,0207,+","12.0"," ,0,0203, ","1.02"," ,0,0724, ","96","0,0801, ","7206","6","15.31"," ,0","106.5"," ,0","46.3","0","62.5","0","30.1","0"
"USC00051784","COLORADO SPRINGS FIRE STATION 20, CO US","38.92944","-104.75278","2047.6","2008",,,,,,,,,,,,,,,,,,,,,,,,,,,,
"US1COSU0019","BRECKENRIDGE 3.4 SSE, CO US","39.4294","-106.033","3171.1","2008",,,"      187",,"        86","N",,,"54"," ,N,0318, ","13.0"," ,N,0417, ","1.05"," ,N,0912, ",,,,,"26.87"," ,N","305.2"," ,N",,,,,,
"USC00050454","BAILEY, CO US","39.4052","-105.4765","2362.8","2008","15",,"      153",,"        26","0","-19","0,0117, ","18"," ,0,0303, ","9.0"," ,0,0417, ","1.10"," ,0,0912, ","89","0,0802, ",,,"13.33"," ,0","83.4"," ,0","39.9","0","55.6","0","24.2","0"
"USC00052631","ELIZABETH 2 NW, CO US","39.38039","-104.62878","2015.0","2008",,,,,,,,,,,,,,,,,,,,,,,,,,,,
"USC00051782","COLORADO SPRINGS FIRE STATION 19, CO US","38.96028","-104.78056","2064.7","2008",,,,,,,,,,,,,,,,,,,,,,,,,,,,
"USR0000CPIN","PINTO COLORADO, CO US","40.0097","-108.4597","2115.3","2008","462",,,,,,"-7","U,0117, ",,,,,,,"95","U,0801, ","7598","9",,,,,"45.9","U","58.9","U","32.9","U"
"USW00094050","MEEKER AIRPORT, CO US","40.04417","-107.88861","1940.4","2008",,,,,,,,,,,,,"0.78"," ,W,0105, ",,,,,"14.69"," ,W",,,,,,,,
"USR0000CDRY","DRY LAKE COLORADO, CO US","40.535","-106.7808","2535.9","2008","84",,,,,,"-8","U,0117, ",,,,,,,"86","U,0801, ","9173","0",,,,,"40.0","U","50.9","U","29.1","U"
"US1COMZ0030","DOLORES 4.8 ENE, CO US","37.4884","-108.4177","2173.8","2008",,,,,"        34","N",,,,,"11.5"," ,N,0204, ","1.46"," ,N,0106, ",,,,,"20.78"," ,N","131.7"," ,N",,,,,,
"USC00058184","TAYLOR PARK, CO US","38.8183","-106.6086","2797.8","2008",,,,,,,,,,,,,,,,,,,,,,,,,,,,
"USC00058064","SUGARLOAF RESERVOIR, CO US","39.2495","-106.3713","2968.1","2008","0",,,,,,"-21","0,0131, ",,,,,,,"80","0,0725,+","10712","2","21.17"," ,0",,,"34.6","0","49.0","0","20.3","0"
"US1COMZ0034","CORTEZ 1.2 SW, CO US","37.3398","-108.5938","1879.1","2008",,,,,"        18","N",,,,,"7.6"," ,N,0204, ","1.16"," ,N,0106, ",,,,,"12.86"," ,N","54.9"," ,N",,,,,,
"US1COMZ0031","CORTEZ 7.7 W, CO US","37.3367","-108.7244","1723.9","2008",,,,,"        14","N",,,,,"9.0"," ,N,0204, ","0.99"," ,N,0106, ",,,,,"15.15"," ,N","43.4"," ,N",,,,,,
"USR0000CCPT","CARPENTER RIDGE COLORADO, CO US","38.4594","-109.0469","2465.2","2008",,,,,,,,,,,,,,,,,"7254","1",,,,,,,,,,
"US1COMZ0035","CORTEZ 10 WNW, CO US","37.4131","-108.7477","2075.1","2008",,,,,"        30","N",,,,,"11.0"," ,N,0204, ","1.40"," ,N,0106, ",,,,,"17.72"," ,N","75.7"," ,N",,,,,,
"USC00053079","FOWLER 1 SE, CO US","38.1236","-104.0084","1319.8","2008",,,,,"         6","0",,,,,"7.0"," ,0,0205, ","1.40"," ,0,0507, ",,,,,"11.43"," ,0","17.0"," ,0",,,,,,
"USR0000CNUC","NUCLA COLORADO, CO US","38.2297","-108.5583","1786.1","2008","825",,,,,,"-6","U,0117, ",,,,,,,"100","U,0801,+","6047","7",,,,,"51.3","U","66.2","U","36.4","U"
"USC00057317","RYE 1 SW, CO US","37.9137","-104.9484","2176.6","2008","249",,"      105",,"        32","0","-6","0,0117, ","17"," ,0,1209, ","11.8"," ,0,0302, ","1.58"," ,0,0807, ","91","0,0618, ","6506","3","26.44"," ,0","126.2"," ,0","47.3","0","59.3","0","35.2","0"
"USS0005J04S","PHANTOM VALLEY, CO US","40.4","-105.85","2752.3","2008","0",,"      202",,,,"-12","T,0101, ","43"," ,T,0411, ",,,"0.80"," ,T,0816, ","82","T,0801, ","10509","5","24.80"," ,T",,,"35.9","T","48.8","T","22.9","T"
"US1COGN0018","CRESTED BUTTE 6.2 N, CO US","38.9603","-106.9908","2927.9","2008",,,"      216",,"       102","N",,,"89"," ,N,0204, ","22.5"," ,N,1223, ","1.58"," ,N,0106, ",,,,,"43.77"," ,N","558.6"," ,N",,,,,,
"US1COJF0081","CONIFER 3.9 SE, CO US","39.48388","-105.2434","2560.3","2008",,,,,,,,,,,,,,,,,,,"17.89"," ,N",,,,,,,,
"US1COOT0013","CHERAW 1.9 W, CO US","38.1044","-103.546","1268.0","2008",,,,,"         8","N",,,,,"6.0"," ,N,0205, ","2.04"," ,N,0830, ",,,,,"13.50"," ,N","19.4"," ,N",,,,,,
"USS0007M16S","UPPER RIO GRANDE, CO US","37.72","-107.26","2865.1","2008","0",,,,,,"-27","T,0131, ",,,,,"1.30"," ,T,1011, ","80","T,0731, ","10089","9","19.73"," ,T",,,"37.3","T","53.2","T","21.4","T"
"US1COLK0001","LEADVILLE 1.4 WNW, CO US","39.2573","-106.3173","3037.9","2008",,,,,"        54","N",,,,,"11.9"," ,N,0514, ","0.78"," ,N,0225, ",,,,,"16.85"," ,N","177.0"," ,N",,,,,,
"USS0006L03S","PORPHYRY CREEK, CO US","38.49","-106.34","3279.6","2008","0",,,,,,"-19","T,0131, ",,,,,"0.90"," ,T,0207,+","72","T,0801, ","12036","5","24.32"," ,T",,,"32.0","T","42.8","T","21.2","T"
"USS0006K06S","NAST LAKE, CO US","39.3","-106.61","2651.8","2008","0",,,,,,"-23","T,0101, ",,,,,"0.80"," ,T,0314,+","84","T,0801, ","10047","5","24.48"," ,T",,,"37.3","T","53.6","T","21.0","T"
"USS0006J09S","RABBIT EARS, CO US","40.37","-106.74","2865.1","2008","0",,,,,,"-15","T,0101, ",,,,,"1.70"," ,T,0410, ","80","T,0801, ",,,"50.24"," ,T",,,"36.1","T","47.0","T","25.2","T"
"USC00058756","WALDEN, CO US","40.7442","-106.2792","2455.5","2008","1",,"      135",,"        27","0","-24","0,0117, ","16"," ,0,0226, ","5.1"," ,0,0330, ","0.50"," ,0,0523, ","86","0,0721, ","10626","6","10.89"," ,0","75.3"," ,0","35.3","0","50.3","0","20.3","0"
"USS0005J39S","BEAR LAKE, CO US","40.31","-105.64","2895.6","2008","6",,,,,,"-5","T,0117, ",,,,,"1.00"," ,T,0815, ","80","T,0802, ","9841","1","30.15"," ,T",,,"37.9","T","46.3","T","29.5","T"
"USC00057309","RUXTON PARK, CO US","38.8416","-104.9742","2761.5","2008",,,,,"        37","0",,,,,"8.0"," ,0,0313, ","1.50"," ,0,1209, ","84","0,0803,+",,,"18.92"," ,0","88.6"," ,0",,,"53.0","0",,
"US1COWA0021","LAST CHANCE 6.1 N, CO US","39.8265","-103.5733","1414.9","2008",,,,,"        15","N",,,,,"5.0"," ,N,0503, ","1.61"," ,N,0809, ",,,,,"14.04"," ,N","31.7"," ,N",,,,,,
"US1COWA0023","MESSEX 3.8 WNW, CO US","40.3932833","-103.4506833","1255.2","2008",,,,,"         6","N",,,,,"3.0"," ,N,0205, ","1.40"," ,N,0807, ",,,,,"13.92"," ,N","12.9"," ,N",,,,,,
"USC00055484","MEEKER, CO US","40.0358","-107.9058","1898.6","2008","66",,"      113",,"        28","0","-23","0,0117, ","21"," ,0,0111, ","13.6"," ,0,0106, ","1.06"," ,0,0106, ","91","0,0802,+",,,"16.54"," ,0","95.1"," ,0","40.2","0","56.9","0","23.4","0"
"USC00058995","WHEAT RIDGE 2, CO US","39.7749","-105.117","1645.3","2008","536",,"       73",,"        19","0","-11","0,1216,+","6"," ,0,1209,+","6.0"," ,0,1209, ","1.08"," ,0,0816, ","101","0,0802, ","6124","3","12.43"," ,0","52.4"," ,0","49.4","0","65.2","0","33.7","0"
"USS0007M05S","CASCADE, CO US","37.65","-107.81","2706.6","2008","0",,,,,,"-14","T,0117, ",,,,,"3.00"," ,T,0831, ","81","T,0628, ","8597","4","35.74"," ,T",,,"41.4","T","54.5","T","28.3","T"
"USS0007M29S","LIZARD HEAD PASS, CO US","37.8","-107.92","3109.0","2008","0",,,,,,"-21","T,0116, ",,,,,"1.20"," ,T,0831, ","74","T,0719, ","10793","0","30.18"," ,T",,,"35.3","T","48.4","T","22.2","T"
"US1COMT0006","MONTROSE 3.9 WNW, CO US","38.4912","-107.9469","1770.3","2008",,,,,,,,,,,,,,,,,,,"7.32"," ,N",,,,,,,,
"US1COMT0005","MONTROSE 1.2 ESE, CO US","38.4729","-107.8574","1777.0","2008",,,,,,,,,,,,,"0.61"," ,N,0410, ",,,,,"8.65"," ,N",,,,,,,,
"USR0000CMRF","MOREFIELD COLORADO, CO US","37.3006","-108.4133","2383.5","2008","330",,,,,,"-1","U,0117,+",,,,,,,"89","U,0801, ","7047","0",,,,,"46.6","U","56.2","U","37.1","U"
"USS0008M08S","SCOTCH CREEK, CO US","37.65","-108.01","2773.7","2008","0",,,,,,"-20","T,0117, ",,,,,"1.10"," ,T,1218, ","79","T,0731,+","9545","8","30.31"," ,T",,,"38.9","T","53.5","T","24.4","T"
"US1COCC0001","EVERGREEN 6.5 WSW, CO US","39.61","-105.44","2468.0","2008",,,,,"        33","N",,,,,"11.5"," ,N,0317, ","1.02"," ,N,0912, ",,,,,"19.38"," ,N","136.5"," ,N",,,,,,
"US1COGF0001","GLENWOOD SPRINGS .64 S, CO US","39.5413","-107.3269","1775.2","2008",,,,,"        30","N",,,,,"6.0"," ,N,0204, ","0.71"," ,N,0912, ",,,,,"16.44"," ,N","78.3"," ,N",,,,,,
"USC00057337","SAGUACHE, CO US","38.09208","-106.15122","2359.5","2008","51",,"       85",,"         7","0","-16","0,0118, ","9"," ,0,1229,+","6.0"," ,0,0303, ","0.94"," ,0,0807, ","94","0,0811, ","8450","4","4.43"," ,0","20.1"," ,0","41.9","0","57.6","0","26.3","0"
"US1COGF0002","RIFLE 0.9 NE, CO US","39.5502","-107.768","1709.0","2008",,,,,"        16","N",,,,,"5.7"," ,N,1223, ","0.61"," ,N,1128, ",,,,,"10.34"," ,N","44.6"," ,N",,,,,,
"USC00058429","TRINIDAD, CO US","37.1787","-104.487","1837.9","2008","591",,"       29",,"        16","0","-8","0,0117,+","7"," ,0,1209,+","10.0"," ,0,1209, ","1.90"," ,0,1011, ","98","0,0802, ","5261","7","14.46"," ,0","54.9"," ,0","51.8","0","66.9","0","36.7","0"
"US1CORG0002","MONTEVISTA 2.7 SSE, CO US","37.5459","-106.1217","2332.9","2008",,,,,"        12","N",,,,,"4.6"," ,N,0205, ","0.51"," ,N,0630, ",,,,,"6.48"," ,N","36.6"," ,N",,,,,,
"US1COAR0131","CHERRY HILLS VILLAGE 1.5 ESE, CO US","39.626028","-104.923972","1698.0","2008",,,,,"        13","N",,,,,"3.1"," ,N,0205, ","1.16"," ,N,0817, ",,,,,"10.88"," ,N","28.0"," ,N",,,,,,
"USC00057572","SHEEP MOUNTAIN, CO US","37.715","-105.2352","2360.4","2008","152",,,,"        23","0","-11","0,0117, ",,,"8.0"," ,0,0108, ","1.01"," ,0,0817, ","90","0,0802, ",,,"12.16"," ,0","61.8"," ,0","45.7","0","58.4","0","33.0","0"
"US1CORG0007","MONTE VISTA 4.1 S, CO US","37.5216","-106.1613","2347.0","2008",,,,,"        14","N",,,,,"6.0"," ,N,0303,+","0.92"," ,N,0825, ",,,,,"9.45"," ,N","41.9"," ,N",,,,,,
"USC00057450","SANTA MARIA RESERVOIR, CO US","37.82266","-107.10966","2957.8","2008","0",,"      135",,"        41","0","-25","0,0117, ","43"," ,0,0208, ","9.0"," ,0,1226, ","0.98"," ,0,0729, ","78","0,0823,+","11160","2","15.27"," ,0","133.7"," ,0","34.3","0","50.4","0","18.1","0"
"USC00058781","WALSENBURG 1 NW, CO US","37.6303","-104.79566","1917.8","2008","584",,"       43",,"        21","0","-11","0,0117, ","8"," ,0,0205, ","7.6"," ,0,0205, ","1.30"," ,0,0817, ","98","0,0803, ","5842","4","14.87"," ,0","72.6"," ,0","50.5","0","65.0","0","36.0","0"
"US1CORG0009","DEL NORTE 0.25 NW, CO US","37.68117","-106.355035","2403.0","2008",,,,,"        21","N",,,,,"14.5"," ,N,0303, ","1.75"," ,N,0808, ",,,,,"11.22"," ,N","81.8"," ,N",,,,,,
"USC00050945","BRIGGSDALE, CO US","40.63439","-104.32856","1481.9","2008",,,"       13",,"         8","0",,,"3"," ,0,1204,+","3.0"," ,0,0410, ","1.20"," ,0,0817,+",,,,,"13.26"," ,0","17.0"," ,0",,,,,,
"US1COMT0017","MONTROSE 6.4 S, CO US","38.387058","-107.862203","1876.3","2008",,,,,"        22","N",,,,,"6.0"," ,N,1227,+","0.55"," ,N,1209, ",,,,,"8.96"," ,N","64.1"," ,N",,,,,,
"USC00050825","BONHAM RESERVOIR, CO US","39.1025","-107.8988","3002.9","2008","0",,,,,,"-33","0,0131,+",,,,,,,"78","0,0801, ",,,"38.42"," ,0",,,"29.1","0","41.7","0","16.6","0"
"USC00057460","SARGENTS, CO US","38.4039","-106.4236","2578.6","2008",,,,,"        43","0",,,,,"8.0"," ,0,0105, ","0.73"," ,0,0105, ",,,,,"14.98"," ,0","132.8"," ,0",,,,,,
"US1COMT0013","MONTROSE 1.2 WSW, CO US","38.470869","-107.89114","1794.4","2008",,,,,"        18","N",,,,,"4.3"," ,N,0410, ","0.58"," ,N,0513, ",,,,,"8.43"," ,N","39.2"," ,N",,,,,,
"US1COAR0137","ENGLEWOOD 0.6 SE, CO US","39.6429","-104.9972","1631.0","2008",,,,,"        15","N",,,,,"5.5"," ,N,1209, ","1.56"," ,N,0817, ",,,,,"12.80"," ,N","35.7"," ,N",,,,,,
"USS0006L05S","SAINT ELMO, CO US","38.7","-106.37","3212.6","2008",,,,,,,,,,,,,"1.20"," ,T,0105, ",,,,,"25.19"," ,T",,,,,,,,
"US1COBO0202","WARD 4.6 NE, CO US","40.1103","-105.4391","2609.1","2008",,,"      149",,"        38","N",,,"22"," ,N,0215,+","8.9"," ,N,0417, ","1.56"," ,N,0817, ",,,,,"21.26"," ,N","123.4"," ,N",,,,,,
"USS0006K08S","FREMONT PASS, CO US","39.38","-106.2","3474.7","2008","0",,,,,,"-21","T,0117, ",,,,,"0.80"," ,T,0314,+","70","T,0731, ","12136","0","30.33"," ,T",,,"31.5","T","42.0","T","21.1","T"
"USC00054054","HOHNHOLZ RANCH, CO US","40.96829","-105.99867","2376.5","2008","5",,"      139",,"        41","0","-17","0,1205, ","11"," ,0,0217,+","5.0"," ,0,1204,+","0.72"," ,0,0912, ","88","0,0802,+","9662","9","11.05"," ,0","98.0"," ,0","37.9","0","54.2","0","21.5","0"
"USS0005J37S","JOE WRIGHT, CO US","40.53","-105.89","3084.6","2008","0",,"      256",,,,"-12","T,0117, ","93"," ,T,0411, ",,,"1.80"," ,T,1130, ","83","T,0801,+","10479","9","47.82"," ,T",,,"35.7","T","48.7","T","22.6","T"
"USC00054172","HUGO 1 NW, CO US","39.1438","-103.4897","1531.6","2008",,,"       20",,"         9","0",,,"5"," ,0,0417, ","5.0"," ,0,0417, ","1.55"," ,0,0807, ",,,,,"13.13"," ,0","20.5"," ,0",,,,,,
"USC00055020","LIMON ATWATER RANCH, CO US","38.9496","-103.7695","1698.3","2008",,,,,,,,,,,,,,,,,,,,,,,,,,,,
