"STATION","NAME","LATITUDE","LONGITUDE","ELEVATION","DATE","CDSD","CDSD_ATTRIBUTES","DSND","DSND_ATTRIBUTES","DSNW","DSNW_ATTRIBUTES","EMNT","EMNT_ATTRIBUTES","EMSD","EMSD_ATTRIBUTES","EMSN","EMSN_ATTRIBUTES","EMXP","EMXP_ATTRIBUTES","EMXT","EMXT_ATTRIBUTES","HDSD","HDSD_ATTRIBUTES","PRCP","PRCP_ATTRIBUTES","SNOW","SNOW_ATTRIBUTES","TAVG","TAVG_ATTRIBUTES","TMAX","TMAX_ATTRIBUTES","TMIN","TMIN_ATTRIBUTES"
"USC00096087","MOULTRIE 2 ESE, GA US","31.1769","-83.7491","103.6","2019","2681",,"        0",,"         0","7","28","7,0129, ","0"," ,7,1231,+","0.0"," ,7,1231,+","3.78"," ,7,0326, ","99","7,0604,+","1516","2","41.91"," ,7","0.0"," ,7","68.4","7","78.9","7","57.9","7"
"US1GAFT0037","ATLANTA 3.2 S, GA US","33.7171497","-84.4210735","317.0","2019",,,,,,,,,,,,,"3.70"," ,N,0419, ",,,,,"45.42"," ,N",,,,,,,,
"USR0000GBYR","BYROMVILLE GEORGIA, GA US","32.2033","-83.9319","152.4","2019","2793",,,,,,"25","U,0130, ",,,,,,,"103","U,0917, ","1746","8",,,,,"68.0","U","79.5","U","56.4","U"
"USC00095314","LOUISVILLE 1 E, GA US","33.0125","-82.3914","98.1","2019","2346",,"        0",,"         0","7","20","7,0130, ","0"," ,7,1231,+","0.0"," ,7,1231,+","4.12"," ,7,1116, ","99","7,1005,+","2350","8","56.91"," ,7","0.0"," ,7","65.3","7","77.2","7","53.3","7"
"US1GACK0011","ATHENS 7.6 SE, GA US","33.8625","-83.308889","208.2","2019",,,,,,,,,,,,,,,,,,,"38.35"," ,N",,,,,,,,
"USC00091500","CAMILLA 3 SE, GA US","31.1902","-84.2036","53.3","2019","2715",,"        0",,"         0","7","24","7,1219, ","0"," ,7,1231,+","0.0"," ,7,1231,+","2.24"," ,7,0629, ","99","7,0918, ","1618","1","42.98"," ,7","0.0"," ,7","68.1","7","79.2","7","57.1","7"
"USC00091863","CHATSWORTH 2, GA US","34.7582","-84.7642","216.4","2019","1888",,"        0",,"         0","7","17","7,0122,+","0"," ,7,1231,+","0.0"," ,7,1231,+","2.75"," ,7,0120, ","99","7,0814, ","3149","3","68.65"," ,7","0.0"," ,7","61.9","7","73.6","7","50.3","7"
"US1GACK0010","ATHENS 4.5 SE, GA US","33.90551","-83.344778","224.0","2019",,,,,,,,,,,,,"4.51"," ,N,0609, ",,,,,"51.91"," ,N",,,,,,,,
"USC00091982","CLAYTON 1 SSW, GA US","34.8879","-83.3966","598.9","2019","1322",,"        0",,"         0","7","17","7,0122,+","0"," ,7,1231,+","0.0"," ,7,1231,+",,,"92","7,0913,+","3520","5",,,"0.0"," ,7","59.4","7","70.0","7","48.8","7"
"USC00092159","COLUMBUS NUMBER 2, GA US","32.5181","-84.9378","132.6","2019",,,,,,,,,,,,,,,,,,,,,,,,,,,,
"US1GABB0016","MACON 6.3 E, GA US","32.838347","-83.548249","133.2","2019",,,,,,,,,,,,,"2.00"," ,N,1213,+",,,,,"48.94"," ,N",,,,,,,,
"US1GAHL0010","FLOWERY BRANCH 3.9 NE, GA US","34.21807","-83.866425","366.1","2019",,,,,,,,,,,,,"2.80"," ,N,0420, ",,,,,"54.15"," ,N",,,,,,,,
"USW00003820","AUGUSTA BUSH FIELD AIRPORT, GA US","33.3644","-81.9633","40.2","2019","2744",,"        0",,"         0","W","23","W,0130,+","0"," ,W,1231,+","0.0"," ,W,1231,+","3.20"," ,W,0823, ","101","W,1004,+","1973","1","50.89"," ,W","0.0"," ,W","67.2","W","79.9","W","54.6","W"
"USW00003822","SAVANNAH INTERNATIONAL AIRPORT, GA US","32.13133","-81.20237","14.0","2019","3117",,"        0",,"         0","W","29","W,0131,+","0"," ,W,1231,+","0.0"," ,W,1231,+","4.53"," ,W,0611, ","102","W,0526, ","1403","4","51.38"," ,W","0.0"," ,W","69.8","W","80.3","W","59.3","W"
"USC00097600","ROME, GA US","34.2413","-85.1584","208.8","2019","1993",,"        0",,"         0","7","18","7,1114, ","0"," ,7,1231,+","0.0"," ,7,1231,+","3.28"," ,7,1026, ","98","7,1003,+","3199","4","60.38"," ,7","0.0"," ,7","62.2","7","74.3","7","50.1","7"
"US1GACG0011","SUMMERVILLE 9.4 ENE, GA US","34.53944444","-85.20083333","251.2","2019",,,,,,,,,,,,,"3.91"," ,N,1026, ",,,,,"66.17"," ,N",,,,,,,,
"USC00092966","EASTMAN 1 W, GA US","32.2003","-83.2058","121.9","2019","2659",,"        0",,"         0","7","26","7,0129, ","0"," ,7,1231,+","0.0"," ,7,1231,+","4.15"," ,7,1019, ","99","7,0927,+","1745","2","47.48"," ,7","0.0"," ,7","67.9","7","78.9","7","56.8","7"
"USC00092844","DUBLIN 2, GA US","32.5574","-82.8999","61.0","2019","2569",,"        0",,"         0","7","24","7,0131, ","0"," ,7,1231,+","0.0"," ,7,1231,+","2.24"," ,7,1223, ","103","7,0909, ","2063","2","45.80"," ,7","0.0"," ,7","66.5","7","79.2","7","53.8","7"
"USC00095666","MCDONOUGH 5 ENE, GA US","33.47686","-84.03358","215.8","2019",,,"        0",,"         0","7",,,"0"," ,7,1231,+","0.9"," ,7,1108, ","3.63"," ,7,0609, ",,,,,"47.49"," ,7","0.9"," ,7",,,,,,
"USR0000GWAY","WAYCROSS GEORGIA, GA US","31.11","-82.26","38.1","2019","3068",,,,,,"28","U,0131, ",,,,,,,"102","U,0527, ","1321","1",,,,,"69.9","U","80.7","U","59.0","U"
"USC00092283","CORNELIA, GA US","34.5181","-83.5286","448.1","2019","1483",,"        0",,"         0","7","17","7,0123,+","0"," ,7,1231,+","0.0"," ,7,1231,+","2.15"," ,7,0712, ","93","7,1004, ","3370","2","58.75"," ,7","0.0"," ,7","60.4","7","70.6","7","50.2","7"
"USR0000GWAS","WASHINGTON GEORGIA, GA US","33.7806","-82.8161","180.7","2019","2426",,,,,,"24","U,0130,+",,,,,,,"100","U,1004,+","2422","7",,,,,"65.3","U","76.5","U","54.2","U"
"US1GAWR0005","MANOR 3.0 NW, GA US","31.1217536777258","-82.6195156574249","52.4","2019",,,,,,,,,,,,,"3.24"," ,N,0815, ",,,,,"45.80"," ,N",,,,,,,,
"USC00091965","CLARKESVILLE, GA US","34.6159","-83.5429","417.6","2019","1536",,"        0",,"         0","7","16","7,0130, ","0"," ,7,1231,+","0.0"," ,7,1231,+","3.28"," ,7,1031, ","96","7,0913,+","3473","6","64.46"," ,7","0.0"," ,7","60.2","7","72.3","7","48.2","7"
"US1GACT0067","BLOOMINGDALE 4.7 SW, GA US","32.0639343261719","-81.3561019897461","7.9","2019",,,,,,,,,,,,,,,,,,,"55.97"," ,N",,,,,,,,
"US1GACT0064","SAVANNAH 10.4 E, GA US","32.016027","-80.954629","4.0","2019",,,,,,,,,,,,,"5.33"," ,N,1223, ",,,,,"46.65"," ,N",,,,,,,,
"US1GACT0065","SAVANNAH 8.5 E, GA US","32.003472","-80.988897","11.0","2019",,,,,,,,,,,,,"5.40"," ,N,1223, ",,,,,"52.35"," ,N",,,,,,,,
"USC00091619","CARNESVILLE, GA US","34.36555","-83.23278","204.2","2019",,,"        0",,"         0","7",,,"0"," ,7,1231,+","0.0","T,7,0302, ",,,,,,,,,"0.0","T,7",,,,,,
"USW00013869","ALBANY SW GEORGIA REGIONAL AIRPORT, GA US","31.53556","-84.19444","57.9","2019","3179",,"        0",,"         0","W","26","W,0130, ","0"," ,W,1231,+","0.0"," ,W,1231,+","4.62"," ,W,0609, ","102","W,0927, ","1413","2","46.72"," ,W","0.0"," ,W","70.2","W","81.4","W","59.1","W"
"US1GACU0006","MARTINEZ 0.9 NW, GA US","33.529262","-82.097768","94.5","2019",,,,,,,,,,,,,"4.11"," ,N,1214, ",,,,,"48.79"," ,N",,,,,,,,
"USR0000GCHA","CHATTOOGA NUMBER 1 GEORGIA, GA US","34.6403","-83.5219","457.2","2019","1595",,,,,,"19","U,0130,+",,,,,,,"97","U,0913,+","3206","3",,,,,"61.1","U","72.4","U","49.9","U"
"US1GACU0009","APPLING 2.0 SE, GA US","33.529755","-82.287319","122.8","2019",,,,,,,,,,,,,"3.79"," ,N,1214, ",,,,,"47.67"," ,N",,,,,,,,
"USR0000GATH","WATKINSVILLE GEORGIA, GA US","33.8967","-83.3656","205.7","2019","2243",,,,,,"23","U,0130,+",,,,,,,"100","U,1003, ",,,,,,,"64.4","U","75.6","U","53.2","U"
"USC00091732","CEDARTOWN, GA US","34.0588","-85.2338","239.3","2019","2187",,"        0",,"         0","7","19","7,0129, ","0"," ,7,1231,+","0.0"," ,7,1231,+","3.60"," ,7,0719, ","99","7,0812, ","2957","0","55.36"," ,7","0.0"," ,7","63.5","7","74.7","7","52.3","7"
"USW00013870","ALMA BACON CO AIRPORT, GA US","31.5358","-82.5067","58.8","2019","2928",,"        0",,"         0","W","28","W,1219,+","0"," ,W,1231,+","0.0"," ,W,1231,+","1.81"," ,W,0705, ","101","W,0703,+","1397","0","34.22"," ,W","0.0"," ,W","69.1","W","80.8","W","57.5","W"
"USC00092266","CORDELE, GA US","31.985","-83.77472","93.9","2019","2773",,"        0",,"         0","7","26","7,0201, ","0"," ,7,1231,+","0.0"," ,7,1231,+","4.26"," ,7,1019, ","101","7,0918, ","1877","8","56.26"," ,7","0.0"," ,7","67.7","7","79.6","7","55.9","7"
"USC00097827","SAUTEE 3 W, GA US","34.6646","-83.7342","484.9","2019",,,"        0",,"         0","7",,,"0","T,7,0120, ","0.0","T,7,0120, ","4.42"," ,7,1031, ",,,"3578","6","80.99"," ,7","0.0","T,7",,,,,,
"USR0000GCHS","CHATSWORTH GEORGIA, GA US","34.77","-84.5833","609.6","2019","2138",,,,,,"18","U,1113,+",,,,,,,"101","U,0813, ",,,,,,,"63.2","U","74.6","U","51.7","U"
"US1GADH0001","ALBANY 3.7 NE, GA US","31.617985","-84.135212","60.0","2019",,,,,,,,,,,,,"3.95"," ,N,0610, ",,,,,"52.96"," ,N",,,,,,,,
"USW00013878","BRUNSWICK MCKINNON AIRPORT, GA US","31.1522","-81.3908","4.9","2019","3336",,"        0",,"         0","W","32","W,0131, ","0"," ,W,1231,+","0.0"," ,W,1231,+","4.01"," ,W,1222, ","99","W,0810,+","1041","5","44.37"," ,W","0.0"," ,W","71.3","W","79.0","W","63.7","W"
"US1GAFS0020","CUMMING 3.1 SSE, GA US","34.165947004121","-84.1164444386959","361.8","2019",,,,,,,,,,,,,"2.86"," ,N,0612, ",,,,,"59.12"," ,N",,,,,,,,
"USW00013874","ATLANTA HARTSFIELD JACKSON INTERNATIONAL AIRPORT, GA US","33.6301","-84.4418","307.8","2019","2596",,"        0",,"         0","W","22","W,0121, ","0"," ,W,1231,+","0.0"," ,W,1231,+","3.90"," ,W,0608, ","100","W,0813, ","2342","3","43.76"," ,W","0.0"," ,W","66.1","W","75.5","W","56.8","W"
"USW00013873","ATHENS BEN EPPS AIRPORT, GA US","33.948","-83.3275","239.3","2019","2337",,,,,,"23","W,0130, ",,,,,"3.73"," ,W,0804, ","100","W,1003, ","2577","6","46.31"," ,W",,,"64.9","W","76.1","W","53.7","W"
"US1GACT0055","SAVANNAH 1.7 W, GA US","32.028762","-81.160086","5.8","2019",,,,,,,,,,,,,"4.38"," ,N,1223, ",,,,,"47.35"," ,N",,,,,,,,
"US1GAMA0001","COMER 3.5 NNE, GA US","34.109493","-83.102374","177.1","2019",,,,,,,,,,,,,"2.64"," ,N,0709, ",,,,,"45.88"," ,N",,,,,,,,
"USC00099157","WASHINGTON 2 ESE, GA US","33.7264","-82.7059","189.0","2019","2005",,"        0",,"         0","7","21","7,0121, ","0"," ,7,1231,+","0.1"," ,7,0305, ","2.24"," ,7,0609, ","98","7,1004,+","2716","0","38.69"," ,7","0.1"," ,7","63.3","7","74.2","7","52.4","7"
"USC00098740","TOCCOA, GA US","34.5786","-83.3319","308.5","2019","2083",,"        0",,"         0","7","21","7,0131, ","0"," ,7,1231,+","0.0"," ,7,1231,+","3.67"," ,7,0420, ","99","7,1004, ","2857","2","60.32"," ,7","0.0"," ,7","63.5","7","73.9","7","53.0","7"
"USC00092517","DANIELSVILLE, GA US","34.1175","-83.3044","237.7","2019","1874",,"        0",,"         0","7","21","7,0131,+","0"," ,7,1231,+","0.0"," ,7,1231,+","4.81"," ,7,0609, ","97","7,1004, ","3063","6","59.25"," ,7","0.0"," ,7","62.3","7","73.2","7","51.4","7"
"USC00097777","SANDERSVILLE, GA US","32.9745","-82.8045","137.5","2019","2450",,"        0",,"         0","7","23","7,0201,+","0"," ,7,1231,+","0.0"," ,7,1231,+","2.48"," ,7,1213, ","100","7,0929,+","2250","1","45.72"," ,7","0.0"," ,7","65.7","7","78.0","7","53.5","7"
"USC00094941","CHICKAMAUGA 2 SW, GA US","34.853","-85.3142","243.5","2019","2108",,"        0",,"         0","7","19","7,0121, ","0"," ,7,1231,+","0.0"," ,7,1231,+","2.12"," ,7,1025, ","98","7,0813, ","2996","4","42.52"," ,7","0.0"," ,7","63.1","7","73.1","7","53.0","7"
"USC00094700","JONESBORO, GA US","33.5312","-84.3545","283.5","2019","2171",,"        0",,"         0","7","21","7,0130,+","0"," ,7,1231,+","0.0"," ,7,1231,+","6.13"," ,7,0609, ","99","7,0913,+","2821","4","51.09"," ,7","0.0"," ,7","63.6","7","74.0","7","53.1","7"
"USC00092753","DORAVILLE, GA US","33.9377","-84.2701","313.9","2019",,,"        0",,"         0","7",,,"0"," ,7,1231,+","0.0","T,7,0201, ","2.25"," ,7,0419, ",,,,,"51.11"," ,7","0.0","T,7",,,,,,
"US1GAMN0010","FORSYTH 8.3 S, GA US","32.914261","-83.941625","149.0","2019",,,,,,,,,,,,,"3.32"," ,N,1030, ",,,,,"56.87"," ,N",,,,,,,,
"US1GAHR0007","WAVERLY HALL 6.9 S, GA US","32.5843","-84.74035","166.7","2019",,,,,,,,,,,,,"2.36"," ,N,0901, ",,,,,"52.51"," ,N",,,,,,,,
"US1GAEM0005","SWAINSBORO 4.5 SSE, GA US","32.547112","-82.316976","86.0","2019",,,,,,,,,,,,,"2.55"," ,N,1030, ",,,,,"38.93"," ,N",,,,,,,,
"US1GAMA0010","NICHOLSON 4.9 SE, GA US","34.064174","-83.371032","235.9","2019",,,,,,,,,,,,,"4.43"," ,N,0609, ",,,,,"49.26"," ,N",,,,,,,,
"USW00053863","ATLANTA DEKALB PEACHTREE AIRPORT, GA US","33.875","-84.30222","305.3","2019","2103",,,,,,"20","W,1113,+",,,,,"3.26"," ,W,0419, ","98","W,0909, ","2837","3","48.44"," ,W",,,"63.4","W","73.9","W","52.8","W"
"US1GAEV0001","BELLVILLE 2.8 N, GA US","32.193232","-81.968366","44.2","2019",,,,,,,,,,,,,,,,,,,"44.91"," ,N",,,,,,,,
"USC00097087","PLAINS SW GA EXPERIMENTAL STATION, GA US","32.0467","-84.3711","152.4","2019","2485",,"        0",,"         0","7","19","7,0131, ","0"," ,7,1231,+","0.0"," ,7,1231,+","3.20"," ,7,0722, ","99","7,0526, ","1866","9","48.72"," ,7","0.0"," ,7","66.8","7","78.0","7","55.6","7"
"US1GAMA0019","COMER 8.0 N, GA US","34.177789","-83.131205","209.1","2019",,,,,,,,,,,,,"2.20"," ,N,0609, ",,,,,"48.53"," ,N",,,,,,,,
"USC00092408","CUMMING 2 N, GA US","34.2286","-84.1281","347.5","2019",,,,,,,,,,,,,,,,,,,,,,,,,,,,
"USC00094133","HARTWELL, GA US","34.35178","-82.93013","245.4","2019","2105",,"        0",,"         0","7","22","7,0131,+","0"," ,7,1231,+","0.0"," ,7,1231,+","2.30"," ,7,0709, ","97","7,1004, ","2955","5","51.89"," ,7","0.0"," ,7","63.1","7","73.1","7","53.1","7"
"USR0000GARM","ARMUCHEE NUMBER 1 GEORGIA, GA US","34.6953","-85.1736","351.1","2019","2124",,,,,,"15","U,0121, ",,,,,,,"100","U,0813, ","2950","8",,,,,"63.0","U","71.6","U","54.4","U"
"USC00094138","HARTWELL DAM, GA US","34.33917","-82.83546","210.3","2019","2114",,,,,,"24","7,1219,+",,,,,"2.50"," ,7,1020, ","97","7,1003,+","2816","6","42.93"," ,7",,,"63.5","7","74.1","7","52.9","7"
"USC00097528","ROCKY FORD 4 SE, GA US","32.63193","-81.7721","48.8","2019","2476",,,,,,"26","7,0201,+",,,,,"2.67"," ,7,1116, ","101","7,0718, ","1960","1","43.21"," ,7",,,"66.8","7","78.3","7","55.2","7"
"US1GABW0004","WINDER 3.9 NNE, GA US","34.04259","-83.69189","226.2","2019",,,,,,,,,,,,,"3.80"," ,N,0419, ",,,,,"51.20"," ,N",,,,,,,,
"USR0000SSAV","SAVANNAH NWR SOUTH CAROLINA, SC US","32.1","-81.0833","3.0","2019","2926",,,,,,"30","U,0130, ",,,,,,,"100","U,0810,+","1400","7",,,,,"69.2","U","78.7","U","59.7","U"
"US1GAGW0039","BETHLEHEM 7.0 W, GA US","33.949842","-83.829704","303.0","2019",,,,,,,,,,,,,"4.89"," ,N,0419, ",,,,,"50.11"," ,N",,,,,,,,
"US1GACT0037","TYBEE ISLAND 0.7 NNE, GA US","32.018709","-80.85","2.1","2019",,,,,,,,,,,,,,,,,,,"43.26"," ,N",,,,,,,,
"US1GACT0038","SAVANNAH 4.5 SSW, GA US","31.9613420963287","-81.1493539810181","9.4","2019",,,,,,,,,,,,,"4.21"," ,N,1223, ",,,,,"51.57"," ,N",,,,,,,,
"USW00053873","CARTERSVILLE AIRPORT, GA US","34.12306","-84.84861","232.6","2019","2133",,,,,,"18","W,0130, ",,,,,"2.20"," ,W,0419, ","101","W,0917, ","2981","2","44.82"," ,W",,,"63.4","W","75.1","W","51.8","W"
"US1GAGW0033","DULUTH 0.9 ENE, GA US","34.0079","-84.1377","326.1","2019",,,,,,,,,,,,,"2.57"," ,N,0619, ",,,,,"45.85"," ,N",,,,,,,,
"USC00098600","TAYLORSVILLE, GA US","34.086","-84.9827","219.8","2019",,,,,,,,,,,,,,,,,,,"51.27"," ,7",,,,,,,,
"USC00098842","TUGALO DAM, GA US","34.71276","-83.35198","234.7","2019",,,,,,,,,,,,,"3.37"," ,7,1031, ",,,,,"66.26"," ,7",,,,,,,,
"US1GABN0001","BALDWIN 1.4 ESE, GA US","34.482127","-83.529279","403.9","2019",,,,,,,,,,,,,"2.71"," ,N,0420, ",,,,,"62.35"," ,N",,,,,,,,
"US1GADK0007","NORTH DECATUR 3.0 NNE, GA US","33.848332","-84.274747","306.6","2019",,,,,,,,,,,,,"2.13"," ,N,0609, ",,,,,"51.59"," ,N",,,,,,,,
"US1GATE0004","MCRAE 6.6 SE, GA US","31.996184","-82.819866","65.2","2019",,,,,,,,,,,,,"4.12"," ,N,1016, ",,,,,"41.82"," ,N",,,,,,,,
"USC00090311","APPLING 2 NW, GA US","33.55731","-82.33683","120.7","2019","2239",,"        0",,"         0","7","19","7,0130, ","0"," ,7,1231,+","0.0"," ,7,1231,+","3.70"," ,7,1214, ","99","7,1004,+","2547","1","42.97"," ,7","0.0"," ,7","64.3","7","76.8","7","51.9","7"
"USC00091640","CARROLLTON, GA US","33.5972","-85.0805","303.3","2019","1983",,"        0",,"         0","7","19","7,0130, ","0"," ,7,1231,+","0.0"," ,7,1231,+","2.46"," ,7,0911, ","98","7,0910,+","2803","3","54.06"," ,7","0.0"," ,7","63.0","7","74.4","7","51.7","7"
"US1GANW0001","COVINGTON 2.4 SW, GA US","33.574753","-83.877551","224.9","2019",,,,,,,,,,,,,"3.50"," ,N,0609, ",,,,,"46.24"," ,N",,,,,,,,
"USR0000GMID","MIDWAY GEORGIA, GA US","31.7842","-81.4386","6.1","2019","2898",,,,,,"27","U,0131, ",,,,,,,"102","U,0527, ","1391","6",,,,,"69.2","U","80.3","U","58.1","U"
"US1GAHS0011","HAWKINSVILLE 9.1 NW, GA US","32.363986","-83.595833","102.7","2019",,,,,,,,,,,,,"2.49"," ,N,0124, ",,,,,"42.13"," ,N",,,,,,,,
"USC00096093","MOUNTAIN CITY 2 SW, GA US","34.90467","-83.41287","1055.8","2019","623",,"        0",,"         0","7","10","7,0122, ","0","T,7,0120,+","0.0","T,7,1202,+",,,"85","7,0815,+","4095","3",,,"0.0","T,7","55.7","7","64.7","7","46.6","7"
"USR0000GSTE","STERLING GEORGIA, GA US","31.2569","-81.6106","2.1","2019","2914",,,,,,"27","U,0131, ",,,,,,,"103","U,0527, ","1352","0",,,,,"69.4","U","80.9","U","57.9","U"
"USC00099124","WARNER ROBINS, GA US","32.6094","-83.6163","128.0","2019","2718",,"        0",,"         0","7","24","7,0130, ","0"," ,7,1231,+","0.0"," ,7,1231,+","2.00"," ,7,1222,+","100","7,1004,+","2034","1","51.73"," ,7","0.0"," ,7","67.2","7","77.9","7","56.5","7"
"USW00003888","ATLANTA FULTON CO AIRPORT, GA US","33.77917","-84.52139","256.0","2019","2227",,,,,,"21","W,1113,+",,,,,"2.74"," ,W,0608, ","101","W,0730, ","2630","4","44.70"," ,W",,,"64.4","W","75.2","W","53.6","W"
"USR0000GSTA","STAFFORD CUIS GEORGIA, GA US","30.9172","-81.4294","7.6","2019","3012",,,,,,"22","U,0131, ",,,,,,,"101","U,0716,+","1309","3",,,,,"69.8","U","80.2","U","59.4","U"
"USC00094230","HELEN, GA US","34.6996","-83.7261","455.1","2019","1241",,"        0",,"         0","7","18","7,1114,+","0"," ,7,1231,+","0.0"," ,7,1231,+","2.42"," ,7,0420, ","97","7,0916, ","3588","2","86.67"," ,7","0.0"," ,7","59.1","7","70.2","7","47.9","7"
"USC00099486","WINTERVILLE, GA US","33.9664","-83.2911","271.3","2019","1942",,"        0",,"         0","7","21","7,0131,+","0"," ,7,1231,+","0.0"," ,7,1231,+","3.38"," ,7,0609, ","98","7,0530, ","2931","6","47.84"," ,7","0.0"," ,7","62.9","7","74.7","7","51.0","7"
"USR0000GBAX","BAXLEY GEORGIA, GA US","31.7136","-82.3878","33.2","2019","2919",,,,,,"28","U,1219,+",,,,,,,"100","U,0526,+","1482","2",,,,,"69.0","U","80.2","U","57.8","U"
"USR0000GBRE","BRENDER GEORGIA, GA US","33.0097","-83.7397","91.4","2019","2530",,,,,,"21","U,0131,+",,,,,,,"103","U,0917, ","2227","3",,,,,"66.0","U","78.8","U","53.2","U"
"US1GAHS0016","KATHLEEN 2.5 NW, GA US","32.525564","-83.631236","105.2","2019",,,,,,,,,,,,,"2.01"," ,N,1223, ",,,,,"43.79"," ,N",,,,,,,,
"US1GAWL0001","LOGANVILLE 4.5 SW, GA US","33.79809","-83.95831","285.9","2019",,,,,,,,,,,,,,,,,,,"54.85"," ,N",,,,,,,,
"US1GAGW0016","LAWRENCEVILLE 4.2 SW, GA US","33.8996","-84.03493","303.9","2019",,,,,,,,,,,,,"2.46"," ,N,0419, ",,,,,"49.37"," ,N",,,,,,,,
"US1GAMI0003","DARIEN 4.2 NNE, GA US","31.424722","-81.395833","5.8","2019",,,,,,,,,,,,,"5.60"," ,N,1223, ",,,,,"57.02"," ,N",,,,,,,,
"USC00092180","COMMERCE 4 NNW, GA US","34.2625","-83.4895","249.9","2019","1908",,"        0",,"         0","7","22","7,1114, ","0"," ,7,1231,+","0.0"," ,7,1231,+","5.39"," ,7,0420, ","97","7,1004,+","2969","3","57.43"," ,7","0.0"," ,7","62.7","7","74.0","7","51.3","7"
"US1GAMI0005","TOWNSEND 5.5 SE, GA US","31.57226599","-81.36061917","0.9","2019",,,,,,,,,,,,,"5.86"," ,N,1223, ",,,,,"49.03"," ,N",,,,,,,,
"US1GAFY0016","PEACHTREE CITY 2.9 SSE, GA US","33.356746673584","-84.5432891845703","236.5","2019",,,,,,,,,,,,,"4.46"," ,N,0609, ",,,,,"52.39"," ,N",,,,,,,,
"USC00098661","THOMASTON 4 SE, GA US","32.867","-84.2654","189.0","2019",,,"        0",,"         0","7",,,"0"," ,7,1231,+","0.0"," ,7,1231,+",,,,,,,,,"0.0"," ,7",,,,,,
"USW00053819","PEACHTREE CITY FALCON FIELD, GA US","33.35528","-84.56694","243.2","2019","2458",,,,,,"21","W,0131,+",,,,,"4.37"," ,W,0419, ","100","W,1003,+","2362","5","47.94"," ,W",,,"65.7","W","77.3","W","54.1","W"
"US1GADG0005","EASTMAN 2.1 ENE, GA US","32.205826","-83.145595","99.1","2019",,,,,,,,,,,,,"5.00"," ,N,0820, ",,,,,"59.62"," ,N",,,,,,,,
"US1GADG0004","CHAUNCEY 2.6 SW, GA US","32.0791","-83.0949","104.5","2019",,,,,,,,,,,,,,,,,,,"39.83"," ,N",,,,,,,,
"USC00094862","KITE, GA US","32.7127","-82.5415","94.8","2019","2502",,"        0",,"         0","7","21","7,0131, ","0"," ,7,1231,+","0.0"," ,7,1231,+","2.66"," ,7,0720, ","102","7,0719,+","2157","6","53.70"," ,7","0.0"," ,7","66.1","7","78.6","7","53.5","7"
"USW00063856","BRUNSWICK 23 S, GA US","30.8078","-81.4596","7.6","2019","2910",,,,,,"28","R,0131, ",,,,,"2.80"," ,R,1222, ","98","R,0625, ","1190","0","44.53"," ,R",,,"69.8","R","78.1","R","61.5","R"
"USC00094623","JACKSON DAM, GA US","33.32","-83.8436","131.1","2019",,,,,,,,,,,,,"3.35"," ,H,0104, ",,,,,"36.33"," ,H",,,,,,,,
"USR0000GBRA","BRASSTOWN NUMBER 1 GEORGIA, GA US","34.8028","-83.71","999.7","2019","1062",,,,,,"13","U,0121, ",,,,,,,"90","U,0912, ",,,,,,,"57.9","U","66.1","U","49.6","U"
"USC00090253","AMERICUS, GA US","32.0306","-84.2461","121.0","2019",,,"        0",,"         0","7",,,"0"," ,7,1231,+","0.0"," ,7,1231,+","2.60"," ,7,0608, ",,,,,"55.53"," ,7","0.0"," ,7",,,,,,
"US1GAJC0021","JEFFERSON 5.5 WSW, GA US","34.092","-83.681","281.0","2019",,,,,,,,,,,,,"4.20"," ,N,0706, ",,,,,"56.74"," ,N",,,,,,,,
"US1GACT0001","POOLER 1.2 NNE, GA US","32.121931","-81.253072","7.3","2019",,,,,,,,,,,,,"6.30"," ,N,1116, ",,,,,"51.51"," ,N",,,,,,,,
"USC00094170","HAWKINSVILLE, GA US","32.2843","-83.4681","74.7","2019",,,"        0",,"         0","7",,,"0"," ,7,1231,+","0.0"," ,7,1231,+","3.18"," ,7,0124, ",,,"2042","6","50.63"," ,7","0.0"," ,7",,,,,,
"US1GACT0003","SAVANNAH 3.9 SSW, GA US","31.968862","-81.146314","3.7","2019",,,,,,,,,,,,,,,,,,,"50.63"," ,N",,,,,,,,
"US1GAFY0007","FAYETTEVILLE 3.3 SSE, GA US","33.4031","-84.4342","274.3","2019",,,,,,,,,,,,,"5.12"," ,N,0609, ",,,,,"55.49"," ,N",,,,,,,,
"USR0000GMET","METTER GEORGIA, GA US","32.3911","-82.0372","30.2","2019","2862",,,,,,"26","U,0130, ",,,,,,,"101","U,0702,+","1656","1",,,,,"68.3","U","79.7","U","56.9","U"
"US1GAMD0005","THOMSON 2.6 S, GA US","33.429037","-82.506052","137.5","2019",,,,,,,,,,,,,"3.23"," ,N,0609, ",,,,,"53.64"," ,N",,,,,,,,
"USC00093538","FORT STEWART, GA US","31.86945","-81.62358","28.0","2019","3113",,,,,,"28","7,0201,+",,,,,"3.28"," ,7,1016, ","101","7,0527,+","1244","4","46.57"," ,7",,,"70.3","7","81.3","7","59.3","7"
"USC00099506","WOODBURY, GA US","32.9783","-84.5982","222.5","2019",,,"        0",,"         0","7",,,"0"," ,7,1231,+","0.0"," ,7,1231,+","3.31"," ,7,1020, ",,,,,"58.12"," ,7","0.0"," ,7",,,,,,
"US1GACB0006","KENNESAW 5.6 SW, GA US","33.956597","-84.671665","318.2","2019",,,,,,,,,,,,,"3.34"," ,N,0721, ",,,,,"58.14"," ,N",,,,,,,,
"USC00098657","THE ROCK RANCH, GA US","32.96416","-84.23027","250.2","2019",,,,,,,,,,,,,,,,,,,,,,,,,,,,
"US1GAPE0001","FORT VALLEY 0.7 ESE, GA US","32.551369","-83.877092","146.6","2019",,,,,,,,,,,,,"1.90"," ,N,0124, ",,,,,"43.37"," ,N",,,,,,,,
"US1GATH0004","THOMASVILLE 5.1 ESE, GA US","30.8176","-83.8965","84.1","2019",,,"        0",,"         0","N",,,"0"," ,N,1231,+","0.0"," ,N,1231,+","2.12"," ,N,1030, ",,,,,"48.48"," ,N","0.0"," ,N",,,,,,
"USC00099194","WAYNESBORO 2 S, GA US","33.07129","-82.00728","84.4","2019","2469",,,,,,"22","7,0130, ",,,,,"2.93"," ,7,1116, ","101","7,1005,+","2197","8","43.80"," ,7",,,"66.0","7","78.6","7","53.4","7"
"USR0000GPLA","PLAINS SUMTER GEORGIA, GA US","32.0097","-84.33","160.3","2019","2751",,,,,,"25","U,0130, ",,,,,,,"102","U,0917, ","1719","9",,,,,"67.9","U","78.9","U","56.9","U"
"US1GALB0004","MIDWAY 3.3 ENE, GA US","31.818045","-81.374411","4.9","2019",,,,,,,,,,,,,"5.13"," ,N,1223, ",,,,,"50.98"," ,N",,,,,,,,
"US1GAOC0001","WATKINSVILLE 1.8 NNE, GA US","33.884424","-83.3914","203.0","2019",,,,,,,,,,,,,"5.73"," ,N,0609, ",,,,,"49.44"," ,N",,,,,,,,
"USW00053838","GAINESVILLE LEE GILMER MEMORIAL AIRPORT, GA US","34.27194","-83.83028","388.6","2019","2031",,,,,,"21","W,0121, ",,,,,"3.01"," ,W,0419, ","96","W,1004,+","2885","9","50.01"," ,W",,,"63.2","W","72.8","W","53.6","W"
"US1GACW0002","SHARPSBURG 6.0 N, GA US","33.42731","-84.66073","270.4","2019",,,,,,,,,,,,,"6.05"," ,N,0609, ",,,,,"54.96"," ,N",,,,,,,,
"US1GABD0001","MILLEDGEVILLE 6.5 SSE, GA US","32.997247","-83.199819","115.5","2019",,,,,,,,,,,,,"2.18"," ,N,1223, ",,,,,"44.51"," ,N",,,,,,,,
"US1GACW0009","NEWNAN 2.6 W, GA US","33.384001","-84.833787","266.4","2019",,,,,,,,,,,,,"5.23"," ,N,0609, ",,,,,"56.88"," ,N",,,,,,,,
"US1GAHY0008","MCDONOUGH 7.0 ENE, GA US","33.478513","-84.027437","210.9","2019",,,,,,,,,,,,,"3.63"," ,N,0609, ",,,,,"47.49"," ,N",,,,,,,,
"US1GAOC0009","WATKINSVILLE 1.6 ENE, GA US","33.8701","-83.3823","201.2","2019",,,,,,,,,,,,,"4.91"," ,N,0609, ",,,,,"49.33"," ,N",,,,,,,,
"USC00090236","ALTO 4 SE, GA US","34.4416","-83.5161","279.8","2019","1642",,"        0",,"         0","7","19","7,0131, ","0"," ,7,1231,+","0.0"," ,7,1231,+","2.39"," ,7,1031, ","97","7,1004,+","3220","7","55.96"," ,7","0.0"," ,7","61.2","7","72.6","7","49.9","7"
"US1GACL0007","VILLA RICA 1.1 SSE, GA US","33.718907","-84.912122","350.8","2019",,,,,,,,,,,,,"2.19"," ,N,0419,+",,,,,"53.10"," ,N",,,,,,,,
"US1GAPL0003","CEDARTOWN 2.9 SE, GA US","33.985803","-85.224726","274.0","2019",,,,,,,,,,,,,"3.69"," ,N,1027, ",,,,,"67.06"," ,N",,,,,,,,
"US1GACL0006","CARROLLTON 3.2 SW, GA US","33.555127","-85.120265","322.2","2019",,,,,,,,,,,,,"3.00"," ,N,0419, ",,,,,"54.09"," ,N",,,,,,,,
"USC00093621","GAINESVILLE, GA US","34.3006","-83.86","356.6","2019",,,"        0",,"         0","7",,,"0"," ,7,1231,+","0.0"," ,7,1231,+","2.48"," ,7,0420, ",,,,,"48.73"," ,7","0.0"," ,7",,,,,,
"US1GACL0005","TEMPLE 0.7 E, GA US","33.735083","-85.019083","353.9","2019",,,,,,,,,,,,,"2.40"," ,N,0419, ",,,,,"53.65"," ,N",,,,,,,,
"US1GAUN0008","BLAIRSVILLE 8.5 WSW, GA US","34.8362998962402","-84.0943145751953","610.8","2019",,,,,,,,,,,,,"2.42"," ,N,1217, ",,,,,"64.90"," ,N",,,,,,,,
"US1GAJC0004","BRASELTON 3.0 NE, GA US","34.133156","-83.752158","249.9","2019",,,,,,,,,,,,,"2.95"," ,N,0805, ",,,,,"51.59"," ,N",,,,,,,,
"US1GAPL0005","CEDARTOWN 4.6 SSW, GA US","33.955","-85.284","256.3","2019",,,,,,,,,,,,,"2.78"," ,N,1027, ",,,,,"60.98"," ,N",,,,,,,,
"US1GAWT0003","SYLVESTER 5.5 WSW, GA US","31.485868","-83.9145","115.8","2019",,,,,,,,,,,,,,,,,,,"40.20"," ,N",,,,,,,,
"USR0000GCAM","CAMP MERRILL GEORGIA, GA US","34.63","-84.0975","531.3","2019","1776",,,,,,"14","U,0121, ",,,,,,,"95","U,0813, ","3070","6",,,,,"62.0","U","70.6","U","53.3","U"
"USR0000GJON","JONES ISLAND GEORGIA, GA US","30.8289","-82.36","34.7","2019","3054",,,,,,"29","U,1219, ",,,,,,,"102","U,0604, ","1021","0",,,,,"70.4","U","82.0","U","58.9","U"
"US1GAOG0012","ARNOLDSVILLE 3.7 SSW, GA US","33.86014","-83.24175","195.1","2019",,,,,,,,,,,,,"2.11"," ,N,1214, ",,,,,"39.67"," ,N",,,,,,,,
"USW00093842","COLUMBUS METROPOLITAN AIRPORT, GA US","32.5161","-84.9422","119.5","2019","2945",,,,,,"24","W,0130, ",,,,,"2.84"," ,W,1222, ","101","W,1004,+","1770","3","49.00"," ,W",,,"68.5","W","79.1","W","57.9","W"
"USC00093060","ELBERTON 2 N, GA US","34.1409","-82.8551","164.6","2019","1821",,"        0",,"         0","7","20","7,0201,+","0"," ,7,1231,+","0.0"," ,7,1231,+","2.00"," ,7,0609, ","97","7,1004,+","2995","7","44.06"," ,7","0.0"," ,7","61.8","7","73.9","7","49.7","7"
"US1GAFY0001","WOOLSEY 2.5 SSW, GA US","33.326944","-84.423611","236.5","2019",,,,,,,,,,,,,"5.05"," ,N,0609, ",,,,,"50.50"," ,N",,,,,,,,
"USW00093845","VALDOSTA REGIONAL AIRPORT, GA US","30.7825","-83.27667","60.4","2019","2983",,"        0",,"         0","W","27","W,1219,+","0"," ,W,1231,+","0.0"," ,W,1231,+","4.15"," ,W,0819, ","102","W,0604, ","1413","0","43.99"," ,W","0.0"," ,W","69.5","W","81.2","W","57.8","W"
"US1GAOC0016","BISHOP 2.6 WSW, GA US","33.80187","-83.47837","197.5","2019",,,,,,,,,,,,,,,,,,,"39.43"," ,N",,,,,,,,
"USR0000GNEW","NEWNAN GEORGIA, GA US","33.3653","-84.8594","236.2","2019","2295",,,,,,"19","U,0130, ",,,,,,,"100","U,0909, ","2465","6",,,,,"64.8","U","76.5","U","53.1","U"
"USR0000GTAL","TALLULAH NUMBER 1 GEORGIA, GA US","34.9058","-83.3344","831.5","2019","1424",,,,,,"17","U,0121, ",,,,,,,"92","U,0912,+","3319","1",,,,,"60.5","U","68.7","U","52.2","U"
"US1GAWF0004","DALTON 7.8 SE, GA US","34.676629","-84.895532","219.2","2019",,,,,,,,,,,,,,,,,,,"59.12"," ,N",,,,,,,,
"USR0000GDAW","DAWSONVILLE GEORGIA, GA US","34.3761","-84.0597","369.7","2019","1881",,,,,,"18","U,0121, ",,,,,,,"99","U,0912, ","2954","3",,,,,"62.6","U","74.3","U","50.9","U"
"US1GAHB0007","DEMOREST 6.2 WNW, GA US","34.611431","-83.639828","410.0","2019",,,,,,,,,,,,,"3.39"," ,N,1031, ",,,,,"62.09"," ,N",,,,,,,,
"USC00096335","NEWNAN 7 WNW, GA US","33.3996","-84.915","242.3","2019","1868",,"        0",,"         0","7","19","7,1114,+","0"," ,7,1231,+","0.0"," ,7,1231,+",,,"98","7,0910, ","2770","0",,,"0.0"," ,7","62.7","7","74.6","7","50.8","7"
"USR0000GMCR","MCRAE GEORGIA, GA US","32.0097","-82.9","76.2","2019","2824",,,,,,"25","U,1220,+",,,,,,,"101","U,1004,+","1664","6",,,,,"68.3","U","80.6","U","56.0","U"
"US1GAHB0005","HELEN 9.5 ENE, GA US","34.774199","-83.580019","536.4","2019",,,,,,,,,,,,,"3.76"," ,N,1031, ",,,,,"79.19"," ,N",,,,,,,,
"USC00096219","NAHUNTA 6 NE, GA US","31.2738","-81.9197","20.7","2019",,,"        0",,"         0","H",,,"0"," ,H,1231,+","0.0"," ,H,1231,+","3.40"," ,H,0407, ",,,,,"52.31"," ,H","0.0"," ,H",,,,,,
"US1GAFN0001","BLUE RIDGE 9.4 WNW, GA US","34.916583","-84.476383","573.0","2019",,,,,,,,,,,,,"4.07"," ,N,1031, ",,,,,"78.60"," ,N",,,,,,,,
"US1GACL0015","VILLA RICA 2.6 NNW, GA US","33.7685852050781","-84.9379959106445","356.3","2019",,,,,,,,,,,,,"2.37"," ,N,0124, ",,,,,"48.09"," ,N",,,,,,,,
"US1GALW0004","LAKE PARK 2.8 W, GA US","30.683004","-83.235972","49.1","2019",,,,,,,,,,,,,"2.56"," ,N,0815, ",,,,,"47.04"," ,N",,,,,,,,
"US1GAFN0007","MORGANTON 3.1 SSE, GA US","34.834401","-84.218529","588.6","2019",,,,,,,,,,,,,"2.37"," ,N,0120, ",,,,,"74.76"," ,N",,,,,,,,
"US1GAHT0002","HARTWELL 5.6 NW, GA US","34.404068","-83.008125","243.5","2019",,,,,,,,,,,,,"2.67"," ,N,0802, ",,,,,"48.29"," ,N",,,,,,,,
"USC00099291","WEST POINT, GA US","32.8861","-85.1838","175.3","2019",,,"        0",,"         0","7",,,"0"," ,7,1231,+","0.0"," ,7,1231,+","3.08"," ,7,0419, ",,,,,"49.63"," ,7","0.0"," ,7",,,,,,
"USR0000GCOO","ADEL GEORGIA, GA US","31.1097","-83.4269","46.9","2019","2994",,,,,,"27","U,1219, ",,,,,,,"102","U,0917,+","1317","5",,,,,"69.7","U","81.4","U","57.9","U"
"US1GACH0006","HOMELAND 0.7 N, GA US","30.865459","-82.025608","28.0","2019",,,,,,,,,,,,,"4.21"," ,N,0725, ",,,,,"53.29"," ,N",,,,,,,,
"USW00013837","AUGUSTA DANIEL FIELD AIRPORT, GA US","33.46694","-82.03861","128.9","2019","3014",,,,,,"27","W,0130, ",,,,,"5.26"," ,W,1213, ","101","W,1004, ",,,"47.98"," ,W",,,"68.9","W","78.7","W","59.0","W"
"US1GACQ0002","MOULTRIE 6.2 SW, GA US","31.115986","-83.85766","82.3","2019",,,,,,,,,,,,,,,,,,,"38.86"," ,N",,,,,,,,
"USR0000GCOH","COHUTTA NUMBER 1 GEORGIA, GA US","34.9225","-84.6594","525.5","2019","1776",,,,,,"13","U,0121, ",,,,,,,"95","U,0912, ","2955","9",,,,,"61.6","U","71.2","U","52.0","U"
"US1GAEF0013","MARLOW 0.0 S, GA US","32.270433","-81.392146","21.3","2019",,,,,,,,,,,,,"3.49"," ,N,1116, ",,,,,"54.28"," ,N",,,,,,,,
"US1GAEF0017","SPRINGFIELD 2.4 E, GA US","32.367047","-81.267318","20.1","2019",,,,,,,,,,,,,"6.02"," ,N,1116, ",,,,,"52.99"," ,N",,,,,,,,
"USR0000GMCI","MILLEDGEVILLE GEORGIA, GA US","32.7797","-83.25","128.0","2019","2610",,,,,,"22","U,0131, ",,,,,,,"102","U,0917,+","2023","8",,,,,"66.7","U","79.1","U","54.2","U"
"USC00091266","BROOKLET 1 W, GA US","32.37663","-81.67388","54.9","2019",,,,,,,"28","7,0130, ",,,,,"3.40"," ,7,0612, ","100","7,0529,+",,,"47.33"," ,7",,,"68.1","7","79.6","7","56.4","7"
"USC00092475","DAHLONEGA 4 WSW, GA US","34.5069","-84.0207","445.0","2019",,,"        0",,"         0","7",,,"0"," ,7,1231,+","0.0"," ,7,1231,+","4.57"," ,7,1031, ",,,,,"75.50"," ,7","0.0"," ,7",,,,,,
"USR0000GDAL","DALLAS GEORGIA, GA US","33.8333","-84.74","276.5","2019","2034",,,,,,"18","U,1113,+",,,,,,,"99","U,0913,+","2812","3",,,,,"63.1","U","74.9","U","51.3","U"
"US1GATG0001","DANVILLE 3.3 W, GA US","32.601631","-83.303154","143.0","2019",,,,,,,,,,,,,"2.51"," ,N,1223, ",,,,,"43.17"," ,N",,,,,,,,
"US1GACW0016","NEWNAN 4.1 N, GA US","33.437729","-84.778099","287.4","2019",,,,,"         0","N",,,,,"0.0"," ,N,1231,+","3.97"," ,N,0609, ",,,,,"49.34"," ,N","0.0"," ,N",,,,,,
"US1GACW0014","SENOIA 0.9 ENE, GA US","33.31432","-84.53682","253.9","2019",,,,,,,,,,,,,"4.19"," ,N,0609, ",,,,,"54.42"," ,N",,,,,,,,
"USW00063828","NEWTON 8 W, GA US","31.3127","-84.4706","53.6","2019","2658",,,,,,"24","R,0130, ",,,,,"3.09"," ,R,1217, ","100","R,0926, ",,,"49.74"," ,R",,,"68.0","R","79.6","R","56.3","R"
"USW00063829","NEWTON 11 SW, GA US","31.1923","-84.4465","47.5","2019","2769",,,,,,"26","R,0130, ",,,,,"2.93"," ,R,0803, ","100","R,0917, ",,,"46.82"," ,R",,,"68.6","R","79.8","R","57.3","R"
"US1GAJN0006","MACON 6.8 ENE, GA US","32.876557","-83.549213","154.2","2019",,,,,,,,,,,,,"2.29"," ,N,1223, ",,,,,"51.26"," ,N",,,,,,,,
"US1GATP0003","LA GRANGE 1.2 NNE, GA US","33.057226","-85.027337","225.2","2019",,,,,,,,,,,,,"4.10"," ,N,0609, ",,,,,"56.24"," ,N",,,,,,,,
"USC00095863","MIDVILLE EXPERIMENTAL STATION, GA US","32.8753","-82.2156","85.3","2019","2502",,"        0",,"         0","7","23","7,0131, ","0"," ,7,1231,+","0.0"," ,7,1231,+","2.15"," ,7,1116, ","101","7,1004,+","2142","0","40.28"," ,7","0.0"," ,7","66.1","7","78.0","7","54.3","7"
"US1GABH0002","FITZGERALD 4.3 N, GA US","31.768203","-83.264034","96.6","2019",,,,,,,,,,,,,"3.27"," ,N,0304, ",,,,,"39.52"," ,N",,,,,,,,
"US1GATP0001","LA GRANGE 10.6 ESE, GA US","32.973461","-84.8698","240.8","2019",,,,,,,,,,,,,"5.56"," ,N,0419, ",,,,,"56.94"," ,N",,,,,,,,
"USC00092006","CLEVELAND, GA US","34.5859","-83.7658","477.6","2019","1252",,"        0",,"         0","7","16","7,0130,+","0"," ,7,1231,+","0.0"," ,7,1231,+","4.00"," ,7,1031, ","95","7,1004, ","3617","3","71.53"," ,7","0.0"," ,7","59.1","7","71.5","7","46.6","7"
"USC00095988","MONTICELLO, GA US","33.3329","-83.6975","157.9","2019","2162",,"        0",,"         0","7","21","7,0120, ","0"," ,7,1231,+","0.0"," ,7,1231,+","3.11"," ,7,1222, ","99","7,0915,+","2527","9","35.61"," ,7","0.0"," ,7","64.2","7","77.8","7","50.6","7"
"US1GACQ0009","MOULTRIE 6.8 E, GA US","31.16195","-83.65499722","70.7","2019",,,,,,,,,,,,,"2.50"," ,N,1222,+",,,,,"30.03"," ,N",,,,,,,,
"USC00092485","DALLAS 7 NE, GA US","33.9982","-84.751","313.3","2019","2070",,"        0",,"         0","7","17","7,1113, ","0","T,7,0116, ","0.0","T,7,0116, ","2.23"," ,7,0419, ","100","7,0914, ","3010","2","48.87"," ,7","0.0","T,7","62.9","7","74.7","7","51.1","7"
"USC00097808","SAPELO ISLAND, GA US","31.39806","-81.28077","3.0","2019","3037",,,,"         0","7","31","7,0131, ",,,"0.0"," ,7,1231,+","5.43"," ,7,1223, ","99","7,0811,+","1145","0","53.20"," ,7","0.0"," ,7","70.4","7","79.2","7","61.5","7"
"US1GARB0005","DILLARD 0.7 NNW, GA US","34.984167","-83.391667","686.1","2019",,,"        0",,"         0","N",,,"0"," ,N,1231,+","0.0"," ,N,1231,+","2.74"," ,N,1031, ",,,,,"75.83"," ,N","0.0"," ,N",,,,,,
"USC00092361","CRISP CO POWER DAM, GA US","31.8453","-83.9409","74.7","2019","2778",,,,,,"26","7,0130, ",,,,,"2.76"," ,7,1016, ","102","7,0918, ","1878","5","45.33"," ,7",,,"67.7","7","78.4","7","56.9","7"
"USC00090181","ALLATOONA DAM 2, GA US","34.165","-84.73","297.2","2019",,,"        0",,"         0","7",,,"0"," ,7,1231,+","0.0"," ,7,1231,+",,,,,,,"51.31"," ,7","0.0"," ,7",,,,,,
"USR0000GCML","CAMILLA GEORGIA, GA US","31.2142","-84.2364","18.9","2019","3011",,,,,,"27","U,1219, ",,,,,,,"101","U,0917, ","1347","1",,,,,"69.6","U","80.8","U","58.3","U"
"US1GASY0003","ELLAVILLE 4.5 ENE, GA US","32.25444444","-84.23472222","156.1","2019",,,,,,,,,,,,,"2.79"," ,N,1223, ",,,,,"50.49"," ,N",,,,,,,,
"US1GAWS0004","RAYLE 3.0 NNE, GA US","33.832642","-82.895846","162.5","2019",,,,,,,,,,,,,"2.29"," ,N,0609, ",,,,,"39.89"," ,N",,,,,,,,
"USW00003813","MACON MIDDLE GA REGIONAL AIRPORT, GA US","32.6847","-83.6527","104.5","2019","2733",,,,,,"22","W,0131, ",,,,,"3.11"," ,W,1213, ","103","W,1004,+","2002","4","44.58"," ,W",,,"67.2","W","79.8","W","54.7","W"
"USR0000GLOU","LOUISVILLE GEORGIA, GA US","32.975","-82.3528","60.0","2019","2694",,,,,,"23","U,0131,+",,,,,,,"102","U,0927, ","1957","0",,,,,"67.2","U","79.4","U","55.0","U"
"USC00094648","JASPER 1 NNW, GA US","34.4758","-84.4461","446.5","2019","1397",,"        0",,"         0","7","15","7,0122,+","0"," ,7,1231,+","0.0"," ,7,1231,+","2.94"," ,7,1031, ","94","7,0914, ","3493","4","57.36"," ,7","0.0"," ,7","59.7","7","69.5","7","49.9","7"
"USC00095979","MONTEZUMA 2 NW, GA US","32.3176","-84.065","91.1","2019",,,"        0",,"         0","7",,,"0"," ,7,1231,+","0.0"," ,7,1231,+","3.10"," ,7,1224, ",,,,,"35.57"," ,7","0.0"," ,7",,,,,,
"USC00092450","CUTHBERT, GA US","31.76722","-84.79306","140.5","2019",,,,,,,,,,,,,,,,,,,,,,,,,,,,
"US1GALB0010","MIDWAY 12.7 ESE, GA US","31.70033","-81.24706","5.2","2019",,,,,,,,,,,,,"5.41"," ,N,1223, ",,,,,"50.90"," ,N",,,,,,,,
"USR0000GTOC","TOCCOA NUMBER 1 GEORGIA, GA US","34.765","-84.0744","736.1","2019","1014",,,,,,"12","U,0121, ",,,,,,,"92","U,0913,+","3568","3",,,,,"58.2","U","69.5","U","46.8","U"
"USW00093801","ROME R B RUSSELL AIRPORT, GA US","34.34778","-85.16111","194.8","2019","2305",,,,,,"18","W,0130, ",,,,,"3.26"," ,W,0720, ","101","W,1003,+","2779","0","59.76"," ,W",,,"64.1","W","75.8","W","52.4","W"
"US1GAFT0024","ATLANTA 2.3 NE, GA US","33.7881","-84.3966","278.3","2019",,,,,,,,,,,,,"2.89"," ,N,0708, ",,,,,"57.28"," ,N",,,,,,,,
"US1GACM0019","ST. MARYS 3.0 SE, GA US","30.723718","-81.54718","2.7","2019",,,,,,,,,,,,,"3.15"," ,N,1223, ",,,,,"41.50"," ,N",,,,,,,,
"US1GAFY0028","FAYETTEVILLE 2.1 NNE, GA US","33.475103","-84.45234","280.1","2019",,,,,,,,,,,,,"5.94"," ,N,0609, ",,,,,"51.47"," ,N",,,,,,,,
"USC00090969","BLAIRSVILLE EXPERIMENTAL STATION, GA US","34.8544","-83.9444","594.1","2019","1031",,"        0",,"         0","7","11","7,0130, ","0"," ,7,1231,+","0.0"," ,7,1231,+","3.31"," ,7,0414, ","91","7,1004,+","3830","6","66.39"," ,7","0.0"," ,7","57.8","7","70.4","7","45.1","7"
"USC00098677","THOMSON 1.5SE, GA US","33.45055","-82.48219","165.2","2019",,,,,,,,,,,,,,,,,,,"46.20"," ,7",,,,,,,,
"US1GATL0001","SASSER 0.2 WSW, GA US","31.717928","-84.3506009","94.2","2019",,,,,,,,,,,,,"3.02"," ,N,0124, ",,,,,"51.24"," ,N",,,,,,,,
"USC00098436","SUMMERVILLE, GA US","34.4546","-85.39","194.8","2019",,,"        0",,"         0","7",,,"0"," ,7,1231,+","0.0"," ,7,1231,+","4.42"," ,7,1026, ",,,,,"71.17"," ,7","0.0"," ,7",,,,,,
"USR0000GOCO","OCONEE NUMBER 1 GEORGIA, GA US","33.2083","-83.7136","145.1","2019","2521",,,,,,"22","U,0130, ",,,,,,,"101","U,0917, ","2232","9",,,,,"66.0","U","77.6","U","54.4","U"
"USC00090044","ADAIRSVILLE 5 SE, GA US","34.3407","-84.8347","291.4","2019",,,"        0",,"         0","7",,,"0"," ,7,1231,+","0.0"," ,7,1231,+","2.85"," ,7,1027, ",,,,,"58.20"," ,7","0.0"," ,7",,,,,,
"USC00093675","GERMANY VALLEY, GA US","34.9089","-83.4575","863.2","2019","714",,"        0",,"         0","7","12","7,0122, ","0","T,7,0120, ","0.0","T,7,0421,+","3.29"," ,7,0420, ","88","7,0814, ","4063","1","84.38"," ,7","0.0","T,7","56.3","7","66.0","7","46.6","7"
"USW00063850","WATKINSVILLE 5 SSE, GA US","33.7837","-83.3896","225.9","2019","2102",,,,,,"22","R,0130, ",,,,,"3.63"," ,R,0608, ","97","R,0717, ","2659","3","40.19"," ,R",,,"63.9","R","74.5","R","53.3","R"
"US1GAFT0019","EAST POINT 6.3 WNW, GA US","33.701367","-84.572244","264.6","2019",,,,,,,,,,,,,"3.45"," ,N,0609, ",,,,,"55.18"," ,N",,,,,,,,
