"STATION","NAME","LATITUDE","LONGITUDE","ELEVATION","DATE","CDSD","CDSD_ATTRIBUTES","DSND","DSND_ATTRIBUTES","DSNW","DSNW_ATTRIBUTES","EMNT","EMNT_ATTRIBUTES","EMSD","EMSD_ATTRIBUTES","EMSN","EMSN_ATTRIBUTES","EMXP","EMXP_ATTRIBUTES","EMXT","EMXT_ATTRIBUTES","HDSD","HDSD_ATTRIBUTES","PRCP","PRCP_ATTRIBUTES","SNOW","SNOW_ATTRIBUTES","TAVG","TAVG_ATTRIBUTES","TMAX","TMAX_ATTRIBUTES","TMIN","TMIN_ATTRIBUTES"
"USC00516122","MANOA 712.1, HI US","21.3113","-157.8157","73.2","2009",,,"        0",,"         0","0",,,"0"," ,0,1231,+","0.0"," ,0,1231,+","2.95"," ,0,0313, ",,,,,"48.98"," ,0","0.0"," ,0",,,,,,
"USC00518422","PUUKOHOLA HEIAU 98.1, HI US","20.0256","-155.822","40.5","2009","3278",,"        0",,"         0","0","59","0,0119,+","0"," ,0,1231,+","0.0"," ,0,1231,+","1.50"," ,0,0111, ","89","0,1003,+","0","0","6.27"," ,0","0.0"," ,0","74.0","0","80.2","0","67.7","0"
"USC00518543","PUUNENE 396, HI US","20.8571","-156.4313","70.1","2009",,,"        0",,"         0","0",,,"0"," ,0,1231,+","0.0"," ,0,1231,+","1.41"," ,0,0116, ",,,,,"10.13"," ,0","0.0"," ,0",,,,,,
"USC00517457","PAHOA 65, HI US","19.515","-154.9645","184.4","2009",,,"        0",,"         0","0",,,"0"," ,0,1231,+","0.0"," ,0,1231,+",,,,,,,,,"0.0"," ,0",,,,,,
"USR0000HPAL","PALI 2 HAWAII, HI US","19.3175","-155.2922","847.3","2009","983",,,,,,"49","U,0223,+",,,,,,,"87","U,0801, ","344","0",,,,,"66.8","U","74.2","U","59.5","U"
"USC00510140","ALEXANDER RESV 983, HI US","21.96","-159.53194","490.7","2009",,,"        0",,"         0","0",,,"0"," ,0,1231,+","0.0"," ,0,1231,+",,,,,,,,,"0.0"," ,0",,,,,,
"USC00512558","KAHOOLAWE 499.6, HI US","20.55694","-156.575","365.8","2009",,,"        0",,"         0","0","56","0,0314,+","0"," ,0,1231,+","0.0"," ,0,1231,+","1.82"," ,0,0128, ",,,,,"15.03"," ,0","0.0"," ,0",,,,,"66.1","0"
"USC00519629","WAIMEA 947, HI US","21.9591","-159.6759","6.1","2009","2975",,"        0",,"         0","0","52","0,1031,+","0"," ,0,1231,+","0.0"," ,0,1231,+","3.34"," ,0,0814, ","89","0,1021,+","0","0","9.11"," ,0","0.0"," ,0","73.5","0","82.1","0","64.9","0"
"USC00517209","PAAUHAU MAUKA 217.2, HI US","20.0699","-155.4444","341.4","2009",,,"        0",,"         0","0",,,"0"," ,0,1231,+","0.0"," ,0,1231,+",,,,,,,"82.11"," ,0","0.0"," ,0",,,,,,
"USR0000HMLK","MOLOKAI 1 HAWAII, HI US","21.115","-156.9475","833.0","2009","1255",,,,,,"50","U,0313,+",,,,,,,"88","U,1020,+","262","8",,,,,"67.7","U","75.1","U","60.3","U"
"USC00514171","KEAUOHANA 67.9, HI US","19.4132","-154.9522","231.6","2009",,,"        0",,"         0","0",,,"0"," ,0,1231,+","0.0"," ,0,1231,+",,,,,,,,,"0.0"," ,0",,,,,,
"USC00517566","PAIA 406, HI US","20.8963","-156.3791","62.5","2009",,,"        0",,"         0","0",,,"0"," ,0,1231,+","0.0"," ,0,1231,+","1.48"," ,0,1004, ",,,,,"26.60"," ,0","0.0"," ,0",,,,,,
"USC00512552","KAHOMA INTAKE 374, HI US","20.90472","-156.62583","609.6","2009",,,"        0",,"         0","0",,,"0"," ,0,1231,+","0.0"," ,0,1231,+",,,,,,,,,"0.0"," ,0",,,,,,
"USC00519980","WILHELMINA RISE 721, HI US","21.2982","-157.7852","335.3","2009",,,"        0",,"         0","0",,,"0"," ,0,1231,+","0.0"," ,0,1231,+","3.58"," ,0,0314, ",,,,,"32.22"," ,0","0.0"," ,0",,,,,,
"USC00519185","WAIALAE KAHALA 715, HI US","21.2733","-157.7803","3.0","2009",,,"        0",,"         0","0",,,"0"," ,0,1231,+","0.0"," ,0,1231,+","2.12"," ,0,0314, ",,,,,"15.73"," ,0","0.0"," ,0",,,,,,
"USC00511339","HAWI 168, HI US","20.2402","-155.8388","176.8","2009",,,"        0",,"         0","0",,,"0"," ,0,1231,+","0.0"," ,0,1231,+",,,,,,,"53.50"," ,0","0.0"," ,0",,,,,,
"USR0000HHAK","HAKALAU HAWAII, HI US","19.8211","-155.3306","1950.7","2009","0",,,,,,"32","U,0212,+",,,,,,,"77","U,1021, ","4331","4",,,,,"53.8","U","63.2","U","44.4","U"
"USC00510123","AIEA HEIGHTS 764.6, HI US","21.3948","-157.9101","237.7","2009",,,"        0",,"         0","0",,,"0"," ,0,1231,+","0.0"," ,0,1231,+","2.28"," ,0,0315, ",,,,,"41.09"," ,0","0.0"," ,0",,,,,,
"USR0000HHAI","HAKIOAWA HAWAII, HI US","20.5803","-156.5711","365.8","2009","2593",,,,,,"58","U,0313, ",,,,,,,"86","U,1007, ","4","2",,,,,"72.1","U","77.2","U","67.0","U"
"USC00515018","KULANI MAUKA 76, HI US","19.5833","-155.4549","2529.8","2009",,,"        0",,"         0","0",,,"0"," ,0,1231,+","0.0"," ,0,1231,+",,,,,,,,,"0.0"," ,0",,,,,,
"USC00518407","PUUKOLII 457.1, HI US","20.9285","-156.6735","128.3","2009","3671",,"        0",,"         0","0","56","0,0314, ","0"," ,0,1231,+","0.0"," ,0,1231,+",,,"90","0,0723, ","1","8","14.60"," ,0","0.0"," ,0","75.3","0","82.1","0","68.4","0"
"USC00518760","ULUPALAKUA RANCH 250, HI US","20.6487","-156.3982","579.1","2009",,,"        0",,"         0","0",,,"0"," ,0,1231,+","0.0"," ,0,1231,+",,,,,,,"23.52"," ,0","0.0"," ,0",,,,,,
"USC00517312","PAAUILO 221, HI US","20.04005","-155.37239","256.0","2009","1772",,"        0",,"         0","0","48","0,1210, ","0"," ,0,1231,+","0.0"," ,0,1231,+","4.72"," ,0,0422,+","87","0,0724, ",,,"118.23"," ,0","0.0"," ,0","69.7","0","78.1","0","61.4","0"
"USC00510240","BRYDESWOOD STATION 985, HI US","21.9221","-159.5375","219.5","2009",,,"        0",,"         0","0",,,"0"," ,0,1231,+","0.0"," ,0,1231,+",,,,,,,"41.50"," ,0","0.0"," ,0",,,,,,
"USC00518086","POLOLU LOOKOUT 179.3, HI US","20.2038","-155.735","149.4","2009",,,"        0",,"         0","0",,,"0"," ,0,1231,+","0.0"," ,0,1231,+",,,,,,,,,"0.0"," ,0",,,,,,
"USC00513987","KEALAKEKUA 4 74.8, HI US","19.5106","-155.9217","432.8","2009",,,"        0",,"         0","0",,,"0"," ,0,1231,+","0.0"," ,0,1231,+",,,,,,,"33.44"," ,0","0.0"," ,0",,,,,,
"USC00512896","KALAUPAPA 563, HI US","21.1901","-156.9827","9.1","2009",,,"        0",,"         0","0",,,"0"," ,0,1231,+","0.0"," ,0,1231,+",,,,,,,,,"0.0"," ,0",,,,,,
"USR0000HSFB","SCHOFIELD FIREBREAK HAWAII, HI US","21.5086","-158.1147","346.9","2009",,,,,,,,,,,,,,,,,"60","6",,,,,,,,,,
"USC00512410","KAENA POINT 841.3, HI US","21.561","-158.2382","403.9","2009",,,"        0",,"         0","0",,,"0"," ,0,1231,+","0.0"," ,0,1231,+",,,,,,,,,"0.0"," ,0",,,,,,
"USC00514830","KUALOA RANCH HEADQUARTERS 886.9, HI US","21.52037","-157.83885","14.6","2009",,,"        0",,"         0","0",,,"0"," ,0,1231,+","0.0"," ,0,1231,+",,,,,,,,,"0.0"," ,0",,,,,,
"USC00517540","PAIKO DRIVE 723.4, HI US","21.2803","-157.7335","1.5","2009",,,"        0",,"         0","0",,,"0"," ,0,1231,+","0.0"," ,0,1231,+","1.43"," ,0,1203, ",,,,,"15.35"," ,0","0.0"," ,0",,,,,,
"USC00516330","MOANUIAHEA 69.24, HI US","19.7391","-155.9583","859.5","2009",,,"        0",,"         0","0",,,"0"," ,0,1231,+","0.0"," ,0,1231,+",,,,,,,,,"0.0"," ,0",,,,,,
"USC00515000","KULA BRNCH STATION 324.5, HI US","20.7584","-156.3212","944.9","2009","300",,"        0",,"         0","0","45","0,0118, ","0"," ,0,1231,+","0.0"," ,0,1231,+","2.64"," ,0,0117, ","83","0,0812, ","859","3","18.03"," ,0","0.0"," ,0","63.6","0","71.4","0","55.8","0"
"USC00516697","NAPOOPOO 28, HI US","19.4688","-155.9094","121.9","2009",,,"        0",,"         0","0",,,"0"," ,0,1231,+","0.0"," ,0,1231,+",,,,,,,"22.60"," ,0","0.0"," ,0",,,,,,
"USC00517664","PALOLO VLY 718, HI US","21.3227","-157.7719","287.4","2009",,,"        0",,"         0","0",,,"0"," ,0,1231,+","0.0"," ,0,1231,+","5.92"," ,0,0812, ",,,,,"97.49"," ,0","0.0"," ,0",,,,,,
"USC00519603","WAIMEA ARBORETUM 892, HI US","21.6369","-158.0536","12.5","2009","3385",,"        0",,"         0","0","51","0,0223, ","0"," ,0,1231,+","0.0"," ,0,1231,+",,,"92","0,0603,+",,,"35.91"," ,0","0.0"," ,0","74.4","0","82.3","0","66.4","0"
"USC00515004","KULA HOSPITAL 267, HI US","20.7009","-156.3562","923.5","2009","176",,"        0",,"         0","0","44","0,0118, ","0"," ,0,1231,+","0.0"," ,0,1231,+","2.10"," ,0,1103, ","81","0,0813,+","1114","0","26.74"," ,0","0.0"," ,0","62.5","0","70.8","0","54.2","0"
"USC00510350","COCONUT ISLAND 840.1, HI US","21.4336","-157.7868","0.9","2009",,,"        0",,"         0","0",,,"0"," ,0,1231,+","0.0"," ,0,1231,+",,,,,,,,,"0.0"," ,0",,,,,,
"USC00510470","ELEELE 927, HI US","21.9059","-159.5789","45.7","2009",,,"        0",,"         0","0",,,"0"," ,0,1231,+","0.0"," ,0,1231,+",,,,,,,"20.27"," ,0","0.0"," ,0",,,,,,
"USC00518070","POLIPOLI SPRING 267.2, HI US","20.6772","-156.3299","1874.5","2009",,,"        0",,"         0","0",,,"0"," ,0,1231,+","0.0"," ,0,1231,+",,,,,,,,,"0.0"," ,0",,,,,,
"USC00519281","WAIHEE 837.5, HI US","21.4509","-157.8501","32.9","2009","3225",,"        0",,"         0","0","54","0,0314,+","0"," ,0,1231,+","0.0"," ,0,1231,+","4.24"," ,0,0310, ","86","0,1029, ","7","2","68.27"," ,0","0.0"," ,0","73.8","0","79.4","0","68.2","0"
"USC00513977","KEALAKEKUA 26.2, HI US","19.4918","-155.9117","451.1","2009",,,"        0",,"         0","0",,,"0"," ,0,1231,+","0.0"," ,0,1231,+",,,,,,,"38.46"," ,0","0.0"," ,0",,,,,,
"USR0000HHON","HONOKANAI A HAWAII, HI US","20.5089","-156.6817","21.3","2009","4655",,,,,,"62","U,0313, ",,,,,,,"91","U,1010, ","0","0",,,,,"77.8","U","83.5","U","72.1","U"
"USC00514829","KUALOA RANCH 885.6, HI US","21.5299","-157.8503","24.7","2009",,,"        0",,"         0","0",,,"0"," ,0,1231,+","0.0"," ,0,1231,+",,,,,,,,,"0.0"," ,0",,,,,,
"USC00514828","KUALOA RANCH HAKIPUU 886.11, HI US","21.51083","-157.86222","75.0","2009",,,"        0",,"         0","0",,,"0"," ,0,1231,+","0.0"," ,0,1231,+",,,,,,,,,"0.0"," ,0",,,,,,
"USC00518101","PONOHOLO RANCH 178.11, HI US","20.1495","-155.8122","762.0","2009",,,"        0",,"         0","0",,,"0"," ,0,1231,+","0.0"," ,0,1231,+","1.23"," ,0,1002, ",,,,,"38.10"," ,0","0.0"," ,0",,,,,,
"USC00519432","WAILEA 137.4, HI US","19.8843","-155.1226","61.0","2009",,,"        0",,"         0","0",,,"0"," ,0,1231,+","0.0"," ,0,1231,+",,,,,,,,,"0.0"," ,0",,,,,,
"USR0000HSCO","SCHOFIELD BARRACKS HAWAII, HI US","21.495","-158.0819","298.7","2009","2257",,,,,,"49","U,0118, ",,,,,,,"91","U,1007, ","33","4",,,,,"71.1","U","79.5","U","62.6","U"
"USC00517810","PAUOA FLATS 784, HI US","21.3446","-157.8057","499.9","2009",,,"        0",,"         0","0",,,"0"," ,0,1231,+","0.0"," ,0,1231,+","8.15"," ,0,1125, ",,,,,"127.13"," ,0","0.0"," ,0",,,,,,
"USC00519315","WAIHEE VLY 482, HI US","20.9414","-156.5248","103.6","2009",,,"        0",,"         0","0",,,"0"," ,0,1231,+","0.0"," ,0,1231,+","4.15"," ,0,0424, ",,,,,"44.57"," ,0","0.0"," ,0",,,,,,
"USC00515864","MAKAWELI 965, HI US","21.9189","-159.6278","42.7","2009",,,"        0",,"         0","0",,,"0"," ,0,1231,+","0.0"," ,0,1231,+",,,,,,,"14.94"," ,0","0.0"," ,0",,,,,,
"USC00516395","MOANALUA 770, HI US","21.3479","-157.891","9.8","2009",,,"        0",,"         0","0",,,"0"," ,0,1231,+","0.0"," ,0,1231,+","1.93"," ,0,0314, ",,,,,"22.44"," ,0","0.0"," ,0",,,,,,
"USC00517000","OHE O 258.6, HI US","20.6616","-156.0443","26.2","2009",,,"        0",,"         0","0",,,"0"," ,0,1231,+","0.0"," ,0,1231,+",,,,,,,"71.36"," ,0","0.0"," ,0",,,,,,
"USC00518217","PUHI 1013, HI US","21.9656","-159.3964","100.3","2009",,,"        0",,"         0","0",,,"0"," ,0,1231,+","0.0"," ,0,1231,+",,,,,,,"51.99"," ,0","0.0"," ,0",,,,,,
"USW00021510","KAILUA KONA KE AHOLE AIRPORT, HI US","19.73556","-156.04889","13.1","2009","4811",,,,,,"61","W,0118, ",,,,,"1.68"," ,W,0111, ","90","W,1129,+","0","0","4.54"," ,W",,,"78.2","W","84.2","W","72.2","W"
"USC00516270","MIDDLE PEN 147.1, HI US","20.1011","-155.8325","420.6","2009",,,"        0",,"         0","0",,,"0"," ,0,1231,+","0.0"," ,0,1231,+","1.77"," ,0,0111, ",,,,,"9.72"," ,0","0.0"," ,0",,,,,,
"USW00021508","BRADSHAW ARMY AIR FIELD, HI US","19.76","-155.55361","1798.3","2009",,,,,,,,,,,,,,,,,,,,,,,,,,,,
"USC00512227","INTAKE WAINIHA 1086, HI US","22.15278","-159.56806","210.3","2009",,,"        0",,"         0","0",,,"0"," ,0,1231,+","0.0"," ,0,1231,+",,,,,,,,,"0.0"," ,0",,,,,,
"USC00513317","KAPALUA W. MAUI AIRPORT 462.4, HI US","20.9625","-156.6753","73.2","2009",,,"        0",,"         0","0",,,"0"," ,0,1231,+","0.0"," ,0,1231,+","1.94"," ,0,1204, ",,,,,"19.15"," ,0","0.0"," ,0",,,,,,
"USW00021504","HILO INTERNATIONAL AIRPORT 87, HI US","19.7191","-155.053","11.6","2009","2935",,,,,,"56","0,0314, ",,,,,"10.20"," ,0,0307, ","89","0,1007, ","1","5","131.87"," ,0",,,"73.0","0","80.1","0","66.0","0"
"USC00514765","KONA VILLAGE 93.8, HI US","19.8187","-155.9891","21.3","2009",,,"        0",,"         0","0",,,"0"," ,0,1231,+","0.0"," ,0,1231,+","1.58"," ,0,0112, ",,,,,"6.99"," ,0","0.0"," ,0",,,,,,
"USC00513433","KAUAULA INTAKE 375, HI US","20.88139","-156.62611","484.6","2009",,,"        0",,"         0","0",,,"0"," ,0,1231,+","0.0"," ,0,1231,+",,,,,,,,,"0.0"," ,0",,,,,,
"USC00518688","SPRECKELSVILLE 400, HI US","20.894","-156.4104","27.4","2009",,,"        0",,"         0","0",,,"0"," ,0,1231,+","0.0"," ,0,1231,+","1.46"," ,0,0127, ",,,,,"15.79"," ,0","0.0"," ,0",,,,,,
"USR0000HKAN","KANELOA HAWAII, HI US","20.5222","-156.5658","248.4","2009","3253",,,,,,"59","U,0313, ",,,,,,,"86","U,1007, ","0","0",,,,,"73.9","U","78.3","U","69.5","U"
"USC00514758","KOLOKO RESERVOIR 1137, HI US","22.1903","-159.3847","149.4","2009",,,"        0",,"         0","0",,,"0"," ,0,1231,+","0.0"," ,0,1231,+",,,,,,,,,"0.0"," ,0",,,,,,
"USC00511004","HALEAKALA RANGER STATION 338, HI US","20.7603","-156.247","2122.0","2009",,,"        0",,"         0","0",,,"0"," ,0,1231,+","0.0"," ,0,1231,+",,,,,,,"34.08"," ,0","0.0"," ,0",,,,,,
"USC00515842","MAKENA GOLF COURSE 249.1, HI US","20.6419","-156.44","26.8","2009",,,,,,,,,,,,,,,,,"0","0",,,,,,,,,,
"USC00516933","NUUANU RES 5 775, HI US","21.3387","-157.8367","125.0","2009",,,"        0",,"         0","0",,,"0"," ,0,1231,+","0.0"," ,0,1231,+","4.50"," ,0,1125, ",,,,,"66.60"," ,0","0.0"," ,0",,,,,,
"USC00511925","HONOLULU FIRE STATION 703.1, HI US","21.3287","-157.9298","0.9","2009",,,"        0",,"         0","0",,,"0"," ,0,1231,+","0.0"," ,0,1231,+","2.44"," ,0,0111, ",,,,,"13.66"," ,0","0.0"," ,0",,,,,,
"USC00518552","PUUHONUA O HONAUNAU 27.4, HI US","19.4184","-155.9112","4.6","2009",,,"        0",,"         0","0",,,"0"," ,0,1231,+","0.0"," ,0,1231,+",,,,,,,"15.41"," ,0","0.0"," ,0",,,,,,
"USC00518433","PUU KUKUI 380, HI US","20.895","-156.58972","1764.8","2009",,,"        0",,"         0","0",,,"0"," ,0,1231,+","0.0"," ,0,1231,+",,,,,,,,,"0.0"," ,0",,,,,,
"USC00516134","MANUKA 2, HI US","19.1103","-155.8262","536.4","2009",,,"        0",,"         0","0",,,"0"," ,0,1231,+","0.0"," ,0,1231,+",,,,,,,"8.86"," ,0","0.0"," ,0",,,,,,
"USC00518316","PUNCHBOWL CRATER 709, HI US","21.3103","-157.8458","103.0","2009",,,"        0",,"         0","0",,,"0"," ,0,1231,+","0.0"," ,0,1231,+","2.92"," ,0,0312, ",,,,,"18.47"," ,0","0.0"," ,0",,,,,,
"USC00519523","WAIMANALO EXPERIMENTAL FARM, HI US","21.33556","-157.71139","19.5","2009","3753",,"        0",,"         0","0","55","0,0223, ","0"," ,0,1231,+","0.0"," ,0,1231,+","5.05"," ,0,0421, ","88","0,1009, ","2","1","43.96"," ,0","0.0"," ,0","75.4","0","80.9","0","69.9","0"
"USC00519765","WAIOPAI RANCH 256, HI US","20.6305","-156.2042","67.1","2009",,,"        0",,"         0","0",,,"0"," ,0,1231,+","0.0"," ,0,1231,+",,,,,,,,,"0.0"," ,0",,,,,,
"USC00518315","PUNA MACADAMIA OCHD 91.11, HI US","19.6158","-155.0838","243.8","2009",,,"        0",,"         0","0",,,"0"," ,0,1231,+","0.0"," ,0,1231,+",,,,,,,"149.39"," ,0","0.0"," ,0",,,,,,
"USC00513541","KAUNAKAKAI 536, HI US","21.0868","-157.0226","3.7","2009",,,"        0",,"         0","0",,,"0"," ,0,1231,+","0.0"," ,0,1231,+","2.25"," ,0,1203, ",,,,,"9.44"," ,0","0.0"," ,0",,,,,,
"USC00514750","KOLOA MAUKA 994, HI US","21.9483","-159.4669","195.1","2009",,,"        0",,"         0","0",,,"0"," ,0,1231,+","0.0"," ,0,1231,+",,,,,,,,,"0.0"," ,0",,,,,,
"USC00516928","NUUANU RES 4 783, HI US","21.3528","-157.8078","307.8","2009",,,"        0",,"         0","0",,,"0"," ,0,1231,+","0.0"," ,0,1231,+",,,,,,,,,"0.0"," ,0",,,,,,
"USR0000HKAH","KAHUKU TRAINING AREA HAWAII, HI US","21.6792","-157.9894","181.7","2009","3336",,,,,,"60","U,0312,+",,,,,,,"89","U,1009, ","1","5",,,,,"74.1","U","79.5","U","68.7","U"
"USC00512566","KAHUKU MAUKA 2.10, HI US","19.10889","-155.74667","957.1","2009",,,,,,,,,,,,,,,,,,,,,,,,,,,,
"USC00514500","KII KAHUKU 911, HI US","21.6793","-157.9453","7.6","2009",,,"        0",,"         0","0",,,"0"," ,0,1231,+","0.0"," ,0,1231,+","2.00"," ,0,0309, ",,,,,"24.88"," ,0","0.0"," ,0",,,,,,
"USC00514742","KOLOA 936, HI US","21.9086","-159.4614","73.2","2009",,,"        0",,"         0","0",,,"0"," ,0,1231,+","0.0"," ,0,1231,+",,,,,,,"36.54"," ,0","0.0"," ,0",,,,,,
"USC00511918","EWA BEACH USGS 702.2, HI US","21.315","-157.9992","1.5","2009",,,"        0",,"         0","0",,,"0"," ,0,1231,+","0.0"," ,0,1231,+","1.45"," ,0,0314, ",,,"0","0","10.88"," ,0","0.0"," ,0",,,,,,
"USC00515710","MAHAULEPU 941.1, HI US","21.8999","-159.4211","24.4","2009",,,"        0",,"         0","0",,,"0"," ,0,1231,+","0.0"," ,0,1231,+",,,,,,,"35.06"," ,0","0.0"," ,0",,,,,,
"USC00516128","MANOA LYON ARBO 785.2, HI US","21.3331","-157.8025","152.4","2009","2746",,"        0",,"         0","0","53","0,0313, ","0"," ,0,1231,+","0.0"," ,0,1231,+",,,"89","0,1010,+","7","9","121.39"," ,0","0.0"," ,0","72.8","0","78.7","0","67.0","0"
"USC00515715","MAHINAHINA 466, HI US","20.9594","-156.6505","256.6","2009",,,"        0",,"         0","0",,,"0"," ,0,1231,+","0.0"," ,0,1231,+","3.02"," ,0,0315, ",,,,,"53.67"," ,0","0.0"," ,0",,,,,,
"USC00518386","PUUKAPU HOMESTEAD 192.9, HI US","20.0375","-155.6347","916.2","2009",,,"        0",,"         0","0",,,"0"," ,0,1231,+","0.0"," ,0,1231,+","1.50"," ,0,0226, ",,,,,"77.95"," ,0","0.0"," ,0",,,,,,
"USC00518941","WAHIAWA 930, HI US","21.8967","-159.5569","65.5","2009",,,"        0",,"         0","0",,,"0"," ,0,1231,+","0.0"," ,0,1231,+",,,,,,,"22.25"," ,0","0.0"," ,0",,,,,,
"USC00517059","OLOWALU 296.1, HI US","20.8163","-156.6191","9.1","2009",,,"        0",,"         0","0",,,"0"," ,0,1231,+","0.0"," ,0,1231,+",,,,,,,,,"0.0"," ,0",,,,,,
"USC00513376","KAPUA 2.36, HI US","19.1445","-155.8494","533.4","2009",,,"        0",,"         0","0",,,"0"," ,0,1231,+","0.0"," ,0,1231,+","1.76"," ,0,0811, ",,,,,"19.14"," ,0","0.0"," ,0",,,,,,
"USC00511075","HALIIMAILE 423, HI US","20.8659","-156.3436","329.2","2009",,,"        0",,"         0","0",,,"0"," ,0,1231,+","0.0"," ,0,1231,+",,,,,,,,,"0.0"," ,0",,,,,,
"USC00519231","WAIANAE 798, HI US","21.433","-158.1827","7.6","2009",,,"        0",,"         0","0",,,"0"," ,0,1231,+","0.0"," ,0,1231,+","2.50"," ,0,0410, ",,,,,"15.03"," ,0","0.0"," ,0",,,,,,
"USR0000HLAN","LANAI 1 HAWAII, HI US","20.8733","-157.0064","387.1","2009","2203",,,,,,"55","U,0313, ",,,,,,,"85","U,1028, ","25","1",,,,,"70.9","U","76.6","U","65.2","U"
"USC00514459","KIHALANI 132.5, HI US","19.9714","-155.2359","278.6","2009",,,,,,,,,,,,,,,,,"39","6",,,,,,,,,,
"USC00513369","KAPOHO LANDING 93.5, HI US","19.5038","-154.8634","88.4","2009",,,"        0",,"         0","0",,,"0"," ,0,1231,+","0.0"," ,0,1231,+",,,,,,,,,"0.0"," ,0",,,,,,
"USC00513368","KAPOHO BEACH 93.11, HI US","19.5014","-154.8222","6.1","2009",,,"        0",,"         0","0",,,"0"," ,0,1231,+","0.0"," ,0,1231,+","7.21"," ,0,1115, ",,,,,"95.94"," ,0","0.0"," ,0",,,,,,
"USC00517724","PAPAIKOU MAUKA NUMBER 2 140.4, HI US","19.7923","-155.1142","207.3","2009",,,"        0",,"         0","0",,,"0"," ,0,1231,+","0.0"," ,0,1231,+","12.10"," ,0,1220, ",,,,,"174.78"," ,0","0.0"," ,0",,,,,,
"USC00518815","UNIVERSITY OF HAWAII 713, HI US","21.298","-157.8165","34.1","2009",,,"        0",,"         0","0",,,"0"," ,0,1231,+","0.0"," ,0,1231,+",,,,,,,"24.28"," ,0","0.0"," ,0",,,,,,
"USC00517166","OPIHIHALE NUMBER 2 24.1, HI US","19.2705","-155.8746","414.5","2009","1362",,"        0",,"         0","0","51","0,0120,+","0"," ,0,1231,+","0.0"," ,0,1231,+","1.97"," ,0,0211, ","85","0,0811, ","100","7","19.36"," ,0","0.0"," ,0","68.4","0","76.6","0","60.3","0"
"USC00516198","MAUNA LOA SLOPE OBS 39, HI US","19.5362","-155.5767","3398.5","2009",,,,,,,,,,,,,,,,,,,"11.00"," ,0",,,,,,,,
"USC00512156","HUEHUE 92.1, HI US","19.7532","-155.9715","597.4","2009",,,"        0",,"         0","0",,,"0"," ,0,1231,+","0.0"," ,0,1231,+",,,,,,,,,"0.0"," ,0",,,,,,
"USC00511065","HALEPOHAKU 111, HI US","19.7613","-155.4562","2822.4","2009",,,"        0",,"         0","0",,,"0"," ,0,1231,+","0.0"," ,0,1231,+",,,,,,,,,"0.0"," ,0",,,,,,
"USW00022521","HONOLULU INTERNATIONAL AIRPORT, HI US","21.324","-157.9294","2.1","2009",,,,,,,,,,,,,"2.00"," ,0,0111, ",,,,,"11.60"," ,0",,,,,,,,
"USC00511856","HONOKAA TOWN 215, HI US","20.0849","-155.4824","329.2","2009",,,"        0",,"         0","0",,,"0"," ,0,1231,+","0.0"," ,0,1231,+","4.57"," ,0,0204, ",,,,,"92.69"," ,0","0.0"," ,0",,,,,,
"USW00022519","KANEOHE BAY MCAS, HI US","21.45045","-157.76794","3.0","2009","3872",,,,,,"58","W,0223, ",,,,,"2.65"," ,W,0314, ","87","W,1008, ",,,"29.36"," ,W",,,"75.7","W","80.2","W","71.2","W"
"USC00513911","KE AHOLE PT. 68.13, HI US","19.7281","-156.0588","6.1","2009",,,"        0",,"         0","0",,,"0"," ,0,1231,+","0.0"," ,0,1231,+",,,,,,,,,"0.0"," ,0",,,,,,
"USC00513910","KEAHUA 410, HI US","20.8611","-156.3829","148.7","2009",,,"        0",,"         0","0",,,"0"," ,0,1231,+","0.0"," ,0,1231,+",,,,,,,,,"0.0"," ,0",,,,,,
"USC00513117","KANEOHE 838.1, HI US","21.4234","-157.8015","14.6","2009","4147",,"        0",,"         0","0","58","0,0314,+","0"," ,0,1231,+","0.0"," ,0,1231,+","5.61"," ,0,1005, ","89","0,1029,+","0","0","52.61"," ,0","0.0"," ,0","76.4","0","82.2","0","70.6","0"
"USW00022516","KAHULUI AIRPORT, HI US","20.89972","-156.42861","15.5","2009","3622",,,,,,"50","0,0222, ",,,,,"2.03"," ,0,0116, ","92","0,1023,+","2","1","14.14"," ,0",,,"74.9","0","83.4","0","66.4","0"
"USR0000HWVA","WAIANAE VALLEY HAWAII, HI US","21.4806","-158.1553","291.7","2009","3631",,,,,,"55","U,0118, ",,,,,,,"91","U,1020,+","4","4",,,,,"74.9","U","83.0","U","66.8","U"
"USR0000HMAR","MAKUA RANGE HAWAII, HI US","21.5286","-158.2261","6.1","2009",,,,,,,,,,,,,,,,,"0","0",,,,,,,,,,
"USC00517711","PAPAIKOU 144.1, HI US","19.7842","-155.0937","61.0","2009",,,"        0",,"         0","0",,,"0"," ,0,1231,+","0.0"," ,0,1231,+",,,,,,,,,"0.0"," ,0",,,,,,
"USC00514561","KILAUEA 1134, HI US","22.21389","-159.40444","118.9","2009","3064",,"        0",,"         0","0","54","0,0128, ","0"," ,0,1231,+","0.0"," ,0,1231,+","7.50"," ,0,1115, ","89","0,1029, ","7","1","66.63"," ,0","0.0"," ,0","73.4","0","79.7","0","67.0","0"
"USC00517150","OPAEULA 870, HI US","21.5738","-158.0379","288.0","2009",,,"        0",,"         0","0",,,"0"," ,0,1231,+","0.0"," ,0,1231,+",,,,,,,"34.21"," ,0","0.0"," ,0",,,,,,
"USC00514680","KOHALA MIS 175.1, HI US","20.2208","-155.7958","193.9","2009",,,"        0",,"         0","0",,,"0"," ,0,1231,+","0.0"," ,0,1231,+",,,,,,,,,"0.0"," ,0",,,,,,
"USW00021514","MAUNA LOA 5 NNE, HI US","19.5354","-155.576","3407.4","2009","0",,,,,,"28","R,0323, ",,,,,"1.24"," ,R,0410, ","67","R,0927, ","7282","8","10.44"," ,R",,,"45.3","R","53.2","R","37.4","R"
"USW00021515","HILO 5 S, HI US","19.645","-155.0827","189.6","2009","1832",,,,,,"53","R,0223, ",,,,,"12.09"," ,R,0307, ","85","R,1007, ","27","8","164.41"," ,R",,,"69.9","R","76.3","R","63.6","R"
"USC00515404","LAUNIUPOKO INTK 376, HI US","20.85778","-156.61778","390.1","2009",,,"        0",,"         0","0",,,"0"," ,0,1231,+","0.0"," ,0,1231,+",,,,,,,,,"0.0"," ,0",,,,,,
"USC00510999","HALEAKALA RANCH 432, HI US","20.8333","-156.3167","576.1","2009",,,"        0",,"         0","0",,,"0"," ,0,1231,+","0.0"," ,0,1231,+",,,,,,,,,"0.0"," ,0",,,,,,
"USC00515408","LAUNIUPOKO VIL 372, HI US","20.8511","-156.6464","67.1","2009",,,"        0",,"         0","0",,,"0"," ,0,1231,+","0.0"," ,0,1231,+",,,,,,,,,"0.0"," ,0",,,,,,
"USC00515761","MAKAHALAU 103, HI US","19.9742","-155.548","1164.3","2009",,,"        0",,"         0","0",,,"0"," ,0,1231,+","0.0"," ,0,1231,+","1.95"," ,0,0803, ",,,,,"16.54"," ,0","0.0"," ,0",,,,,,
"USW00022501","BARKING SANDS, HI US","22.03333","-159.78333","4.0","2009",,,,,,,,,,,,,,,,,,,,,,,,,,,,
"USC00512802","KAIWIKI HOMESTEAD 89.11, HI US","19.7509","-155.1362","390.1","2009",,,"        0",,"         0","0",,,"0"," ,0,1231,+","0.0"," ,0,1231,+","15.40"," ,0,0308, ",,,,,"230.53"," ,0","0.0"," ,0",,,,,,
"USC00511038","HALENANAHO 1006, HI US","21.9649","-159.4297","149.4","2009",,,"        0",,"         0","0",,,"0"," ,0,1231,+","0.0"," ,0,1231,+",,,,,,,"64.58"," ,0","0.0"," ,0",,,,,,
"USR0000HKMO","KEAUMO HAWAII, HI US","19.4736","-155.3589","1682.5","2009","30",,,,,,"32","U,0223, ",,,,,,,"84","U,0820, ","2734","7",,,,,"58.3","U","70.7","U","45.9","U"
"USC00515758","MAKAHA COUNTRY CLUB, HI US","21.4784","-158.1964","76.2","2009","3559",,"        0",,"         0","0","58","0,0313, ","0"," ,0,1231,+","0.0"," ,0,1231,+","2.30"," ,0,1005, ","89","0,1024,+",,,"13.30"," ,0","0.0"," ,0","74.9","0","82.1","0","67.7","0"
"USC00510746","GLENWOOD NUMBER 2 55.4, HI US","19.519","-155.1413","670.6","2009","831",,"        0",,"         0","0","40","0,0209,+","0"," ,0,1231,+","0.0"," ,0,1231,+","9.30"," ,0,0308, ","83","0,0724,+","407","0","229.26"," ,0","0.0"," ,0","66.2","0","73.5","0","58.9","0"
"USC00517654","PALEHUA CORRAL 731.1, HI US","21.3702","-158.0932","347.5","2009",,,"        0",,"         0","0",,,"0"," ,0,1231,+","0.0"," ,0,1231,+",,,,,,,"12.91"," ,0","0.0"," ,0",,,,,,
"USC00519955","WEST LAWAI 931, HI US","21.894","-159.5127","64.0","2009",,,"        0",,"         0","0",,,"0"," ,0,1231,+","0.0"," ,0,1231,+",,,,,,,"29.08"," ,0","0.0"," ,0",,,,,,
"USC00517656","PALI GOLF COURSE 788.1, HI US","21.3733","-157.7853","128.0","2009",,,"        0",,"         0","0",,,"0"," ,0,1231,+","0.0"," ,0,1231,+","5.29"," ,0,0310, ",,,,,"74.49"," ,0","0.0"," ,0",,,,,,
"USC00518744","UKULELE 333, HI US","20.7933","-156.2494","1594.1","2009",,,"        0",,"         0","0",,,"0"," ,0,1231,+","0.0"," ,0,1231,+",,,,,,,,,"0.0"," ,0",,,,,,
"USC00518060","POHAKEA BRIDGE 307.2, HI US","20.8156","-156.5072","53.6","2009",,,"        0",,"         0","0",,,"0"," ,0,1231,+","0.0"," ,0,1231,+","1.39"," ,0,1204, ",,,,,"11.94"," ,0","0.0"," ,0",,,,,,
"USC00519275","WAIEHU CAMP 484, HI US","20.9158","-156.5095","97.5","2009",,,"        0",,"         0","0",,,"0"," ,0,1231,+","0.0"," ,0,1231,+","2.50"," ,0,0424, ",,,,,"33.65"," ,0","0.0"," ,0",,,,,,
"USC00519397","WAIKIKI 717.2, HI US","21.2716","-157.8168","3.0","2009",,,"        0",,"         0","0",,,"0"," ,0,1231,+","0.0"," ,0,1231,+",,,,,,,"11.61"," ,0","0.0"," ,0",,,,,,
"USW00022551","EWA KALAELOA AIRPORT, HI US","21.31667","-158.06667","16.5","2009","4093",,,,,,"54","W,0118, ",,,,,"2.20"," ,W,0314, ","93","W,0809,+","0","0","9.22"," ,W",,,"76.3","W","84.3","W","68.4","W"
"USC00510456","EAST LAWAI 934, HI US","21.9011","-159.4969","93.9","2009",,,"        0",,"         0","0",,,"0"," ,0,1231,+","0.0"," ,0,1231,+",,,,,,,,,"0.0"," ,0",,,,,,
"USC00511303","HAWAII VOL. NATIONAL PARK HQ. 54, HI US","19.4297","-155.2562","1210.4","2009",,,"        0",,"         0","0",,,"0"," ,0,1231,+","0.0"," ,0,1231,+",,,,,,,"80.02"," ,0","0.0"," ,0",,,,,,
"USC00510211","BERETANIA PUMP STATION 705, HI US","21.3061","-157.853","6.1","2009",,,"        0",,"         0","0",,,"0"," ,0,1231,+","0.0"," ,0,1231,+",,,,,,,,,"0.0"," ,0",,,,,,
"USC00511665","HONAUNAU 27, HI US","19.4174","-155.8805","286.5","2009",,,"        0",,"         0","0",,,"0"," ,0,1231,+","0.0"," ,0,1231,+",,,,,,,"31.51"," ,0","0.0"," ,0",,,,,,
"USC00512751","KAINALIU 73.2, HI US","19.5341","-155.92569","457.5","2009",,,"        0",,"         0","0",,,"0"," ,0,1231,+","0.0"," ,0,1231,+",,,,,"19","7",,,"0.0"," ,0",,,,,,
"USR0000HKLL","KEALIALALO HAWAII, HI US","20.5436","-156.6408","251.5","2009","3280",,,,,,"59","U,0313, ",,,,,,,"87","U,1008,+","0","3",,,,,"74.0","U","79.6","U","68.3","U"
"USC00518738","TANTALUS 2 780.5, HI US","21.3283","-157.8266","369.4","2009",,,"        0",,"         0","0",,,"0"," ,0,1231,+","0.0"," ,0,1231,+",,,,,,,,,"0.0"," ,0",,,,,,
"USC00519025","WAIAKEA SCD 88.2, HI US","19.658","-155.1324","320.0","2009",,,"        0",,"         0","0",,,"0"," ,0,1231,+","0.0"," ,0,1231,+","12.68"," ,0,0308, ",,,,,"191.18"," ,0","0.0"," ,0",,,,,,
"USC00519144","WAIKOLOA BEACH RSRT 95.9, HI US","19.9095","-155.8752","24.4","2009",,,"        0",,"         0","0",,,"0"," ,0,1231,+","0.0"," ,0,1231,+","1.50"," ,0,0527, ",,,,,"8.24"," ,0","0.0"," ,0",,,,,,
"USC00518055","POAMOHO EXPERIMENTAL FRM 855.2, HI US","21.5383","-158.0893","220.1","2009","3111",,"        0",,"         0","0","52","0,0223, ","0"," ,0,1231,+","0.0"," ,0,1231,+","2.11"," ,0,0127, ","90","0,1022,+","17","3","25.35"," ,0","0.0"," ,0","73.5","0","81.4","0","65.7","0"
"USC00519142","WAIKOLOA 95.8, HI US","19.9189","-155.798","268.2","2009",,,"        0",,"         0","0",,,"0"," ,0,1231,+","0.0"," ,0,1231,+",,,,,,,"7.38"," ,0","0.0"," ,0",,,,,,
"USC00512982","KALOPA 216.8, HI US","20.0579","-155.432","396.2","2009",,,"        0",,"         0","0",,,"0"," ,0,1231,+","0.0"," ,0,1231,+",,,,,,,,,"0.0"," ,0",,,,,,
"USC00514489","KIHEI 311, HI US","20.7912","-156.4421","48.2","2009",,,"        0",,"         0","0",,,"0"," ,0,1231,+","0.0"," ,0,1231,+","1.12"," ,0,0127, ",,,,,"7.33"," ,0","0.0"," ,0",,,,,,
"USC00516304","MILOLII 2.34, HI US","19.207","-155.8816","356.6","2009",,,"        0",,"         0","0",,,"0"," ,0,1231,+","0.0"," ,0,1231,+","3.36"," ,0,1009, ",,,,,"19.45"," ,0","0.0"," ,0",,,,,,
"USC00514806","KUIAHA 490.7, HI US","20.8901","-156.2998","341.4","2009",,,"        0",,"         0","0",,,"0"," ,0,1231,+","0.0"," ,0,1231,+","3.29"," ,0,1004, ",,,,,"61.63"," ,0","0.0"," ,0",,,,,,
"USC00515330","LANIHAU 68.2, HI US","19.6633","-155.9604","466.3","2009",,,"        0",,"         0","0",,,"0"," ,0,1231,+","0.0"," ,0,1231,+","2.11"," ,0,0812, ",,,,,"34.40"," ,0","0.0"," ,0",,,,,,
"USC00518600","SEA MOUNTAIN 12.15, HI US","19.1335","-155.5113","24.4","2009",,,,,,,,,,,,,,,,,"0","2",,,,,,,,,,
"USC00518964","WAIAHOLE 837, HI US","21.4705","-157.8836","227.1","2009",,,"        0",,"         0","0",,,"0"," ,0,1231,+","0.0"," ,0,1231,+",,,,,,,"110.34"," ,0","0.0"," ,0",,,,,,
"USW00022534","MOLOKAI KAUNAKAKAI MOLOKAI AIRPORT, HI US","21.1545","-157.0961","135.0","2009","3493",,,,,,"53","0,0113, ",,,,,"2.17"," ,0,1203, ","91","0,1020,+","5","7","15.12"," ,0",,,"74.5","0","81.9","0","67.2","0"
"USW00022536","LIHUE WEATHER SERVICE OFFICE AIRPORT 1020.1, HI US","21.98389","-159.34056","30.5","2009","3491",,,,,,"55","0,0313, ",,,,,"3.37"," ,0,0723, ","87","0,1008, ","3","7","26.70"," ,0",,,"74.5","0","79.6","0","69.5","0"
"USC00518165","PRINCEVILLE RANCH 1117, HI US","22.2181","-159.4828","66.1","2009",,,"        0",,"         0","0",,,"0"," ,0,1231,+","0.0"," ,0,1231,+",,,,,,,"81.96"," ,0","0.0"," ,0",,,,,,
"USR0000HPTW","PTA WEST HAWAII, HI US","19.7717","-155.7022","1307.6","2009","89",,,,,,"38","U,0223, ",,,,,,,"85","U,0802, ","1609","9",,,,,"61.4","U","71.5","U","51.2","U"
"USC00511887","HONOKOHUA 493, HI US","20.9979","-156.6575","67.1","2009",,,"        0",,"         0","0",,,"0"," ,0,1231,+","0.0"," ,0,1231,+",,,,,,,,,"0.0"," ,0",,,,,,
"USC00511882","HONOKOHAU 480, HI US","20.965","-156.5913","265.2","2009",,,"        0",,"         0","0",,,"0"," ,0,1231,+","0.0"," ,0,1231,+",,,,,,,,,"0.0"," ,0",,,,,,
"USC00513268","KAPALAMA 773, HI US","21.3389","-157.8581","187.1","2009",,,"        0",,"         0","0",,,"0"," ,0,1231,+","0.0"," ,0,1231,+",,,,,,,,,"0.0"," ,0",,,,,,
"USR0000HPTP","PTA PORTABLE HAWAII, HI US","19.7456","-155.6272","1755.6","2009","9",,,,,,"33","U,0227, ",,,,,,,"79","U,1021, ","2878","9",,,,,"57.8","U","68.6","U","47.1","U"
"USR0000HPTK","PTA KIPUKA ALALA HAWAII, HI US","19.6669","-155.7078","1641.3","2009","16",,,,,,"33","U,0223,+",,,,,,,"83","U,0821, ","2735","4",,,,,"58.3","U","70.6","U","46.1","U"
"USC00518155","PH WAINIHA 1115, HI US","22.19611","-159.55611","30.8","2009",,,"        0",,"         0","0",,,"0"," ,0,1231,+","0.0"," ,0,1231,+",,,,,,,,,"0.0"," ,0",,,,,,
"USC00511880","HONOKOHAU HARBOR 68.14, HI US","19.6787","-156.0214","9.1","2009",,,"        0",,"         0","0",,,"0"," ,0,1231,+","0.0"," ,0,1231,+","1.40"," ,0,0112, ",,,,,"9.67"," ,0","0.0"," ,0",,,,,,
"USC00511086","HAMAKUAPOKO 485, HI US","20.9233","-156.3403","92.4","2009",,,"        0",,"         0","0",,,"0"," ,0,1231,+","0.0"," ,0,1231,+","2.47"," ,0,1004, ",,,,,"37.93"," ,0","0.0"," ,0",,,,,,
"USC00510790","HAELAAU 477, HI US","20.938","-156.6194","908.3","2009",,,"        0",,"         0","0",,,"0"," ,0,1231,+","0.0"," ,0,1231,+",,,,,,,,,"0.0"," ,0",,,,,,
"USC00510305","CAMP ERDMAN 841.16, HI US","21.5788","-158.2241","0.9","2009",,,"        0",,"         0","0",,,"0"," ,0,1231,+","0.0"," ,0,1231,+",,,,,,,,,"0.0"," ,0",,,,,,
"USC00512960","KALIHI RES SITE 777, HI US","21.3753","-157.8222","277.4","2009",,,"        0",,"         0","0",,,"0"," ,0,1231,+","0.0"," ,0,1231,+","7.48"," ,0,0309, ",,,,,"110.32"," ,0","0.0"," ,0",,,,,,
"USC00516645","NAKALELE FIELD 60 49, HI US","21.0249","-156.6013","106.7","2009",,,"        0",,"         0","0",,,"0"," ,0,1231,+","0.0"," ,0,1231,+",,,,,,,,,"0.0"," ,0",,,,,,
"USC00516529","MOLOAA 1145, HI US","22.1797","-159.3319","91.4","2009",,,"        0",,"         0","0",,,"0"," ,0,1231,+","0.0"," ,0,1231,+",,,,,,,,,"0.0"," ,0",,,,,,
