"STATION","NAME","LATITUDE","LONGITUDE","ELEVATION","DATE","CDSD","CDSD_ATTRIBUTES","DSND","DSND_ATTRIBUTES","DSNW","DSNW_ATTRIBUTES","EMNT","EMNT_ATTRIBUTES","EMSD","EMSD_ATTRIBUTES","EMSN","EMSN_ATTRIBUTES","EMXP","EMXP_ATTRIBUTES","EMXT","EMXT_ATTRIBUTES","HDSD","HDSD_ATTRIBUTES","PRCP","PRCP_ATTRIBUTES","SNOW","SNOW_ATTRIBUTES","TAVG","TAVG_ATTRIBUTES","TMAX","TMAX_ATTRIBUTES","TMIN","TMIN_ATTRIBUTES"
"USC00108395","SHOUP, ID US","45.3768","-114.2774","1036.3","2009",,,,,,,,,,,,,,,,,,,,,,,,,,,,
"USC00109000","TAYLOR RANCH, ID US","45.1017","-114.8508","1168.9","2009","343",,"      120",,"        10","0","-7","0,1209,+","6"," ,0,0111,+","2.7"," ,0,0111, ","1.08"," ,0,0830, ","98","0,0822,+",,,"13.60"," ,0","24.6"," ,0","44.5","0","57.3","0","31.7","0"
"USR0000IPOB","POTTER BUTTE IDAHO, ID US","43.2261","-113.5744","1502.7","2009","516",,,,,,"-9","U,1209, ",,,,,,,"99","U,0821, ","7600","4",,,,,"44.5","U","56.1","U","33.0","U"
"USR0000ITWI","TWIN BUTTES IDAHO, ID US","42.6906","-115.1953","1021.1","2009","1136",,,,,,"-6","U,1210, ",,,,,,,"104","U,0718, ","5420","3",,,,,"52.1","U","63.5","U","40.7","U"
"USW00004126","ARCO 17 SW, ID US","43.4621","-113.556","1804.4","2009","293",,,,,,"-10","R,1209, ",,,,,"1.14"," ,R,0620, ","94","R,0821, ","8459","4","17.03"," ,R",,,"41.3","R","51.3","R","31.2","R"
"USW00004127","MURPHY 10 W, ID US","43.2044","-116.7505","1204.0","2009","442",,,,,,"-10","R,1209, ",,,,,"1.06"," ,R,0612, ","99","R,0718, ","6496","1","12.00"," ,R",,,"47.3","R","59.9","R","34.6","R"
"USC00103143","FENN RANGER STATION, ID US","46.093","-115.5355","475.5","2009","488",,"      102",,"        18","0","2","0,1209,+","27"," ,0,0106, ","13.0"," ,0,1213, ","1.55"," ,0,0102, ","101","0,0802, ","6453","0","39.16"," ,0","63.2"," ,0","48.1","0","59.4","0","36.8","0"
"USS0015D06S","MOUNTAIN MEADOWS, ID US","45.7","-115.23","1938.5","2009","0",,"      237",,,,"-30","T,1208, ","104"," ,T,0403, ",,,"1.20"," ,T,0606,+","84","T,0723,+","10006","1","46.54"," ,T",,,"36.8","T","51.2","T","22.3","T"
"US1IDBK0001","CHUBBUCK 0.5 WSW, ID US","42.919784","-112.473524","1366.1","2009",,,,,,,,,,,,,"1.11"," ,N,0607, ",,,,,"14.25"," ,N",,,,,,,,
"USC00106891","PAYETTE, ID US","44.0763","-116.9312","655.3","2009","528",,,,"         7","0","-3","0,1210, ",,,"4.0"," ,0,1215, ",,,"101","0,0723,+","5725","4",,,"17.8"," ,0","49.7","0","63.1","0","36.3","0"
"USC00103932","HAGERMAN 2 SW, ID US","42.8114","-114.9239","883.0","2009","799",,"       17",,"         8","0","-5","0,1210, ","7"," ,0,0105, ","5.0"," ,0,0105, ","1.08"," ,0,1004, ","105","0,0718, ","5705","4","9.59"," ,0","17.7"," ,0","50.7","0","64.8","0","36.6","0"
"USR0000IARC","ARCO IDAHO, ID US","43.6231","-113.3872","1639.8","2009","266",,,,,,"-29","U,0127,+",,,,,,,"99","U,0821, ","8444","0",,,,,"41.5","U","57.1","U","25.9","U"
"USS0016G01S","SOUTH MOUNTAIN, ID US","42.76","-116.9","1981.2","2009","268",,"      184",,,,"0","T,1208, ","45"," ,T,0306, ",,,"1.10"," ,T,0606, ","88","T,0718, ","7207","8","33.82"," ,T",,,"44.8","T","52.9","T","36.7","T"
"USC00102845","DWORSHAK FISH HATCHERY, ID US","46.5023","-116.3216","303.3","2009","696",,"       24",,"         9","0","3","0,1209,+","12"," ,0,0106, ","8.0"," ,0,0105, ","0.92"," ,0,0329, ","104","0,0803,+","5795","7","20.52"," ,0","26.8"," ,0","50.4","0","62.6","0","38.1","0"
"USC00100667","BAYVIEW MODEL BASIN, ID US","47.9804","-116.5594","636.1","2009","173",,"       76",,"        13","0","-11","0,1208,+","26"," ,0,0105, ","4.3"," ,0,0102, ","0.75"," ,0,1216, ","100","0,0802, ","6998","8","15.72"," ,0","31.1"," ,0","44.7","0","55.9","0","33.5","0"
"USC00101514","CASCADE 1 NW, ID US","44.5228","-116.0481","1492.3","2009","85",,"      142",,"        24","0","-12","0,0127, ","20"," ,0,0101, ","6.5"," ,0,0306, ","1.45"," ,0,1004, ","92","0,0829,+","8376","2","21.19"," ,0","62.5"," ,0","40.6","0","54.6","0","26.5","0"
"USC00101636","CENTERVILLE ARBAUGH RANCH, ID US","43.9592","-115.8453","1353.3","2009",,,"      140",,"        24","0",,,"29"," ,0,0306,+","16.0"," ,0,1216, ","1.66"," ,0,1004, ",,,,,"26.15"," ,0","90.3"," ,0",,,,,,
"USS0014C04S","SAVAGE PASS, ID US","46.47","-114.63","1880.6","2009","6",,"      238",,,,"-19","T,1208, ","91"," ,T,0402,+",,,"1.30"," ,T,0101, ","86","T,0723, ","9785","0","41.54"," ,T",,,"37.7","T","47.4","T","27.8","T"
"USW00094194","REXBURG MADISON CO AIRPORT, ID US","43.83212","-111.80753","1481.9","2009","158",,,,,,"-22","W,0127, ",,,,,"0.96"," ,W,0428, ","94","W,0821, ","8059","1","13.09"," ,W",,,"42.4","W","54.5","W","30.3","W"
"USS0017B06S","RAGGED MOUNTAIN, ID US","47.86","-117.04","1283.2","2009","201",,"      188",,,,"-1","T,1208,+","74"," ,T,0405,+",,,"1.70"," ,T,1026, ","85","T,0801, ","7876","4","38.24"," ,T",,,"43.6","T","49.8","T","37.4","T"
"USC00106542","OAKLEY, ID US","42.23379","-113.89237","1389.6","2009",,,,,,,,,,,,,,,,,"6007","4",,,,,,,,,,
"USS0015E02S","BIG CREEK SUMMIT, ID US","44.63","-115.79","2005.6","2009","27",,"      233",,,,"-14","T,1208, ","95"," ,T,0403,+",,,"2.10"," ,T,0101, ","85","T,0722, ","9207","1","42.31"," ,T",,,"38.9","T","49.0","T","28.7","T"
"USW00004110","JEROME CO AIRPORT, ID US","42.72667","-114.45639","1233.8","2009","600",,,,,,"-6","W,1210, ",,,,,"2.08"," ,W,0408, ","100","W,0718, ","6573","8","11.19"," ,W",,,"47.5","W","58.5","W","36.6","W"
"USS0013D22S","SADDLE MOUNTAIN, MT US","45.69","-113.97","2420.1","2009","9",,"      257",,,,"-20","T,1207, ","99"," ,T,0403, ",,,"1.60"," ,T,0107, ","81","T,0723, ","10273","5","35.39"," ,T",,,"35.9","T","45.0","T","26.8","T"
"USR0000IRAF","RAFT RIVER IDAHO, ID US","42.5478","-113.2594","1341.1","2009","409",,,,,,"-24","U,1210, ",,,,,,,"103","U,0821, ","6630","5",,,,,"46.3","U","60.2","U","32.5","U"
"USW00004114","CHALLIS AIRPORT, ID US","44.5228","-114.215","1545.9","2009","242",,,,,,"-14","W,1210,+",,,,,"0.45"," ,W,0605, ","98","W,0821,+","7803","2","7.43"," ,W",,,"43.3","W","56.7","W","29.9","W"
"USS0011E37S","CRAB CREEK, ID US","44.44","-111.99","2090.9","2009","45",,"      206",,,,"-10","T,1207, ","50"," ,T,0331,+",,,"0.80"," ,T,0602, ","83","T,0821, ","9071","4","22.11"," ,T",,,"38.7","T","46.5","T","31.0","T"
"USW00004112","STANLEY RANGER STATION, ID US","44.17079","-114.92686","1979.7","2009","1",,,,,,"-31","W,0104, ",,,,,"0.83"," ,W,0316, ","90","W,0821, ","10618","8","18.31"," ,W",,,"34.4","W","50.3","W","18.4","W"
"USR0000IMHO","MOUNTAIN HOME IDAHO, ID US","43.0283","-115.87","914.4","2009","1012",,,,,,"-9","U,1209, ",,,,,,,"108","U,0718, ","5685","5",,,,,"51.1","U","64.1","U","38.2","U"
"USS0016A14S","MYRTLE CREEK, ID US","48.72","-116.46","1072.9","2009","224",,"      137",,,,"-3","T,1208, ","30"," ,T,0106, ",,,"1.00"," ,T,1026,+","88","T,0801, ","7417","4","24.72"," ,T",,,"45.1","T","52.8","T","37.4","T"
"USS0011G30S","SEDGWICK PEAK, ID US","42.52","-111.96","2392.7","2009","85",,,,,,"-6","T,0127, ",,,,,"1.00"," ,T,0325, ","87","T,0723, ","8484","3","31.31"," ,T",,,"40.6","T","49.9","T","31.3","T"
"USS0016C20S","ELK BUTTE, ID US","46.84","-116.12","1734.3","2009","79",,"      212",,,,"-8","T,1207, ","115"," ,T,0402, ",,,"1.70"," ,T,0101, ","82","T,0828, ","8895","8","46.06"," ,T",,,"40.3","T","46.7","T","33.9","T"
"USS0015C09S","CRATER MEADOWS, ID US","46.56","-115.29","1816.6","2009","3",,"      244",,,,"-20","T,1208, ","149"," ,T,0402, ",,,"2.50"," ,T,0107, ","82","T,0828, ","9953","3","67.35"," ,T",,,"37.3","T","48.0","T","26.5","T"
"USC00105567","MALTA, ID US","42.3061","-113.3688","1378.0","2009",,,,,,,,,,,,,,,,,,,,,,,,,,,,
"USC00105685","MAY 2 SSE, ID US","44.5663","-113.8952","1539.2","2009","104",,"       18",,"         8","0","-15","0,1208, ","6"," ,0,0305, ","6.0"," ,0,0305, ","0.66"," ,0,0618, ","96","0,0724, ","8230","4","10.17"," ,0","12.9"," ,0","41.9","0","57.8","0","26.1","0"
"USS0013F09S","SWEDE PEAK, ID US","43.63","-113.97","2328.7","2009","48",,"      200",,,,"-8","T,1209, ","42"," ,T,0329, ",,,"1.00"," ,T,0620, ","83","T,0821, ","7902","3","25.41"," ,T",,,"41.3","T","51.3","T","31.3","T"
"US1IDLT0001","MOSCOW 1.7 N, ID US","46.7544","-117.0005","823.0","2009",,,,,"        18","N",,,,,"8.8"," ,N,0102, ","1.74"," ,N,0102, ",,,,,"22.71"," ,N","65.4"," ,N",,,,,,
"USC00101408","CAMBRIDGE, ID US","44.5734","-116.6754","807.7","2009","697",,,,"         7","0","-13","0,0104, ",,,"11.5"," ,0,1215, ","1.20"," ,0,0807, ","105","0,0718, ","6622","7","18.18"," ,0","36.0"," ,0","47.4","0","61.2","0","33.7","0"
"USR0000ISTN","STANLEY IDAHO, ID US","44.1692","-114.9258","2002.5","2009","2",,,,,,"-30","U,0104, ",,,,,,,"91","U,0821, ","10114","9",,,,,"36.3","U","53.0","U","19.5","U"
"USS0014C05S","LOLO PASS, ID US","46.63","-114.58","1597.2","2009","12",,"      219",,,,"-15","T,1208, ","92"," ,T,0402, ",,,"1.30"," ,T,0101, ","89","T,0723, ","9301","2","40.53"," ,T",,,"39.2","T","48.9","T","29.5","T"
"USR0000IDEA","DEAD INDIAN RIDGE IDAHO, ID US","44.3256","-117.1678","1088.1","2009","1039",,,,,,"5","U,1210, ",,,,,,,"101","U,0801, ","6065","3",,,,,"50.1","U","57.9","U","42.3","U"
"USS0015F14S","GRAHAM GUARD STA., ID US","43.95","-115.27","1734.3","2009","3",,"      172",,,,"-18","T,1208, ","37"," ,T,0305, ",,,"1.10"," ,T,0101, ","91","T,0821,+","8625","8","30.53"," ,T",,,"40.5","T","57.1","T","23.9","T"
"USC00105462","MACKAY LOST RIVER RANGER STATION, ID US","43.9178","-113.61517","1797.4","2009",,,,,"         0","0",,,,,"0.0","T,0,1115, ","1.37"," ,0,0620, ","93","0,0821,+","8495","5","11.55"," ,0","0.0","T,0",,,"53.5","0",,
"USS0011E36S","WHITE ELEPHANT, ID US","44.53","-111.41","2350.0","2009","24",,"      225",,,,"-13","T,0127, ","91"," ,T,0403, ",,,"1.40"," ,T,1019,+","80","T,0821, ","9342","1","37.85"," ,T",,,"37.9","T","46.3","T","29.5","T"
"USR0000ILUC","LUCKY PEAK IDAHO, ID US","43.5875","-115.9925","966.2","2009","876",,,,,,"1","U,1210,+",,,,,,,"106","U,0722,+","5499","8",,,,,"51.0","U","63.4","U","38.5","U"
"USR0000IBAS","BANNER SUMMIT IDAHO, ID US","44.3033","-115.2333","2164.1","2009","2",,,,,,"-21","U,1208, ",,,,,,,"86","U,0821, ","10253","9",,,,,"36.0","U","50.2","U","21.9","U"
"USC00106305","NAMPA SUGAR FACTORY, ID US","43.6039","-116.5753","752.9","2009",,,,,"         6","0",,,,,"2.0"," ,0,1230,+","0.75"," ,0,1216, ",,,"5436","1","9.09"," ,0","10.8"," ,0",,,,,,
"USR0000IFIS","FISH HOOK IDAHO, ID US","47.1292","-115.875","1432.6","2009","116",,,,,,"-14","U,1208, ",,,,,,,"93","U,0828, ","8127","1",,,,,"42.3","U","53.5","U","31.0","U"
"USR0000ITEA","TEA POT IDAHO, ID US","44.9044","-115.7375","1570.3","2009","293",,,,,,"-7","U,1210,+",,,,,,,"95","U,0722,+","7450","0",,,,,"44.7","U","56.3","U","33.0","U"
"USC00102187","COUNCIL, ID US","44.7441","-116.4326","897.0","2009",,,,,"         0","0",,,,,"0.0"," ,0,1231,+","1.19"," ,0,1112, ",,,"6690","6","17.47"," ,0","0.0"," ,0",,,,,,
"USC00106424","NEZPERCE, ID US","46.2324","-116.243","990.0","2009",,,,,,,,,,,,,,,,,,,,,,,,,,,,
"USR0000IDEP","BULL CANYON IDAHO, ID US","42.3653","-112.7056","1950.7","2009","341",,,,,,"0","U,1210, ",,,,,,,"95","U,0822,+","7184","0",,,,,"44.8","U","55.2","U","34.3","U"
"USR0000IBRA","BRACE FLAT IDAHO, ID US","42.3497","-116.69","1493.5","2009","556",,,,,,"-10","U,1226,+",,,,,,,"102","U,0718,+","6836","9",,,,,"46.9","U","61.8","U","31.9","U"
"USR0000IDER","DEER HAVEN IDAHO, ID US","43.1744","-115.1517","1691.6","2009","657",,,,,,"1","U,1210, ",,,,,,,"97","U,0718, ","6712","2",,,,,"47.1","U","55.4","U","38.7","U"
"US1IDON0001","HOLBROOK 4.0 NNE, ID US","42.218","-112.636","1492.6","2009",,,,,,,,,,,,,"0.94"," ,N,0824, ",,,,,"15.04"," ,N",,,,,,,,
"USC00108604","SPENCER, ID US","44.3605","-112.1864","1795.9","2009",,,,,,,,,,,,,,,,,,,,,,,,,,,,
"USR0000ILEA","LEADORE CREEK IDAHO, ID US","44.7","-113.35","1828.8","2009","90",,,,,,"-21","U,1208, ",,,,,,,"93","U,0821, ","8960","9",,,,,"40.0","U","52.9","U","27.0","U"
"USC00100448","ARROWROCK DAM, ID US","43.5936","-115.9237","986.0","2009",,,,,,,,,,,,,,,,,,,,,,,,,,,,
"USS0016B14S","MICA CREEK, ID US","47.15","-116.27","1374.6","2009","183",,"      204",,,,"-8","T,1208, ","96"," ,T,0403, ",,,"1.70"," ,T,0107, ","91","T,0801, ","7821","9","51.66"," ,T",,,"43.4","T","51.7","T","35.1","T"
"USS0015B21S","HUMBOLDT GULCH, ID US","47.53","-115.78","1295.4","2009","69",,,,,,"-8","T,1208, ",,,,,"3.20"," ,T,0107, ","91","T,0801, ","8329","3","47.20"," ,T",,,"42.0","T","52.8","T","31.3","T"
"USR0000IKRI","KRILEY CREEK IDAHO, ID US","45.3556","-113.8933","1585.0","2009","404",,,,,,"-10","U,1208, ",,,,,,,"95","U,0722, ","7671","6",,,,,"44.0","U","53.6","U","34.5","U"
"USS0015F01S","MORES CREEK SUMMIT, ID US","43.93","-115.67","1859.3","2009","73",,"      218",,,,"-6","T,1209, ","83"," ,T,0402, ",,,"1.80"," ,T,0305,+","88","T,0718, ","8043","5","40.53"," ,T",,,"42.0","T","52.5","T","31.5","T"
"USC00103297","FORT HALL 1 NNE, ID US","43.04245","-112.41435","1360.9","2009","218",,"       77",,"        19","0","-18","0,1210, ","9"," ,0,0101, ","5.0"," ,0,0323, ","0.63"," ,0,0607, ","100","0,0821, ",,,"10.92"," ,0","33.7"," ,0","43.7","0","57.8","0","29.7","0"
"USR0000ISAL","SALMON IDAHO, ID US","45.15","-113.9333","1511.8","2009","455",,,,,,"-7","U,1208,+",,,,,,,"95","U,0821,+","7321","3",,,,,"45.4","U","55.1","U","35.7","U"
"USS0015E04S","DEADWOOD SUMMIT, ID US","44.54","-115.56","2090.9","2009","6",,"      258",,,,"-30","T,1208, ","116"," ,T,0402,+",,,"2.70"," ,T,0101, ","87","T,0718, ","9624","8","50.26"," ,T",,,"36.8","T","50.4","T","23.3","T"
"USC00104140","HAZELTON, ID US","42.5972","-114.1378","1237.5","2009","524",,,,"        11","0","-9","0,1210, ",,,"5.0"," ,0,0126, ","0.80"," ,0,1004, ","103","0,0723, ",,,"11.44"," ,0","33.9"," ,0","47.7","0","60.3","0","35.2","0"
"USC00108062","SAINT MARIES, ID US","47.3165","-116.5789","655.6","2009","405",,"       33",,"        13","0","-4","0,0311, ","22"," ,0,0106, ","6.4"," ,0,0310, ","1.21"," ,0,0807, ","100","0,0829, ","6730","9","29.44"," ,0","35.6"," ,0","47.1","0","58.2","0","35.9","0"
"USS0011E10S","ISLAND PARK, ID US","44.42","-111.39","1917.2","2009","18",,"      202",,,,"-38","T,0127, ","53"," ,T,0308, ",,,"0.80"," ,T,0823, ","90","T,0821, ","9279","8","24.84"," ,T",,,"38.7","T","52.9","T","24.5","T"
"USS0016A04S","MOSQUITO RIDGE, ID US","48.06","-116.23","1585.0","2009","78",,,,,,"-7","T,1208, ",,,,,"2.40"," ,T,0107, ","82","T,0801, ","8965","5","54.42"," ,T",,,"40.4","T","47.3","T","33.5","T"
"USC00107648","REYNOLDS, ID US","43.2064","-116.7495","1197.9","2009","504",,"        0",,"         0","0","-10","0,1209, ","0"," ,0,1231,+","0.0"," ,0,1231,+","1.00"," ,0,0612, ","101","0,0718, ",,,"11.46"," ,0","0.0"," ,0","48.0","0","60.6","0","35.3","0"
"USC00102875","ELK CITY 1 NE, ID US","45.8356","-115.461","1236.9","2009","47",,"      171",,"        48","0","-21","0,0127, ","47"," ,0,0402, ","19.5"," ,0,0325, ","1.10"," ,0,0512, ","96","0,0829, ","8795","4","31.21"," ,0","194.1"," ,0","40.2","0","55.5","0","25.0","0"
"USC00103964","HAMER 4 NW, ID US","43.9663","-112.2641","1460.0","2009",,,,,"         9","0","-26","0,0127, ",,,"4.0"," ,0,0211, ","0.72"," ,0,0618, ",,,"8241","4","8.04"," ,0","13.9"," ,0",,,,,"27.3","0"
"USC00107644","REXBURG BYU IDAHO, ID US","43.8083","-111.7892","1525.5","2009","178",,,,,,"-13","0,0127, ",,,,,"1.10"," ,0,0607, ","93","0,0822, ",,,"12.82"," ,0",,,"42.6","0","54.0","0","31.2","0"
"USS0014E01S","MILL CREEK SUMMIT, ID US","44.47","-114.49","2682.2","2009","0",,,,,,"-18","T,1208, ",,,,,"1.40"," ,T,1004, ","79","T,0821, ","10721","2","31.74"," ,T",,,"34.5","T","45.0","T","24.0","T"
"USR0000IMUL","MULKEY BAR IDAHO, ID US","44.1625","-113.3944","1926.3","2009","71",,,,,,"-15","U,0127, ",,,,,,,"93","U,0821, ","9112","1",,,,,"39.2","U","52.3","U","26.0","U"
"USR0000IROA","ROAD CREEK IDAHO, ID US","44.1625","-114.0125","2499.4","2009","30",,,,,,"-12","U,1207, ",,,,,,,"79","U,0822,+","10040","8",,,,,"36.1","U","44.4","U","27.8","U"
"USR0000IROC","ROCK LAKE IDAHO, ID US","42.9717","-114.0631","1298.4","2009","647",,,,,,"-12","U,0104, ",,,,,,,"102","U,0821,+","6897","8",,,,,"46.4","U","59.4","U","33.5","U"
"USR0000IBON","BONANZA IDAHO, ID US","44.375","-114.5667","1953.8","2009",,,,,,,,,,,,,,,,,"9744","6",,,,,,,,,,
"USC00104670","JEROME, ID US","42.7325","-114.5192","1140.0","2009","809",,,,"         0","0","-6","0,1211,+",,,"0.0"," ,0,1231,+","0.87"," ,0,0620, ","105","0,0719, ","6117","2","10.55"," ,0","0.0"," ,0","48.9","0","62.8","0","35.0","0"
"USC00107386","PRIEST RIVER EXPERIMENTAL STATION, ID US","48.3512","-116.8354","722.7","2009","167",,,,"        19","0","-12","0,1208,+",,,"4.0"," ,0,1215,+","1.73"," ,0,1026, ","96","0,0802,+","7968","5","28.70"," ,0","49.7"," ,0","43.4","0","56.0","0","30.8","0"
"USS0015F04S","ATLANTA SUMMIT, ID US","43.76","-115.24","2310.4","2009","63",,"      239",,,,"-8","T,1209,+","87"," ,T,0403,+",,,"1.30"," ,T,1004, ","83","T,0821, ","8774","4","42.83"," ,T",,,"40.0","T","48.2","T","31.7","T"
"USR0000IBOF","BONNERS FERRY IDAHO, ID US","48.6756","-116.3361","536.4","2009","324",,,,,,"-6","U,1208, ",,,,,,,"97","U,0801, ","7384","1",,,,,"45.6","U","56.1","U","35.1","U"
"USC00106844","PARMA EXPERIMENT STATION, ID US","43.8023","-116.9442","698.0","2009","857",,,,"         8","0","-3","0,1210, ",,,"2.5"," ,0,1215,+","0.68"," ,0,0607, ","103","0,0723, ",,,"8.23"," ,0","15.3"," ,0","50.9","0","64.1","0","37.7","0"
"USR0000ICAN","CANYON CREEK IDAHO, ID US","44.2297","-115.2469","2171.1","2009","34",,,,,,"-10","U,1209, ",,,,,,,"78","U,0821, ","10322","6",,,,,"35.7","U","42.2","U","29.3","U"
"USS0015F05S","TRINITY MOUNTAIN, ID US","43.63","-115.44","2368.3","2009","0",,"      263",,,,"-17","T,1208, ","111"," ,T,0403, ",,,"1.70"," ,T,0316, ","80","T,0821, ","10508","7","46.02"," ,T",,,"35.3","T","46.5","T","24.1","T"
"USS0015E08S","COZY COVE, ID US","44.29","-115.66","1639.8","2009","62",,,,,,"-21","T,0127, ",,,,,"1.30"," ,T,1014, ","93","T,0718, ","8485","9","30.64"," ,T",,,"41.1","T","54.7","T","27.6","T"
"USS0012G17S","WILDHORSE DIVIDE, ID US","42.76","-112.48","1978.2","2009","24",,,,,,"-9","T,1210, ",,,,,"2.00"," ,T,0823, ","88","T,0821, ","8245","5","33.82"," ,T",,,"41.2","T","52.4","T","30.0","T"
"USC00101956","COEUR D ALENE, ID US","47.6821","-116.7967","650.1","2009",,,"       39",,"         7","0",,,"23"," ,0,0105, ","3.0"," ,0,1215,+",,,,,,,"20.64"," ,0","18.1"," ,0",,,,,,
"USS0014F11S","SOLDIER RANGER STATION, ID US","43.48","-114.83","1749.6","2009","55",,"      166",,,,"-9","T,0127, ","39"," ,T,0315, ",,,"1.90"," ,T,1004, ","90","T,0821, ","7665","2","22.24"," ,T",,,"43.0","T","55.1","T","30.8","T"
"USS0016C01S","SHERWIN, ID US","46.95","-116.34","975.4","2009","128",,,,,,"-10","T,1208, ",,,,,"1.30"," ,T,0107, ","99","T,0828, ","7292","4","33.27"," ,T",,,"45.1","T","58.9","T","31.2","T"
"USR0000ISPA","SHO PAI IDAHO, ID US","42.0181","-116.2128","1630.7","2009","390",,,,,,"-8","U,1227, ",,,,,,,"98","U,0821, ","6977","0",,,,,"45.5","U","59.0","U","32.0","U"
"USR0000ITRA","TRAIL GULCH IDAHO, ID US","42.3161","-114.3031","1828.8","2009","722",,,,,,"3","U,1208,+",,,,,,,"96","U,0821, ","6138","2",,,,,"48.5","U","57.3","U","39.8","U"
"USS0016F08S","REYNOLDS CREEK, ID US","43.29","-116.85","1706.9","2009","367",,"      137",,,,"-4","T,1209,+","13"," ,T,1231,+",,,"0.90"," ,T,0617, ","91","T,0718, ","7241","0","20.55"," ,T",,,"44.9","T","53.3","T","36.4","T"
"USC00108246","SELWAY LODGE, ID US","46.0081","-114.8442","786.4","2009",,,,,,,,,,,,,,,,,,,,,,,,,,,,
"USC00102260","CRATERS OF THE MOON, ID US","43.46285","-113.56012","1802.6","2009","365",,"      132",,"        25","0","-10","0,1210, ","29"," ,0,0127,+","7.5"," ,0,1005, ","0.94"," ,0,0602, ","94","0,0822,+","7183","7","17.32"," ,0","68.0"," ,0","44.6","0","55.8","0","33.4","0"
"USR0000IOHI","OHIO GULCH IDAHO, ID US","43.6008","-114.3158","1895.9","2009","122",,,,,,"-8","U,1209,+",,,,,,,"93","U,0821, ","7764","5",,,,,"42.5","U","54.7","U","30.3","U"
"USR0000ITRI","TRIANGLE IDAHO, ID US","42.8286","-116.5886","1606.3","2009","152",,,,,,"-12","U,1210,+",,,,,,,"96","U,0722, ","7771","1",,,,,"42.8","U","56.7","U","29.0","U"
"USS0012G18S","OXFORD SPRING, ID US","42.26","-112.13","2054.4","2009","279",,,,,,"-1","T,0127, ",,,,,"1.00"," ,T,0415, ","90","T,0718, ","7115","8","26.63"," ,T",,,"45.1","T","54.7","T","35.6","T"
"USC00104318","HOMEDALE 1 SE, ID US","43.6058","-116.9211","679.7","2009",,,,,"         2","0",,,,,"2.5"," ,0,1214, ","1.25"," ,0,0607, ",,,,,"9.21"," ,0","10.4"," ,0",,,,,,
"USS0014F12S","GALENA SUMMIT, ID US","43.87","-114.71","2676.1","2009","2",,"      242",,,,"-14","T,1208, ","70"," ,T,0331, ",,,"0.90"," ,T,0304, ","80","T,0821, ","10162","5","31.04"," ,T",,,"35.9","T","45.9","T","25.9","T"
"USC00107040","PICABO, ID US","43.3086","-114.0668","1474.9","2009",,,,,,,,,,,,,,,,,"7921","6",,,,,,,,,,
"USR0000ICOP","COPPER BASIN IDAHO, ID US","43.8","-113.8333","2383.5","2009","0",,,,,,"-36","U,0104, ",,,,,,,"86","U,0821, ","11602","5",,,,,"31.8","U","49.1","U","14.5","U"
"USR0000INUC","NUCKOLS IDAHO, ID US","47.5083","-115.9461","1268.0","2009","513",,,,,,"-3","U,1208, ",,,,,,,"97","U,0828, ","7214","9",,,,,"46.0","U","54.1","U","37.9","U"
"USC00107046","PIERCE, ID US","46.4922","-115.8006","938.8","2009","102",,"      155",,"        34","0","-11","0,0127, ","47"," ,0,0106, ","10.1"," ,0,1213, ","1.65"," ,0,0102, ","95","0,0802, ","8214","4","38.44"," ,0","116.4"," ,0","42.4","0","55.8","0","29.0","0"
"USS0011G06S","EMIGRANT SUMMIT, ID US","42.36","-111.56","2252.5","2009","19",,"      211",,,,"-9","T,0127, ","76"," ,T,0402, ",,,"1.60"," ,T,1014, ","84","T,0822, ","8807","8","41.21"," ,T",,,"39.2","T","49.1","T","29.3","T"
"USS0015B02S","LOOKOUT, ID US","47.46","-115.71","1566.7","2009","158",,"      213",,,,"-9","T,1208, ","87"," ,T,0403,+",,,"1.30"," ,T,0315, ","86","T,0827,+","8609","0","43.83"," ,T",,,"41.3","T","48.5","T","34.1","T"
"USC00101180","BROWNLEE DAM, ID US","44.8365","-116.8981","562.1","2009","1422",,,,,,"5","0,1211, ",,,,,"0.85"," ,0,0606, ","107","0,0723,+","4819","3","12.65"," ,0",,,"54.0","0","64.3","0","43.7","0"
"USS0015B14S","LOST LAKE, ID US","47.07","-115.96","1862.3","2009","48",,,,,,"-11","T,1207, ",,,,,"4.10"," ,T,0107, ","81","T,0923, ","9225","3","65.93"," ,T",,,"39.5","T","46.5","T","32.4","T"
"USW00094182","MCCALL AIRPORT, ID US","44.88889","-116.10167","1528.0","2009","30",,,,,,"-19","W,0127, ",,,,,"0.75"," ,W,1014, ","89","W,0828,+","9631","4","20.76"," ,W",,,"38.4","W","51.2","W","25.6","W"
"USC00108928","SWAN FALLS PH, ID US","43.2436","-116.3784","708.7","2009","1255",,,,"         3","0","0","0,1210, ",,,"1.0"," ,0,1230,+","0.72"," ,0,0615, ","105","0,0722, ","4525","7","7.74"," ,0","3.0"," ,0","53.9","0","65.2","0","42.6","0"
"USS0013D16S","MOOSE CREEK, ID US","45.67","-113.95","1889.8","2009","9",,,,,,"-19","T,1207, ",,,,,"1.50"," ,T,0107,+","86","T,0821, ","9684","8","30.81"," ,T",,,"37.6","T","49.3","T","26.0","T"
"USC00102942","EMMETT 2 E, ID US","43.8544","-116.4663","728.5","2009","850",,,,"         5","0","0","0,1210,+",,,"2.0"," ,0,1230, ","1.75"," ,0,1216, ","105","0,0719, ","5804","6","13.46"," ,0","12.3"," ,0","50.5","0","63.1","0","38.0","0"
"USR0000IPIN","PINE CREEK IDAHO, ID US","44.25","-116.18","1341.1","2009","560",,,,,,"-2","U,1209,+",,,,,,,"95","U,0827, ","6897","7",,,,,"46.4","U","55.7","U","37.0","U"
"USC00105897","MIDDLE FORK LODGE, ID US","44.7189","-115.0149","1365.5","2009","201",,"      128",,"        13","0","-8","0,1209, ","8"," ,0,0106,+","4.0"," ,0,1113, ","1.10"," ,0,0807, ","96","0,0822, ","7512","4","15.15"," ,0","29.2"," ,0","43.8","0","57.4","0","30.2","0"
"USR0000IFEN","FENN IDAHO, ID US","46.1","-115.5347","463.3","2009","635",,,,,,"3","U,1208, ",,,,,,,"104","U,0804,+","5740","7",,,,,"50.2","U","62.6","U","37.8","U"
"USC00104442","IDAHO CITY, ID US","43.8383","-115.832","1208.5","2009",,,,,"        14","0",,,,,"10.0"," ,0,1216, ","1.31"," ,0,1004, ",,,,,"16.75"," ,0","39.0"," ,0",,,,,,
"USR0000IPIE","PIERCE IDAHO, ID US","46.5","-115.8333","940.3","2009","122",,,,,,"-12","U,0127, ",,,,,,,"98","U,0801, ","7751","4",,,,,"43.7","U","57.9","U","29.5","U"
"USC00102707","DUBOIS EXPERIMENT STATION, ID US","44.24364","-112.20033","1661.2","2009","221",,"      113",,"        21","0","-14","0,0127,+","21"," ,0,0217,+","4.0"," ,0,1216,+","0.64"," ,0,0614, ","92","0,0822,+",,,"10.67"," ,0","44.3"," ,0","42.3","0","53.5","0","31.0","0"
"USS0014E04S","MORGAN CREEK, ID US","44.84","-114.27","2316.5","2009","4",,,,,,"-20","T,1207, ",,,,,"0.90"," ,T,0806, ","84","T,0821, ","9905","8","26.04"," ,T",,,"36.8","T","48.2","T","25.3","T"
"USC00108022","SAINT ANTHONY, ID US","43.95223","-111.67852","1514.9","2009",,,,,,,,,,,,,,,,,"8194","5",,,,,,,,,,
"USR0000ISNA","SNAKE RIVER IDAHO, ID US","45.0997","-116.7369","1249.7","2009","780",,,,,,"1","U,1208, ",,,,,,,"100","U,0802, ","6447","9",,,,,"48.3","U","56.7","U","40.0","U"
"USW00094178","TWIN FALLS SUN VALLEY REGIONAL AIRPORT, ID US","42.48194","-114.48694","1265.2","2009","737",,,,,,"-9","W,1210, ",,,,,"1.15"," ,W,0620, ","101","W,0718, ","5804","3","12.32"," ,W",,,"49.8","W","61.4","W","38.1","W"
"USS0016G07S","MUD FLAT, ID US","42.6","-116.56","1746.5","2009","241",,"      152",,,,"-8","T,1208, ","24"," ,T,1231, ",,,"1.00"," ,T,0806, ","95","T,0718, ","6860","9","18.02"," ,T",,,"44.9","T","57.6","T","32.3","T"
"USR0000ITOW","TOWN CREEK IDAHO, ID US","43.9333","-115.9167","1371.6","2009","390",,,,,,"-8","U,1209, ",,,,,,,"100","U,0827,+","6930","0",,,,,"46.2","U","60.7","U","31.6","U"
"USS0011G05S","SLUG CREEK DIVIDE, ID US","42.56","-111.3","2202.2","2009","13",,"      203",,,,"-14","T,0104, ","60"," ,T,0402, ",,,"1.20"," ,T,0618, ","87","T,0822, ","8739","9","35.54"," ,T",,,"39.9","T","52.7","T","27.1","T"
"USC00101195","BRUNEAU, ID US","42.8819","-115.8017","771.1","2009","1010",,"        0",,"         0","0","10","0,1210,+","0","T,0,1122, ","0.0","T,0,1122, ","0.73"," ,0,1005, ","108","0,0719, ",,,"7.88"," ,0","0.0","T,0","54.4","0","67.5","0","41.3","0"
"USR0000IWEI","WEISER RIVER IDAHO, ID US","44.8475","-116.4267","1676.4","2009","878",,,,,,"3","U,1209,+",,,,,,,"101","U,0722, ","6266","2",,,,,"49.3","U","58.7","U","39.8","U"
"USC00108380","SHOSHONE 1 WNW, ID US","42.9383","-114.4169","1204.0","2009",,,,,,,,,,,,,,,,,,,,,,,,,,,,
"USS0015G02S","WILSON CREEK, ID US","42.01","-115.0","2170.2","2009","38",,"      193",,,,"-4","T,1206, ","55"," ,T,0217, ",,,"1.20"," ,T,1004,+","84","T,0723, ","7528","0","31.55"," ,T",,,"41.7","T","51.4","T","31.9","T"
"USC00106877","PAUL 1 ENE, ID US","42.6118","-113.7628","1264.9","2009","450",,,,,,"-12","0,1210, ",,,,,"0.76"," ,0,0607, ","98","0,0822,+",,,"10.11"," ,0",,,"46.9","0","59.1","0","34.7","0"
"USC00104456","IDAHO FALLS 16 SE, ID US","43.3455","-111.7847","1776.4","2009",,,,,,,,,,,,,,,,,,,,,,,,,,,,
"USS0015F06S","PRAIRIE, ID US","43.51","-115.57","1463.0","2009","193",,,,,,"-12","T,0104, ",,,,,"1.20"," ,T,1004, ","94","T,0718, ","7630","9","20.14"," ,T",,,"43.7","T","56.0","T","31.3","T"
"USS0016A08S","BEAR MOUNTAIN, ID US","48.31","-116.07","1645.9","2009","11",,"      256",,,,"-7","T,1207, ","131"," ,T,0402,+",,,"3.50"," ,T,0107, ","78","T,0723, ","9669","9","76.57"," ,T",,,"38.2","T","44.6","T","31.8","T"
"USS0015E09S","JACKSON PEAK, ID US","44.05","-115.44","2154.9","2009","55",,"      236",,,,"-8","T,1209, ","87"," ,T,0403, ",,,"1.50"," ,T,0316, ","83","T,0718, ","8733","5","44.95"," ,T",,,"40.1","T","48.8","T","31.4","T"
"USS0014F02S","STICKNEY MILL, ID US","43.86","-114.21","2264.7","2009","0",,,,,,"-27","T,0104, ",,,,,"1.00"," ,T,0620, ","84","T,0718, ","10433","2","20.84"," ,T",,,"35.1","T","50.3","T","19.8","T"
"US1IDEL0001","GLENNS FERRY 1.6 N, ID US","42.97662","-115.302166","805.3","2009",,,,,,,,,,,,,,,,,,,"13.31"," ,N",,,,,,,,
"USS0016C02S","MOSCOW MOUNTAIN, ID US","46.81","-116.85","1432.6","2009","237",,"      193",,,,"-3","T,1208, ","95"," ,T,0402, ",,,"1.90"," ,T,0402, ","90","T,0801, ","7525","5","42.44"," ,T",,,"44.1","T","51.3","T","36.8","T"
"USW00024133","BURLEY MUNICIPAL AIRPORT, ID US","42.5416","-113.7661","1266.1","2009","367",,,,,,"-11","0,1210, ",,,,,"0.65"," ,0,0606, ","98","0,0821,+","6606","1","10.63"," ,0",,,"47.0","0","59.4","0","34.6","0"
"USS0014F04S","VIENNA MINE, ID US","43.8","-114.85","2731.0","2009","3",,"      267",,,,"-14","T,1207, ","100"," ,T,0331, ",,,"1.80"," ,T,0101, ","78","T,0718, ","9749","2","41.36"," ,T",,,"36.9","T","47.3","T","26.6","T"
"USW00024131","BOISE AIR TERMINAL, ID US","43.5666","-116.2405","857.7","2009","1158",,"       27",,"         9","0","-6","0,1208, ","3"," ,0,1230,+","3.2"," ,0,1230, ","0.91"," ,0,0806, ","106","0,0718, ","5322","6","11.28"," ,0","24.0"," ,0","52.6","0","63.1","0","42.0","0"
"USS0014F16S","HYNDMAN, ID US","43.71","-114.16","2267.7","2009","5",,"      212",,,,"-11","T,1209, ","43"," ,T,0316, ",,,"0.90"," ,T,0729, ","85","T,0718, ","8638","7","27.85"," ,T",,,"39.5","T","52.4","T","26.5","T"
"USR0000ILOD","LODGEPOLE IDAHO, ID US","45.3786","-115.1872","1859.3","2009","13",,,,,,"-21","U,1207, ",,,,,,,"90","U,0821,+","9562","4",,,,,"38.3","U","52.7","U","23.9","U"
"USC00106250","MURPHY DESERT HOT SPRINGS, ID US","42.0264","-115.3596","1570.3","2009",,,,,,,,,,,,,,,,,,,,,,,,,,,,
"USS0015F09S","CAMAS CREEK DIVIDE, ID US","43.27","-115.35","1740.4","2009","111",,,,,,"-5","T,1210, ",,,,,"2.10"," ,T,1004, ","91","T,0821, ","7638","1","23.14"," ,T",,,"43.0","T","53.7","T","32.3","T"
"USC00102444","DEER FLAT DAM, ID US","43.5765","-116.7475","765.0","2009",,,,,"         0","0",,,,,"0.0"," ,0,1231,+",,,,,,,"8.57"," ,0","0.0"," ,0",,,,,,
"USS0013E27S","HILTS CREEK, ID US","44.02","-113.47","2438.4","2009","36",,,,,,"-10","T,1209, ",,,,,"1.60"," ,T,0620, ","80","T,0822,+","8813","0","27.24"," ,T",,,"39.1","T","47.9","T","30.2","T"
"USC00103771","GRANGEVILLE, ID US","45.9413","-116.1175","1005.8","2009","335",,,,"        12","0","-8","0,0127, ",,,"4.0"," ,0,1222,+","1.26"," ,0,0807, ","95","0,0801, ",,,"19.14"," ,0","32.1"," ,0","46.7","0","57.5","0","36.0","0"
"USC00109638","WEISER, ID US","44.2456","-116.9696","646.2","2009","987",,,,"         9","0","-1","0,1212,+",,,"6.0"," ,0,1216,+","1.15"," ,0,1216, ","104","0,0722, ","5761","8","12.36"," ,0","31.0"," ,0","50.8","0","63.2","0","38.3","0"
"USS0014F03S","LOST WOOD DIVIDE, ID US","43.82","-114.26","2407.9","2009","3",,"      233",,,,"-16","T,0104, ","61"," ,T,0329,+",,,"0.90"," ,T,0316, ","84","T,0821, ","10082","2","27.11"," ,T",,,"36.2","T","49.0","T","23.4","T"
"USC00105716","MCCAMMON, ID US","42.6523","-112.1935","1453.9","2009",,,"       93",,"        17","0",,,"14"," ,0,0106, ","4.1"," ,0,1213, ","0.87"," ,0,0824, ","95","0,0823,+","7184","9","16.94"," ,0","40.7"," ,0",,,"58.2","0",,
"USS0016E11S","BEAR BASIN, ID US","44.95","-116.14","1630.7","2009","25",,"      202",,,,"-20","T,1208, ","52"," ,T,0403,+",,,"1.30"," ,T,1215, ","92","T,0718, ","8906","9","32.65"," ,T",,,"39.7","T","53.2","T","26.2","T"
"USS0014F17S","GALENA, ID US","43.88","-114.67","2276.9","2009","3",,"      224",,,,"-17","T,0104, ","52"," ,T,0331,+",,,"0.80"," ,T,1111,+","90","T,0718, ","8820","1","25.74"," ,T",,,"38.6","T","54.2","T","23.0","T"
"USW00024145","IDAHO FALLS FAA AIRPORT, ID US","43.519","-112.0639","1442.6","2009","211",,,,,,"-29","W,0127, ",,,,,"0.67"," ,W,0930, ","97","W,0723, ","7813","5","10.58"," ,W",,,"43.2","W","56.2","W","30.3","W"
"USC00105177","LEADORE NUMBER 2, ID US","44.683","-113.3622","1828.8","2009","63",,,,,,"-23","0,1208, ",,,,,,,"93","0,0822, ","9613","7",,,,,"38.4","0","52.8","0","23.9","0"
"USC00106388","NEW MEADOWS RANGER STATION, ID US","44.9714","-116.2933","1177.1","2009","99",,,,"        15","0","-20","0,0127, ",,,"10.1"," ,0,1216, ","1.07"," ,0,1005, ","94","0,0719, ","8880","5","21.59"," ,0","48.3"," ,0","39.9","0","54.9","0","24.8","0"
"USR0000ISKU","SKULL GULCH IDAHO, ID US","45.3367","-114.4681","1554.5","2009","339",,,,,,"-9","U,1208,+",,,,,,,"94","U,0821,+","7736","9",,,,,"43.7","U","54.3","U","33.1","U"
"USW00024149","LEWISTON NEZ PERCE CO AIRPORT, ID US","46.3747","-117.0156","437.7","2009","954",,"        8",,"         3","0","2","0,1208, ","2"," ,0,0128,+","2.3"," ,0,1230, ","1.09"," ,0,0807, ","106","0,0801, ","5251","2","11.48"," ,0","7.3"," ,0","52.5","0","63.0","0","42.0","0"
"USC00102577","DIXIE NORTH, ID US","45.5697","-115.4527","1749.6","2009",,,,,,,,,,,,,"1.49"," ,0,0102, ","89","0,0719, ",,,"34.58"," ,0",,,,,"49.8","0",,
"USS0013E16S","SCHWARTZ LAKE, ID US","44.85","-113.84","2603.0","2009","9",,,,,,"-18","T,1207, ",,,,,"1.70"," ,T,1004, ","80","T,0821, ","9937","6","27.02"," ,T",,,"36.8","T","45.4","T","28.2","T"
"USC00101363","CABINET GORGE, ID US","48.0863","-116.0573","662.3","2009","187",,,,"         0","0","-5","0,1207, ",,,"0.0"," ,0,1231,+","1.60"," ,0,0615, ","96","0,0806,+","6944","0","27.95"," ,0","0.0"," ,0","45.4","0","56.3","0","34.4","0"
"USR0000I3MI","3 MILE IDAHO, ID US","44.3958","-112.1081","2019.3","2009","110",,,,,,"-13","U,1208, ",,,,,,,"89","U,0821, ","8543","4",,,,,"40.4","U","50.4","U","30.5","U"
"US1IDAD0002","BOISE 5.3 NW, ID US","43.6695","-116.2653","799.2","2009",,,"       20",,"         8","N",,,"5"," ,N,0106, ","3.6"," ,N,1230, ","1.53"," ,N,0807, ",,,,,"17.81"," ,N","21.1"," ,N",,,,,,
"USC00107346","PRESTON, ID US","42.0933","-111.8826","1438.4","2009","347",,,,"        17","0","-8","0,1211,+",,,"8.5"," ,0,0217, ","0.98"," ,0,0414, ","97","0,0718, ",,,"17.17"," ,0","57.2"," ,0","45.4","0","58.3","0","32.6","0"
"USR0000ISLA","SLATE CREEK IDAHO, ID US","45.6333","-116.2833","477.9","2009","947",,,,,,"2","U,1210,+",,,,,,,"107","U,0801, ","4900","3",,,,,"53.5","U","66.5","U","40.4","U"
"USS0016E10S","BEAR SADDLE, ID US","44.61","-116.98","1883.7","2009","116",,,,,,"-6","T,1208, ",,,,,"2.40"," ,T,1215, ","85","T,0718, ","8390","4","31.46"," ,T",,,"41.3","T","49.1","T","33.4","T"
"USS0014G01S","BOSTETTER RANGER STATION, ID US","42.16","-114.19","2286.0","2009","76",,"      196",,,,"-4","T,1208, ","54"," ,T,0403, ",,,"1.00"," ,T,0620,+","86","T,0821, ","8389","7","27.82"," ,T",,,"40.8","T","49.2","T","32.4","T"
"USW00094143","IDAHO FALLS 46 W, ID US","43.53252","-112.94793","1505.1","2009","199",,"       92",,"        13","0","-25","0,0104, ","16"," ,0,0127,+","4.0"," ,0,0125, ","1.04"," ,0,1004, ","98","0,0821,+","8759","2","10.42"," ,0","26.6"," ,0","40.7","0","55.3","0","26.0","0"
"USR0000IMOD","MOODY IDAHO, ID US","43.65","-111.5792","2145.8","2009","189",,,,,,"-8","U,0127, ",,,,,,,"89","U,0821, ","8234","7",,,,,"42.0","U","51.9","U","32.1","U"
"USC00109303","TWIN FALLS, ID US","42.5458","-114.3461","1207.0","2009","438",,,,"        11","0","-14","0,1209, ",,,"4.5"," ,0,0126, ","1.22"," ,0,0620, ","97","0,0822,+","6311","9","10.37"," ,0","19.7"," ,0","47.2","0","59.3","0","35.0","0"
"US1IDKT0003","ATHOL 1.5 ENE, ID US","47.949311","-116.675653","749.5","2009",,,,,"        22","N",,,,,"8.0"," ,N,0102, ","2.99"," ,N,0813, ",,,,,"27.22"," ,N","57.6"," ,N",,,,,,
"USS0013F13S","SMILEY MOUNTAIN, ID US","43.73","-113.83","2901.7","2009","3",,"      262",,,,"-14","T,1209, ","78"," ,T,0404,+",,,"2.40"," ,T,1004, ","77","T,0821,+","10096","1","37.61"," ,T",,,"36.0","T","45.9","T","26.0","T"
"USC00103558","GIBBONSVILLE NUMBER 2, ID US","45.5469","-113.9258","1365.5","2009",,,,,,,,,,,,,,,,,,,,,,,,,,,,
"USC00101017","BOISE 7 N, ID US","43.7383","-116.2022","1184.1","2009","685",,"       89",,"        21","0","-4","0,1210, ","9"," ,0,0106, ","5.2"," ,0,1222, ","0.87"," ,0,0602, ","100","0,0718, ","6178","3","18.09"," ,0","57.4"," ,0","48.8","0","59.1","0","38.4","0"
"USR0000ISKI","SKI HILL IDAHO, ID US","44.9436","-116.1878","1676.4","2009",,,,,,,,,,,,,,,,,"7621","1",,,,,,,,,,
"USR0000IMOL","MOBURG CANYON IDAHO, ID US","42.0431","-113.1528","1950.7","2009","470",,,,,,"2","U,1209, ",,,,,,,"90","U,0718, ","6913","8",,,,,"45.6","U","52.4","U","38.8","U"
"USS0014G02S","MAGIC MOUNTAIN, ID US","42.18","-114.29","2097.0","2009","47",,"      202",,,,"-5","T,0104, ","64"," ,T,0403, ",,,"1.50"," ,T,0606, ","89","T,0821, ","8131","2","31.33"," ,T",,,"41.4","T","53.0","T","29.9","T"
"USS0014F19S","CHOCOLATE GULCH, ID US","43.77","-114.42","1962.9","2009","13",,"      181",,,,"-15","T,0104, ","37"," ,T,0315, ",,,"0.80"," ,T,1004,+","88","T,0821, ","8894","0","22.33"," ,T",,,"39.4","T","52.7","T","26.1","T"
"USR0000IGRL","DALE BITNER IDAHO, ID US","43.0497","-111.3794","1948.0","2009","13",,,,,,"-35","U,0104, ",,,,,,,"90","U,0822,+","9515","2",,,,,"37.9","U","52.2","U","23.6","U"
"USR0000IPCN","POLE CANYON IDAHO, ID US","42.8944","-111.8406","2042.2","2009","264",,,,,,"-3","U,1209,+",,,,,,,"89","U,0822,+","7663","1",,,,,"42.9","U","51.4","U","34.3","U"
"USR0000IPCK","POLE CREEK IDAHO, ID US","42.0694","-115.7861","1725.2","2009","397",,,,,,"-3","U,1210, ",,,,,,,"97","U,0821, ","6759","8",,,,,"46.0","U","59.3","U","32.8","U"
"USS0011G01S","SOMSEN RANCH, ID US","42.95","-111.36","2072.6","2009","20",,"      179",,,,"-14","T,1210, ","46"," ,T,0403,+",,,"0.90"," ,T,1004, ","86","T,0822, ","8405","3","29.24"," ,T",,,"40.3","T","52.1","T","28.6","T"
"USR0000IGAS","GAS CAVES IDAHO, ID US","44.1678","-111.7792","1749.6","2009","91",,,,,,"-22","U,0127, ",,,,,,,"92","U,0821, ","8588","2",,,,,"40.0","U","53.7","U","26.4","U"
"USS0013F03S","BEAR CANYON, ID US","43.74","-113.94","2407.9","2009","0",,,,,,"-23","T,1209, ",,,,,"1.00"," ,T,0620, ","83","T,0821, ","10618","1","31.14"," ,T",,,"34.5","T","48.7","T","20.3","T"
"USC00103448","GARDEN VALLEY, ID US","44.1011","-115.9694","944.9","2009","265",,"      112",,"        17","0","-12","0,0104, ","26"," ,0,0101, ","7.3"," ,0,0101, ","1.66"," ,0,0807, ","99","0,0723,+","6707","2","24.96"," ,0","68.2"," ,0","46.3","0","60.6","0","31.9","0"
"USS0013E06S","MOONSHINE, ID US","44.41","-113.4","2267.7","2009","8",,"      207",,,,"-20","T,0126, ","43"," ,T,0403,+",,,"1.40"," ,T,0620, ","88","T,0723,+","9411","1","21.50"," ,T",,,"38.0","T","52.8","T","23.3","T"
"USS0013E18S","MEADOW LAKE, ID US","44.44","-113.32","2788.9","2009","1",,,,,,"-18","T,1206, ",,,,,"1.40"," ,T,1004, ","77","T,0821, ","10595","3","34.59"," ,T",,,"34.8","T","43.3","T","26.2","T"
"USS0014F08S","DOLLARHIDE SUMMIT, ID US","43.6","-114.67","2566.4","2009","21",,"      253",,,,"-9","T,1209, ","70"," ,T,0402,+",,,"1.40"," ,T,1004, ","79","T,0718, ","9609","1","35.76"," ,T",,,"37.5","T","44.5","T","30.5","T"
"USC00109963","YELLOWPINE BAR, ID US","45.545","-115.2514","755.9","2009","595",,"       99",,"        14","0","0","0,1211,+","26"," ,0,0107, ","13.5"," ,0,0102, ","1.30"," ,0,0102, ","103","0,0724, ","6550","1","23.30"," ,0","59.3"," ,0","48.0","0","61.3","0","34.6","0"
"USC00100470","ASHTON 1 N, ID US","44.0707","-111.4565","1588.6","2009",,,"      111",,"        25","0",,,"32"," ,0,0214,+","8.0"," ,0,0402, ",,,,,,,,,"69.0"," ,0",,,,,,
"USC00104150","HEADQUARTERS, ID US","46.6311","-115.8086","975.4","2009","62",,"      146",,"        22","0","-11","0,0312, ","38"," ,0,0106, ","8.3"," ,0,0306, ","2.52"," ,0,0102, ","92","0,0829,+",,,"35.81"," ,0","85.4"," ,0","41.6","0","53.9","0","29.2","0"
"USR0000IHSB","HORSE BUTTE IDAHO, ID US","42.4172","-115.2278","1524.0","2009","532",,,,,,"-4","U,1208, ",,,,,,,"100","U,0718, ","6636","5",,,,,"46.9","U","57.7","U","36.2","U"
"USS0015E11S","BANNER SUMMIT, ID US","44.3","-115.23","2145.8","2009","2",,"      232",,,,"-20","T,1208, ","79"," ,T,0316, ",,,"1.60"," ,T,0316, ","85","T,0718, ","9682","2","40.42"," ,T",,,"37.5","T","51.3","T","23.6","T"
"USC00103732","GRACE, ID US","42.5872","-111.7275","1691.6","2009",,,,,,,,,,,,,"0.79"," ,0,0619, ",,,,,"15.15"," ,0",,,,,,,,
"USS0013F04S","GARFIELD RANGER STATION, ID US","43.61","-113.93","1999.5","2009","13",,,,,,"-14","T,0126, ",,,,,"1.20"," ,T,0620, ","87","T,0821, ","8627","0","23.44"," ,T",,,"40.2","T","53.2","T","27.1","T"
"USR0000IGRA","GRACE IDAHO, ID US","42.5372","-111.8547","1892.8","2009","400",,,,,,"-2","U,0127, ",,,,,,,"96","U,0822, ","7206","1",,,,,"45.2","U","55.5","U","34.8","U"
"USC00101671","CHILLY BARTON FLAT, ID US","43.97775","-113.82913","1908.0","2009",,,,,,,,,,,,,,,,,"8226","8","10.57"," ,0","22.4"," ,0",,,,,,
"USS0015B09S","SUNSET, ID US","47.56","-115.82","1688.6","2009","47",,,,,,"-9","T,1208, ",,,,,"2.80"," ,T,0107, ","83","T,0828, ","9284","8","46.95"," ,T",,,"39.4","T","45.4","T","33.3","T"
"USC00101551","CASTLEFORD 2 N, ID US","42.5503","-114.8661","1165.9","2009","523",,,,"        13","0","-7","0,1210, ",,,"6.0"," ,0,1004, ","1.60"," ,0,1004, ","95","0,0723,+","5796","0","10.29"," ,0","31.5"," ,0","48.9","0","61.4","0","36.4","0"
"USR0000INOR","NORTH FORK IDAHO, ID US","43.7897","-114.4208","1917.2","2009","42",,,,,,"-17","U,0127, ",,,,,,,"92","U,0821, ","8507","4",,,,,"40.7","U","55.9","U","25.5","U"
"USC00106586","OLA, ID US","44.1758","-116.2827","937.3","2009","493",,"       85",,"        13","0","-5","0,1211,+","15"," ,0,0101, ","4.0"," ,0,0306,+","0.89"," ,0,1004, ","103","0,0722,+","6420","5","19.35"," ,0","35.0"," ,0","47.2","0","62.6","0","31.7","0"
"USS0015C16S","COOL CREEK, ID US","46.76","-115.3","1914.1","2009","70",,"      253",,,,"-12","T,1207, ","136"," ,T,0402, ",,,"3.00"," ,T,0107, ","80","T,0723, ","9077","9","58.73"," ,T",,,"39.7","T","46.6","T","32.9","T"
"USS0015C04S","SHANGHI SUMMIT, ID US","46.57","-115.74","1392.9","2009","173",,"      206",,,,"-7","T,1208, ","93"," ,T,0403,+",,,"2.40"," ,T,0107,+","90","T,0801, ","7396","2","51.56"," ,T",,,"44.5","T","53.9","T","35.2","T"
"USC00107673","RICHFIELD, ID US","43.0517","-114.155","1313.4","2009","408",,,,"        14","0","-11","0,0105, ",,,"3.0"," ,0,1222,+","1.09"," ,0,0620, ","100","0,0719, ","7830","1","12.04"," ,0","27.9"," ,0","43.4","0","56.9","0","30.0","0"
"USC00108080","SALMON KSRA, ID US","45.17319","-113.88542","1204.9","2009","243",,"       52",,"         6","0","-10","0,1209,+","7"," ,0,0102, ","6.0"," ,0,0102, ","0.85"," ,0,0807, ","98","0,0724, ","7822","4","9.55"," ,0","17.3"," ,0","43.7","0","56.2","0","31.1","0"
"USC00109293","TWIN FALLS KMVT, ID US","42.5808","-114.4569","1118.6","2009",,,,,"         9","0","-7","0,1210, ",,,"4.3"," ,0,0126, ","0.99"," ,0,0408, ",,,,,"10.04"," ,0","25.9"," ,0",,,,,"37.7","0"
"USS0011F02S","PINE CREEK PASS, ID US","43.57","-111.21","2048.3","2009","38",,"      193",,,,"-13","T,0127, ","53"," ,T,0402, ",,,"0.80"," ,T,0325, ","88","T,0821, ","8334","8","26.73"," ,T",,,"41.2","T","52.7","T","29.8","T"
"USS0015D01S","SECESH SUMMIT, ID US","45.19","-115.97","1987.3","2009","5",,"      216",,,,"-16","T,1208, ","87"," ,T,0402, ",,,"1.90"," ,T,1014, ","83","T,0722, ","9398","4","37.13"," ,T",,,"38.3","T","48.7","T","27.9","T"
"USS0013G01S","HOWELL CANYON, ID US","42.32","-113.62","2432.3","2009","24",,"      220",,,,"-6","T,0104, ","86"," ,T,0403, ",,,"1.50"," ,T,0325, ","86","T,0723, ","8695","6","41.22"," ,T",,,"40.0","T","50.1","T","29.9","T"
"USC00104831","KELLOGG, ID US","47.53815","-116.23424","678.2","2009","332",,"       90",,"        19","0","-2","0,0311, ","16"," ,0,0106, ","5.5"," ,0,0310, ","1.47"," ,0,0108, ","96","0,0829,+","7109","5","32.68"," ,0","47.7"," ,0","46.0","0","56.6","0","35.4","0"
"USC00102892","ELK RIVER, ID US","46.77439","-116.17623","867.2","2009",,,,,,,,,,,,,,,,,,,,,,,,,,,,
"USS0016E14S","VAN WYCK, ID US","44.38","-116.34","1499.6","2009","538",,"      153",,,,"1","T,1208, ","29"," ,T,1231, ",,,"1.90"," ,T,1215, ","93","T,0718, ","6633","1","26.33"," ,T",,,"47.2","T","55.5","T","39.0","T"
"USC00100915","BLACKFOOT FIRE DEPARTMENT, ID US","43.19172","-112.34522","1371.3","2009",,,,,"         8","0",,,,,"6.0"," ,0,0123, ","0.74"," ,0,0611, ","97","0,0724, ",,,"16.85"," ,0","21.5"," ,0",,,"56.9","0",,
"USC00109846","WINCHESTER, ID US","46.2381","-116.6232","1210.7","2009","166",,"      130",,"        36","0","-10","0,0126, ","16"," ,0,0106, ","10.8"," ,0,0325, ","1.22"," ,0,0807, ","94","0,0828, ","7708","2","20.31"," ,0","111.4"," ,0","43.8","0","54.7","0","32.8","0"
"USS0016A10S","SCHWEITZER BASIN, ID US","48.37","-116.64","1856.2","2009","20",,"      259",,,,"-9","T,1207, ","137"," ,T,0403, ",,,"2.00"," ,T,1026,+","78","T,0801, ","10258","7","48.12"," ,T",,,"36.9","T","42.7","T","31.2","T"
"USR0000ICHL","CHALLIS IDAHO, ID US","44.5042","-114.2228","1600.2","2009","418",,,,,,"-11","U,1208, ",,,,,,,"99","U,0821, ","7096","1",,,,,"45.7","U","58.7","U","32.7","U"
"USR0000IPRL","PRIEST LAKE IDAHO, ID US","48.575","-116.9636","792.5","2009","110",,,,,,"-15","U,0103, ",,,,,,,"96","U,0801, ","8648","6",,,,,"41.9","U","54.8","U","28.9","U"
"USC00109065","TETONIA EXPERIMENT STATION, ID US","43.8563","-111.2769","1880.6","2009",,,,,,,,,,,,,,,,,,,"23.73"," ,0",,,,,,,,
"USW00024156","POCATELLO REGIONAL AIRPORT, ID US","42.9202","-112.5711","1357.0","2009","298",,"       52",,"        17","0","-17","0,1210, ","5"," ,0,1214,+","3.9"," ,0,0323, ","1.33"," ,0,0704, ","98","0,0821, ","7242","2","15.36"," ,0","39.1"," ,0","44.9","0","58.1","0","31.7","0"
"USR0000IISP","ISLAND PARK IDAHO, ID US","44.4167","-111.3833","1915.4","2009",,,,,,,,,,,,,,,,,"9659","9",,,,,,,,,,
"USW00024151","MALAD CITY, ID US","42.18868","-112.24863","1384.7","2009","316",,"        0",,,,"-15","0,1210,+","0"," ,0,1231,+",,,"1.50"," ,0,0209, ","98","0,0723,+",,,"13.83"," ,0",,,"44.7","0","59.0","0","30.3","0"
"USS0016E18S","LONG VALLEY, ID US","44.79","-116.09","1490.5","2009","70",,"      157",,,,"-18","T,0127, ","26"," ,T,0305, ",,,"1.10"," ,T,1004, ","96","T,0718, ","7956","0","23.06"," ,T",,,"42.0","T","56.6","T","27.3","T"
"USC00108412","SILVER CITY 5 W, ID US","43.0022","-116.8316","1877.6","2009",,,,,,,,,,,,,,,,,,,,,,,,,,,,
"USS0016D09S","BRUNDAGE RESERVOIR, ID US","45.04","-116.13","1905.0","2009","28",,"      214",,,,"-15","T,1208, ","86"," ,T,0331, ",,,"1.90"," ,T,0101, ","85","T,0801,+","9489","9","48.53"," ,T",,,"38.1","T","49.1","T","27.1","T"
"USW00004109","LOWELL THREE RIVERS RESORT, ID US","46.14417","-115.59639","451.1","2009","554",,,,,,"4","W,1208, ",,,,,"2.29"," ,W,0105, ","104","W,0801, ","5779","7","36.19"," ,W",,,"50.4","W","61.5","W","39.3","W"
"USC00104295","HOLLISTER, ID US","42.3528","-114.5739","1379.2","2009",,,,,,,,,,,,,"1.77"," ,0,0622, ",,,,,"13.67"," ,0",,,,,,,,
"USC00107563","RED RIVER RANGER STATION, ID US","45.7075","-115.3444","1325.9","2009","30",,"      164",,"        48","0","-18","0,1208, ","30"," ,0,0317, ","10.0"," ,0,0316, ","1.46"," ,0,0606, ","93","0,0829,+","9048","8","24.79"," ,0","141.1"," ,0","39.6","0","53.4","0","25.7","0"
"USR0000IBEA","BEARSKIN CREEK IDAHO, ID US","44.385","-115.55","2042.2","2009","79",,,,,,"-11","U,1208, ",,,,,,,"87","U,0718, ","8890","1",,,,,"39.6","U","50.1","U","29.2","U"
"USC00104845","KETCHUM RANGER STATION, ID US","43.6841","-114.3602","1795.3","2009",,,"      147",,"        25","0",,,"30"," ,0,0102, ","6.0"," ,0,0126, ","0.96"," ,0,1014, ",,,,,"16.81"," ,0","63.0"," ,0",,,,,,
"USC00103631","GLENNS FERRY, ID US","42.9404","-115.323","751.6","2009",,,,,"         5","0",,,,,"4.0"," ,0,0105, ",,,,,,,"11.90"," ,0","16.5"," ,0",,,,,,
"USC00105015","KOOSKIA 5 SE, ID US","46.09833","-115.8875","768.1","2009","578",,,,"        21","0","-2","0,1212,+",,,"10.0"," ,0,1213, ","0.80"," ,0,0329, ","97","0,0831,+","5961","9","18.06"," ,0","65.7"," ,0","49.3","0","63.2","0","35.4","0"
"USS0016E05S","SQUAW FLAT, ID US","44.77","-116.25","1902.0","2009","80",,"      211",,,,"-16","T,1209,+","76"," ,T,0305, ",,,"2.10"," ,T,0315, ","92","T,0722, ","8534","1","41.63"," ,T",,,"40.7","T","54.0","T","27.4","T"
"USC00100803","BERN, ID US","42.33532","-111.38544","1817.8","2009",,,,,,,,,,,,,,,,,"8483","9",,,,,,,,,,
"USS0016F02S","BOGUS BASIN, ID US","43.76","-116.1","1932.4","2009","77",,"      214",,,,"-7","T,1209, ","78"," ,T,0403,+",,,"1.90"," ,T,0606, ","87","T,0718, ","7765","2","33.54"," ,T",,,"42.6","T","50.9","T","34.4","T"
"USR0000IGOO","GOOSE CREEK IDAHO, ID US","42.095","-113.8958","1725.2","2009","466",,,,,,"-1","U,1208, ",,,,,,,"98","U,0821, ",,,,,,,"46.9","U","57.5","U","36.4","U"
"USR0000IFLI","FLINT CREEK IDAHO, ID US","42.0792","-112.1833","1585.0","2009","540",,,,,,"-3","U,0104, ",,,,,,,"99","U,0718, ","6653","4",,,,,"47.4","U","59.4","U","35.3","U"
"USR0000IHPK","HORTON PEAK IDAHO, ID US","43.9481","-114.7561","2560.3","2009","77",,,,,,"-12","U,1209,+",,,,,,,"87","U,0802, ","9220","5",,,,,"38.6","U","49.4","U","27.9","U"
"USR0000IFLE","FLECK SUMMIT IDAHO, ID US","43.6197","-114.8989","1981.2","2009","113",,,,,,"-9","U,1210,+",,,,,,,"93","U,0821, ","8164","7",,,,,"41.8","U","54.8","U","28.9","U"
"USS0016D08S","WEST BRANCH, ID US","45.07","-116.45","1694.7","2009","178",,,,,,"-7","T,1209, ",,,,,"1.90"," ,T,0807, ","91","T,0718, ","7745","7","39.54"," ,T",,,"43.4","T","54.2","T","32.5","T"
"USC00105275","LIFTON PUMPING STATION, ID US","42.123","-111.3133","1809.0","2009","141",,"      114",,"        19","0","-12","0,1211,+","7"," ,0,0312,+","4.0"," ,0,0309, ","0.64"," ,0,0507, ","95","0,0823, ","8267","9","10.54"," ,0","28.9"," ,0","41.8","0","55.0","0","28.5","0"
"USC00107210","POCATELLO CITY, ID US","42.87496","-112.44686","1359.4","2009",,,,,,,,,,,,,,,,,,,,,,,,,,,,
"USR0000IEZR","EZRA CREEK IDAHO, ID US","44.8464","-114.0264","2030.0","2009","161",,,,,,"-13","U,1208, ",,,,,,,"89","U,0821, ","8621","5",,,,,"40.7","U","50.1","U","31.4","U"
"USS0015C06S","HEMLOCK BUTTE, ID US","46.48","-115.63","1770.9","2009","135",,"      233",,,,"-7","T,1207, ","153"," ,T,0402, ",,,"2.40"," ,T,0107, ","85","T,0801, ","7729","1","62.74"," ,T",,,"42.7","T","49.6","T","35.9","T"
"USR0000IPOW","POWELL IDAHO, ID US","46.5122","-114.6881","1039.1","2009",,,,,,,,,,,,,,,,,"7524","0",,,,,,,,,,
"USS0011G33S","GIVEOUT, ID US","42.41","-111.17","2112.3","2009","1",,,,,,"-17","T,0104, ",,,,,"0.70"," ,T,0602,+","87","T,0822, ","9017","3","20.53"," ,T",,,"39.0","T","52.3","T","25.8","T"
"USC00107208","POCATELLO 2 NE, ID US","42.8916","-112.4086","1472.8","2009",,,"      104",,"        33","0",,,"9"," ,0,0102, ","7.0"," ,0,0329,+","1.43"," ,0,0614, ",,,"6602","7","16.95"," ,0","79.0"," ,0",,,,,,
"USS0011F11S","SHEEP MOUNTAIN, ID US","43.21","-111.69","2002.5","2009","39",,,,,,"-10","T,0104, ",,,,,"1.10"," ,T,0606, ","86","T,0822, ","8064","2","25.72"," ,T",,,"41.6","T","51.9","T","31.3","T"
"USS0011G32S","FRANKLIN BASIN, ID US","42.05","-111.6","2490.2","2009","7",,"      227",,,,"-9","T,0104, ","98"," ,T,0403, ",,,"1.30"," ,T,0325, ","81","T,0822, ","9216","8","48.54"," ,T",,,"38.7","T","48.6","T","28.7","T"
"USC00100010","ABERDEEN EXPERIMENT STATION, ID US","42.9536","-112.8253","1342.6","2009","321",,"       76",,"        12","0","-17","0,1211,+","11"," ,0,0217, ","6.0"," ,0,0217, ","1.75"," ,0,0618, ","99","0,0903,+",,,"11.61"," ,0","27.5"," ,0","44.2","0","58.6","0","29.9","0"
"USC00101220","BUHL NUMBER 2, ID US","42.6006","-114.7453","1158.2","2009",,,,,"         0","0",,,,,"0.0"," ,0,1231,+","1.14"," ,0,0619, ",,,,,"11.60"," ,0","0.0"," ,0",,,,,,
"USC00107689","RIGBY, ID US","43.67603","-111.91241","1480.1","2009",,,,,,,,,,,,,,,,,,,,,,,,,,,,
"USC00108535","SODA SPRINGS AIRPORT, ID US","42.6513","-111.5833","1780.6","2009",,,,,,,,,,,,,,,,,,,,,,,,,,,,
"USC00105708","MCCALL, ID US","44.8871","-116.1046","1531.6","2009","81",,"      158",,"        46","0","-16","0,1210,+","28"," ,0,0216, ","9.0"," ,0,1216, ","0.90"," ,0,1004, ","92","0,0719, ",,,"19.53"," ,0","103.9"," ,0","40.3","0","53.8","0","26.9","0"
"USS0016A12S","HIDDEN LAKE, ID US","48.89","-116.76","1536.2","2009","6",,"      235",,,,"-13","T,1208, ","93"," ,T,0401, ",,,"3.60"," ,T,0107, ","83","T,0820, ","9582","1","66.14"," ,T",,,"38.6","T","47.8","T","29.4","T"
