"STATION","NAME","LATITUDE","LONGITUDE","ELEVATION","DATE","CDSD","CDSD_ATTRIBUTES","DSND","DSND_ATTRIBUTES","DSNW","DSNW_ATTRIBUTES","EMNT","EMNT_ATTRIBUTES","EMSD","EMSD_ATTRIBUTES","EMSN","EMSN_ATTRIBUTES","EMXP","EMXP_ATTRIBUTES","EMXT","EMXT_ATTRIBUTES","HDSD","HDSD_ATTRIBUTES","PRCP","PRCP_ATTRIBUTES","SNOW","SNOW_ATTRIBUTES","TAVG","TAVG_ATTRIBUTES","TMAX","TMAX_ATTRIBUTES","TMIN","TMIN_ATTRIBUTES"
"US1INBN0010","LEBANON 4.5 NNE, IN US","40.115207","-86.455075","284.1","2009",,,,,,,,,,,,,"1.85"," ,N,0501, ",,,,,"43.68"," ,N",,,,,,,,
"USW00014848","SOUTH BEND AIRPORT, IN US","41.7072","-86.3163","235.6","2009","526",,"       55",,"        22","0","-19","0,0116, ","15"," ,0,0115, ","6.5"," ,0,0115, ","2.81"," ,0,0611, ","93","0,0624, ","6567","2","41.87"," ,0","55.2"," ,0","48.6","0","57.8","0","39.4","0"
"USC00128442","STENDAL, IN US","38.26714","-87.14299","198.1","2009","1227",,"       14",,"         3","0","-5","0,0116, ","5"," ,0,0128, ","4.8"," ,0,0128, ","3.26"," ,0,1009, ","96","0,0627,+",,,"58.13"," ,0","11.3"," ,0","56.2","0","65.4","0","47.0","0"
"USC00126023","MUNCIE, IN US","40.1825","-85.3497","294.4","2009",,,"       42",,"         7","0",,,"10"," ,0,0201,+","7.2"," ,0,0128, ","1.48"," ,0,1002, ",,,,,"35.39"," ,0","26.9"," ,0",,,,,,
"US1INBN0017","THORNTOWN 3.4 SW, IN US","40.090749","-86.650062","267.9","2009",,,,,,,,,,,,,"2.01"," ,N,0212, ",,,,,"36.95"," ,N",,,,,,,,
"USC00125174","LOWELL, IN US","41.2647","-87.4178","202.7","2009","479",,"       45",,"        15","0","-25","0,0116, ","7"," ,0,0121,+","3.0"," ,0,0114, ","2.44"," ,0,0611, ","92","0,0626,+","6591","6","43.69"," ,0","27.5"," ,0","48.3","0","58.1","0","38.4","0"
"US1INLP0007","LA PORTE 1.6 SW, IN US","41.5904","-86.7343","253.9","2009",,,,,,,,,,,,,"1.96"," ,N,1023, ",,,,,"46.41"," ,N",,,,,,,,
"US1INHM0005","CARMEL 1.5 W, IN US","39.968514","-86.136939","256.9","2009",,,,,,,,,,,,,"2.10"," ,N,0406, ",,,,,"44.75"," ,N",,,,,,,,
"USC00128436","ST. JOE 2 W, IN US","41.3174","-84.9461","259.1","2009",,,,,,,,,,,,,"3.00"," ,0,0406, ",,,,,"38.18"," ,0",,,,,,,,
"USC00120830","BLUFFTON 6 N, IN US","40.8143","-85.1546","262.4","2009","661",,,,"        11","0","-17","0,0117,+",,,"4.5"," ,0,0128, ","2.76"," ,0,0406, ","94","0,0627,+","6236","3","40.32"," ,0","20.6"," ,0","49.9","0","59.6","0","40.3","0"
"USC00123547","GREENSBURG, IN US","39.3475","-85.4891","285.6","2009","919",,,,"         5","0","-9","0,0116, ",,,"5.0"," ,0,0129, ","4.03"," ,0,0805, ","93","0,0626, ",,,"47.91"," ,0","18.2"," ,0","52.9","0","62.5","0","43.3","0"
"US1INNW0001","MOUNT AYR 1.6 NNE, IN US","40.973306","-87.290494","206.0","2009",,,,,,,,,,,,,,,,,,,"41.96"," ,N",,,,,,,,
"US1INPT0069","PORTER 0.6 S, IN US","41.618918","-87.082463","193.9","2009",,,,,,,,,,,,,"2.47"," ,N,1030, ",,,,,"44.59"," ,N",,,,,,,,
"US1INSJ0028","SOUTH BEND 4.6 SE, IN US","41.6209","-86.2152","269.4","2009",,,"       52",,"        16","N",,,"14"," ,N,0115, ","5.1"," ,N,0110, ","1.49"," ,N,0828, ",,,,,"40.80"," ,N","45.3"," ,N",,,,,,
"US1INBN0001","LEBANON 3.9 WSW, IN US","40.035","-86.544736","285.9","2009",,,,,,,,,,,,,"1.81"," ,N,1009, ",,,,,"42.13"," ,N",,,,,,,,
"US1INEL0019","GOSHEN 1.2 WNW, IN US","41.582699","-85.858244","243.8","2009",,,,,,,,,,,,,,,,,,,"43.01"," ,N",,,,,,,,
"US1INVN0009","EVANSVILLE 5.9 WNW, IN US","38.015602","-87.644911","178.0","2009",,,,,,,,,,,,,"3.52"," ,N,1009, ",,,,,"55.71"," ,N",,,,,,,,
"US1INAL0006","FORT WAYNE 5.4 WSW, IN US","41.05315","-85.23888","253.0","2009",,,,,,,,,,,,,"4.44"," ,N,0818, ",,,,,"43.64"," ,N",,,,,,,,
"US1INEL0020","GOSHEN 1.9 NW, IN US","41.594164","-85.866005","242.9","2009",,,,,,,,,,,,,,,,,,,"45.21"," ,N",,,,,,,,
"US1INLP0018","WESTVILLE 4.7 ESE, IN US","41.506377","-86.827092","237.1","2009",,,,,,,,,,,,,"2.17"," ,N,1023, ",,,,,"45.53"," ,N",,,,,,,,
"US1INHM0017","CARMEL 0.9 ESE, IN US","39.965304","-86.09236","239.0","2009",,,,,,,,,,,,,"2.10"," ,N,0406, ",,,,,"42.93"," ,N",,,,,,,,
"USC00126801","PENCE 1 SW, IN US","40.3522","-87.525","213.4","2009",,,,,"         4","0",,,,,"3.0"," ,0,0128, ",,,,,,,,,"10.9"," ,0",,,,,,
"US1INMN0007","BLOOMINGTON 6.5 WNW, IN US","39.208272","-86.630458","253.9","2009",,,,,,,,,,,,,"4.13"," ,N,0514, ",,,,,"51.32"," ,N",,,,,,,,
"US1INHM0019","LAPEL 4.7 NW, IN US","40.122701","-85.901071","246.0","2009",,,,,,,,,,,,,"2.62"," ,N,0406, ",,,,,"41.84"," ,N",,,,,,,,
"USC00123777","HARTFORD CITY 4 ESE, IN US","40.4355","-85.2891","281.6","2009","588",,,,"         9","0","-17","0,0117,+",,,"7.1"," ,0,0128, ","1.76"," ,0,0406, ","92","0,0810,+","6050","0","40.40"," ,0","33.7"," ,0","49.8","0","58.9","0","40.8","0"
"USC00123418","GOSHEN 3 SW, IN US","41.5575","-85.8825","266.7","2009","519",,"       50",,"        18","0","-20","0,0116, ","10"," ,0,0117,+","3.9"," ,0,0222, ","3.79"," ,0,0817, ","94","0,0624, ","6364","7","46.93"," ,0","52.4"," ,0","49.3","0","58.4","0","40.1","0"
"US1INSJ0024","MISHAWAKA 2.5 SE, IN US","41.648","-86.129","224.0","2009",,,,,,,,,,,,,"2.32"," ,N,0818, ",,,,,"41.33"," ,N",,,,,,,,
"USC00129430","WEST LAFAYETTE 6 NW, IN US","40.475","-86.9919","215.8","2009","631",,,,"         7","0","-17","0,0116, ",,,"4.0"," ,0,0128, ","2.63"," ,0,0602, ","94","0,0625, ","6192","1","42.97"," ,0","15.7"," ,0","50.0","0","60.4","0","39.5","0"
"USW00014827","FORT WAYNE INTERNATIONAL AIRPORT, IN US","40.9705","-85.2063","241.1","2009","592",,"       45",,"        11","0","-19","0,0116, ","7"," ,0,0128, ","5.3"," ,0,0128, ","3.24"," ,0,0817, ","95","0,0625, ","6240","8","41.14"," ,0","30.8"," ,0","49.8","0","59.4","0","40.2","0"
"US1INVN0010","EVANSVILLE 3.0 N, IN US","38.02813","-87.54356","116.1","2009",,,,,,,,,,,,,"2.65"," ,N,1009, ",,,,,"53.98"," ,N",,,,,,,,
"USC00126160","NEW CARLISLE, IN US","41.7064","-86.5032","231.6","2009",,,,,"        23","0",,,,,"6.0"," ,0,0114, ","3.71"," ,0,0728, ",,,,,"48.90"," ,0","60.9"," ,0",,,,,,
"USC00127370","RICHMOND WATER WORKS, IN US","39.8544","-84.8779","306.3","2009",,,,,,,,,,,,,,,,,,,"34.61"," ,0","17.8"," ,0",,,,,,
"USW00014829","GOSHEN MUNICIPAL AIRPORT, IN US","41.5333","-85.7833","253.0","2009","463",,,,,,"-21","W,0116, ",,,,,"5.00"," ,W,0817, ","93","W,0809,+","6626","1","41.34"," ,W",,,"48.2","W","57.8","W","38.5","W"
"US1INEL0007","MILLERSBURG 0.5 SW, IN US","41.520929","-85.700842","271.0","2009",,,,,,,,,,,,,"5.71"," ,N,0818, ",,,,,"41.87"," ,N",,,,,,,,
"USC00127255","REELSVILLE 4 SW, IN US","39.5022","-87.0033","191.4","2009",,,,,"         6","0",,,,,"11.0"," ,0,0128, ","2.75"," ,0,0514, ",,,,,"51.95"," ,0","19.9"," ,0",,,,,,
"US1INEL0008","WAKARUSA 2.4 NNE, IN US","41.56551","-85.9933","256.0","2009",,,"       51",,"        13","N",,,"11"," ,N,0118, ","4.1"," ,N,0110, ","3.86"," ,N,0818, ",,,,,"43.10"," ,N","39.2"," ,N",,,,,,
"USC00126164","NEW CASTLE 3 SW, IN US","39.8942","-85.3953","302.1","2009","500",,,,"         7","0","-16","0,0117, ",,,"9.0"," ,0,0128, ","2.52"," ,0,0611, ","90","0,0626, ","6202","7","42.31"," ,0","29.2"," ,0","49.4","0","59.2","0","39.6","0"
"USC00129670","WINAMAC 2 SSE, IN US","41.0267","-86.5866","210.3","2009","545",,"       57",,"        12","0","-21","0,0117,+","7"," ,0,0122,+","3.0"," ,0,0219,+","2.32"," ,0,0311, ","92","0,0810,+","6532","7","38.67"," ,0","25.0"," ,0","48.7","0","58.5","0","38.9","0"
"US1INLP0036","LA PORTE 1.2 E, IN US","41.611181","-86.690311","241.1","2009",,,,,,,,,,,,,"1.81"," ,N,1030, ",,,,,"45.42"," ,N",,,,,,,,
"USC00126830","PERRYSVILLE 4 WNW, IN US","40.0738","-87.5066","186.2","2009","715",,"       24",,"         4","0","-17","0,0116, ","4"," ,0,0201,+","4.5"," ,0,0128, ","2.35"," ,0,0516, ","94","0,0625, ","5968","5","49.08"," ,0","13.7"," ,0","51.0","0","61.5","0","40.4","0"
"US1INMG0009","MARTINSVILLE 0.7 E, IN US","39.423396","-86.409085","191.1","2009",,,,,,,,,,,,,"2.75"," ,N,0514, ",,,,,"44.10"," ,N",,,,,,,,
"US1INWL0003","BLUFFTON 3.0 ENE, IN US","40.757003","-85.117943","262.1","2009",,,,,,,,,,,,,"2.45"," ,N,0212, ",,,,,"38.56"," ,N",,,,,,,,
"US1INLP0028","LA PORTE 1.3 ENE, IN US","41.611438","-86.690707","241.4","2009",,,,,,,,,,,,,"2.05"," ,N,1023, ",,,,,"45.42"," ,N",,,,,,,,
"USC00127125","PRINCETON 1 W, IN US","38.3566","-87.5905","146.3","2009","1092",,"       14",,"         4","0","-2","0,0116, ","8"," ,0,0129,+","4.0"," ,0,0127, ","2.72"," ,0,1008, ","95","0,0622, ","4927","0","53.04"," ,0","11.1"," ,0","54.5","0","65.2","0","43.9","0"
"US1INDB0001","HUNTINGBURG 0.4 SSW, IN US","38.29294","-86.9611","153.3","2009",,,,,,,,,,,,,"3.36"," ,N,1009, ",,,,,"63.85"," ,N",,,,,,,,
"USC00122594","ELKHART PUBLIC WORKS AND UT, IN US","41.6778","-86.0022","228.6","2009",,,,,,,,,,,,,"3.02"," ,0,0817, ",,,,,"42.35"," ,0",,,,,,,,
"USC00120177","ANDERSON SEWAGE PLANT, IN US","40.1117","-85.7163","256.3","2009","690",,"       22",,"         5","0","-15","0,0116, ","14"," ,0,0129,+","10.0"," ,0,0128, ","1.80"," ,0,0405, ","92","0,0625, ","5594","7","41.28"," ,0","20.6"," ,0","51.1","0","60.1","0","42.1","0"
"USW00014835","LAFAYETTE PURDUE UNIVERSITY AIRPORT, IN US","40.41222","-86.93694","182.6","2009","799",,,,,,"-19","W,0116, ",,,,,"2.64"," ,W,0601, ","94","W,0624, ","5669","7","42.95"," ,W",,,"52.0","W","61.6","W","42.4","W"
"US1INHM0029","SHERIDAN 3.9 S, IN US","40.079125","-86.2321","288.0","2009",,,,,,,,,,,,,"2.05"," ,N,0212, ",,,,,"40.03"," ,N",,,,,,,,
"USC00123207","GARRETT 1 S, IN US","41.3366","-85.1198","265.2","2009",,,"       42",,"        10","0",,,"9"," ,0,0130,+","3.8"," ,0,0128, ","2.52"," ,0,0308, ",,,,,"46.06"," ,0","30.2"," ,0",,,,,,
"USC00120852","BOONVILLE 1 S, IN US","38.0302","-87.2736","121.9","2009","1391",,"       11",,"         3","0","-3","0,0116, ","6"," ,0,0128, ","5.1"," ,0,0127, ","3.21"," ,0,0920, ","96","0,0627,+","4390","0","54.80"," ,0","7.7"," ,0","57.3","0","67.6","0","46.9","0"
"USC00121940","CROWN POINT 1 N, IN US","41.4388","-87.3545","212.1","2009",,,,,,,,,,,,,,,,,,,,,,,,,,,,
"USW00094895","MUNCIE DELAWARE CO AIRPORT, IN US","40.23417","-85.39361","285.6","2009","705",,,,,,"-14","W,0116, ",,,,,"1.56"," ,W,0211, ","93","W,0625,+","5795","5","33.64"," ,W",,,"50.9","W","60.2","W","41.6","W"
"USC00124657","KNOX WWTP, IN US","41.3053","-86.6285","210.3","2009",,,"       49",,"        17","0",,,"12"," ,0,0117,+","5.0"," ,0,0115, ","1.90"," ,0,1023, ",,,"6810","6","37.71"," ,0","35.0"," ,0",,,,,,
"USC00124778","LAKE VILLAGE 7 SE, IN US","41.08586","-87.38331","205.7","2009",,,"       36",,"        10","0",,,"7"," ,0,0115, ","3.9"," ,0,0115, ","2.50"," ,0,0308, ",,,,,"41.46"," ,0","26.3"," ,0",,,,,,
"USC00123206","GARRETT, IN US","41.3415","-85.1292","268.2","2009","491",,"       46",,"         9","0","-19","0,0117,+","9"," ,0,0131,+","3.5"," ,0,0128, ","3.42"," ,0,0818, ","94","0,0626,+",,,"44.50"," ,0","25.2"," ,0","48.4","0","58.2","0","38.6","0"
"US1INDB0006","JASPER 5.7 ESE, IN US","38.364437","-86.845345","170.1","2009",,,,,,,,,,,,,"3.16"," ,N,1009, ",,,,,"49.94"," ,N",,,,,,,,
"US1INAL0018","HUNTERTOWN 2.2 ESE, IN US","41.2224","-85.1295","264.0","2009",,,,,,,,,,,,,"3.44"," ,N,0818, ",,,,,"43.28"," ,N",,,,,,,,
"US1INDB0004","HUNTINGBURG 6.2 WSW, IN US","38.2797","-87.0709","162.2","2009",,,,,,,,,,,,,,,,,,,"54.56"," ,N",,,,,,,,
"US1INMR0013","SPEEDWAY 6.2 SSW, IN US","39.706689","-86.28095","242.9","2009",,,,,,,,,,,,,"4.05"," ,N,0805, ",,,,,"51.40"," ,N",,,,,,,,
"USR0000IBAI","BAILLY INDIANA, IN US","41.6317","-87.0878","197.2","2009",,,,,,,"2","U,0113, ",,,,,,,,,,,,,,,,,,,"41.2","U"
"USC00120858","BOSWELL 4 WNW, IN US","40.535","-87.4531","235.3","2009",,,,,,,,,,,,,,,,,,,,,,,,,,,,
"USC00127482","ROCHESTER, IN US","41.0665","-86.2096","231.6","2009","561",,,,"        15","0","-18","0,0117,+",,,"5.0"," ,0,0115, ","3.20"," ,0,0311, ","92","0,0817,+","6430","3","44.15"," ,0","30.0"," ,0","49.1","0","58.4","0","39.8","0"
"USC00125613","MIDDLETOWN 2 W, IN US","40.063","-85.5777","286.5","2009",,,"       28",,"         8","0",,,"11"," ,0,0130,+","8.3"," ,0,0128, ","2.18"," ,0,0611, ",,,,,"40.03"," ,0","29.6"," ,0",,,,,,
"US1INEL0001","WAKARUSA 0.3 WSW, IN US","41.53322","-86.019","259.1","2009",,,,,,,,,,,,,"3.45"," ,N,0818, ",,,,,"43.42"," ,N",,,,,,,,
"USC00124642","KNIGHTSTOWN 2 ENE, IN US","39.8075","-85.4877","303.9","2009",,,"       34",,"         9","0",,,"13"," ,0,0204, ","8.9"," ,0,0128, ","2.93"," ,0,0805, ",,,,,"47.60"," ,0","32.6"," ,0",,,,,,
"USC00121256","CANNELTON, IN US","37.8994","-86.7072","122.5","2009",,,"        4",,"         4","0",,,"4"," ,0,0129, ","4.0"," ,0,0129, ","3.50"," ,0,1009, ",,,,,"48.60"," ,0","12.6"," ,0",,,,,,
"USC00126705","PAOLI, IN US","38.5555","-86.4858","170.7","2009","779",,,,"         9","0","-6","0,0130, ",,,"5.0"," ,0,0128, ","3.72"," ,0,1008, ","94","0,0626, ","4849","7","52.11"," ,0","16.4"," ,0","53.0","0","63.9","0","42.1","0"
"US1INMR0002","LAWRENCE 2.0 ENE, IN US","39.880253","-85.953487","259.1","2009",,,,,,,,,,,,,"3.11"," ,N,0805, ",,,,,"43.80"," ,N",,,,,,,,
"USC00121814","CORYDON, IN US","38.218","-86.1183","217.9","2009",,,,,,,,,,,,,"4.20"," ,0,0921, ",,,,,"51.20"," ,0",,,,,,,,
"USW00004846","VALPARAISO PORTER CO MUNICIPAL AIRPORT, IN US","41.4525","-87.00583","234.7","2009","483",,,,,,"-20","W,0116, ",,,,,"2.32"," ,W,1030, ","93","W,0809,+","6345","0","37.00"," ,W",,,"48.5","W","58.0","W","39.0","W"
"USC00126580","OOLITIC PURDUE EX FRM, IN US","38.88782","-86.552","198.7","2009","756",,"       19",,"         7","0","-7","0,0117,+","10"," ,0,0130,+","4.5"," ,0,0127, ","3.18"," ,0,0514, ","91","0,0627,+","5417","7","53.68"," ,0","20.1"," ,0","52.3","0","62.7","0","42.0","0"
"USW00063898","BEDFORD 5 WNW, IN US","38.8882","-86.5707","231.6","2009","753",,,,,,"-8","R,0116, ",,,,,"3.96"," ,R,0722, ","89","R,0619, ","4956","4","54.30"," ,R",,,"53.2","R","61.9","R","44.5","R"
"US1INJS0004","RENSSELAER 0.5 SSW, IN US","40.92925","-87.153569","206.0","2009",,,,,,,,,,,,,"2.17"," ,N,0514, ",,,,,"37.60"," ,N",,,,,,,,
"USC00129724","WOODBURN 3 N, IN US","41.1645","-84.8482","216.4","2009","475",,"       43",,"         8","0","-16","0,0117,+","6"," ,0,0131,+","4.0"," ,0,0128, ","3.02"," ,0,0818, ","94","0,0626, ",,,"37.75"," ,0","23.4"," ,0","48.4","0","58.3","0","38.5","0"
"USC00129605","WILLIAMS 3 SW, IN US","38.7669","-86.6846","166.7","2009",,,,,"         8","0",,,,,"6.0"," ,0,0128, ","3.69"," ,0,0514, ",,,,,"56.76"," ,0","20.3"," ,0",,,,,,
"USC00124715","LAFAYETTE 8 S, IN US","40.2963","-86.9027","223.1","2009","676",,"       35",,"        10","0","-18","0,0117, ","6"," ,0,1228,+","4.0"," ,0,0128, ","2.15"," ,0,0516, ","92","0,0625, ","5880","7","44.78"," ,0","21.5"," ,0","50.4","0","59.8","0","41.1","0"
"USC00125923","MORRISTOWN 2 SE, IN US","39.6484","-85.678","269.7","2009",,,"       24",,"         7","0",,,"9"," ,0,0205,+","6.5"," ,0,0128, ","2.93"," ,0,0514, ",,,,,"49.50"," ,0","22.6"," ,0",,,,,,
"USC00121326","CASTLETON 2 S, IN US","39.8801","-86.0514","251.2","2009",,,"       27",,"         7","0",,,"11"," ,0,0128, ","7.6"," ,0,0128, ","2.68"," ,0,0804, ",,,,,"48.15"," ,0","30.4"," ,0",,,,,,
"USC00124837","LAPORTE, IN US","41.6116","-86.7297","246.6","2009","546",,"       58",,"        26","0","-17","0,0116, ","14"," ,0,0115, ","9.2"," ,0,0114, ","2.00"," ,0,1030, ","92","0,0624, ","6433","2","45.29"," ,0","72.0"," ,0","48.9","0","57.3","0","40.6","0"
"USW00053866","SHELBYVILLE MUNICIPAL AIRPORT, IN US","39.57806","-85.80333","245.1","2009","703",,,,,,"-13","W,0205, ",,,,,"2.86"," ,W,0804, ","92","W,0625,+","5524","2","45.57"," ,W",,,"51.8","W","61.3","W","42.4","W"
"US1INFL0003","ROCHESTER 2.4 NW, IN US","41.085157","-86.229331","232.9","2009",,,,,"        10","N",,,,,"2.6"," ,N,0128, ","2.43"," ,N,0311, ",,,,,"42.11"," ,N","17.3"," ,N",,,,,,
"USW00003868","TERRE HAUTE HULMAN REGIONAL AIRPORT, IN US","39.45194","-87.30889","175.3","2009","805",,,,,,"-10","W,0131,+",,,,,"1.87"," ,W,0419, ","93","W,0625, ","5316","5","35.73"," ,W",,,"52.5","W","62.3","W","42.7","W"
"USC00128992","VALPARAISO 5 NNE, IN US","41.5436","-87.0319","264.9","2009",,,"       59",,"        21","0",,,"25"," ,0,0204, ","17.0"," ,0,0204, ","5.56"," ,0,0611, ",,,,,"46.45"," ,0","72.2"," ,0",,,,,,
"USC00122096","DECATUR 1 N, IN US","40.8483","-84.9299","239.3","2009","609",,,,"        13","0","-17","0,0117, ",,,"4.5"," ,0,0128, ","3.00"," ,0,0212, ","94","0,0626,+","6349","4","42.23"," ,0","26.0"," ,0","49.4","0","59.1","0","39.7","0"
"US1INJF0001","HANOVER 1.4 S, IN US","38.695977","-85.472744","232.0","2009",,,,,,,,,,,,,"4.05"," ,N,0921, ",,,,,"57.05"," ,N",,,,,,,,
"USC00124272","INDIANAPOLIS SE SIDE, IN US","39.7164","-86.0678","257.6","2009",,,"       25",,"        11","0",,,"13"," ,0,0130,+","9.0"," ,0,0128, ","3.90"," ,0,0805, ",,,,,"47.31"," ,0","26.5"," ,0",,,,,,
"US1INLK0008","HAMMOND 3.0 SW, IN US","41.58649","-87.52428","185.9","2009",,,,,,,,,,,,,"2.18"," ,N,0308, ",,,,,"45.83"," ,N",,,,,,,,
"US1INCR0002","CAMDEN 4.9 NNE, IN US","40.6775","-86.51025","221.9","2009",,,,,,,,,,,,,,,,,,,"42.80"," ,N",,,,,,,,
"USC00125117","LOGANSPORT CICOTT ST., IN US","40.7477","-86.3877","182.9","2009","663",,,,"        10","0","-17","0,0117,+",,,"4.0"," ,0,0128, ","3.30"," ,0,0516, ","94","0,0810, ","6252","5","45.07"," ,0","21.0"," ,0","50.0","0","59.5","0","40.5","0"
"USC00125237","MADISON SEWAGE PLANT, IN US","38.7369","-85.3941","140.2","2009","1040",,,,"         5","0","-1","0,0116, ",,,"6.0"," ,0,0129, ","3.07"," ,0,0804, ","92","0,0809, ","4356","0","57.43"," ,0","20.0"," ,0","55.4","0","65.5","0","45.4","0"
"US1INHN0011","MCCORDSVILLE 2.6 NE, IN US","39.937","-85.9","259.1","2009",,,,,,,,,,,,,"2.09"," ,N,0406, ",,,,,"40.08"," ,N",,,,,,,,
"US1INPT0018","HEBRON 3.7 NE, IN US","41.367069","-87.162253","223.1","2009",,,,,,,,,,,,,,,,,,,"46.50"," ,N",,,,,,,,
"US1INSH0007","MORRISTOWN 3.0 SSW, IN US","39.630961","-85.717071","263.0","2009",,,,,,,,,,,,,"3.91"," ,N,0711, ",,,,,"49.07"," ,N",,,,,,,,
"US1INSH0005","SHELBYVILLE 0.8 SSW, IN US","39.512138","-85.779105","232.9","2009",,,,,,,,,,,,,"4.24"," ,N,0805, ",,,,,"54.59"," ,N",,,,,,,,
"USC00123091","FRANKLIN WWTP, IN US","39.4684","-86.04121","219.5","2009","741",,"       13",,"         5","0","-13","0,0206,+","11"," ,0,0131,+","7.0"," ,0,0128, ","3.55"," ,0,0805, ","92","0,0627,+","5798","3","57.05"," ,0","18.1"," ,0","51.1","0","61.8","0","40.4","0"
"USC00124181","HUNTINGTON, IN US","40.8555","-85.498","221.0","2009","560",,"       53",,"         8","0","-19","0,0118,+","10"," ,0,0131,+","6.0"," ,0,0128, ","2.33"," ,0,0406, ","95","0,0625, ","6212","3","38.60"," ,0","28.0"," ,0","49.0","0","59.8","0","38.3","0"
"USC00128784","TIPTON 5 SW, IN US","40.2233","-86.1086","271.3","2009","558",,"       34",,"        13","0","-18","0,0117, ","10"," ,0,0130,+","6.7"," ,0,0128, ","2.38"," ,0,0212, ","94","0,0625, ","6169","1","45.03"," ,0","36.8"," ,0","49.7","0","60.0","0","39.4","0"
"USC00126001","MOUNT VERNON, IN US","37.9286","-87.8955","108.8","2009",,,"        0",,"         0","0",,,"0","T,0,1228,+","0.5"," ,0,1207, ","3.02"," ,0,1009, ",,,,,"50.52"," ,0","1.1"," ,0",,,,,,
"USC00125394","MARSHALL, IN US","39.8438","-87.1875","215.8","2009",,,"       31",,"         5","0",,,"8"," ,0,0129, ","7.4"," ,0,0128, ","2.32"," ,0,0514, ",,,,,"51.24"," ,0","24.4"," ,0",,,,,,
"USW00003893","BLOOMINGTON MONROE CO AIRPORT, IN US","39.13333","-86.61667","257.3","2009","709",,,,,,"-10","W,0116, ",,,,,"2.77"," ,W,0513, ","91","W,0624, ","5355","9","50.59"," ,W",,,"52.3","W","62.4","W","42.3","W"
"US1INMR0051","INDIANAPOLIS 6.2 SE, IN US","39.718802","-86.056707","256.0","2009",,,,,,,,,,,,,"3.77"," ,N,0805, ",,,,,"38.87"," ,N",,,,,,,,
"USC00125700","MITCHELL, IN US","38.7894","-86.3963","199.6","2009",,,"       18",,"         9","0",,,"8"," ,0,0128, ","5.0"," ,0,0127, ","2.85"," ,0,0514, ",,,,,"53.40"," ,0","20.4"," ,0",,,,,,
"USC00124730","LAGRANGE, IN US","41.6474","-85.4121","274.3","2009","463",,"       10",,"         5","0","-18","0,0117,+","4"," ,0,1223,+","4.0"," ,0,0406, ","4.00"," ,0,0406, ","94","0,0625, ","6546","6","39.30"," ,0","17.7"," ,0","48.2","0","57.9","0","38.5","0"
"USC00123527","GREENFIELD, IN US","39.7858","-85.7611","264.9","2009","662",,,,"         6","0","-14","0,0117,+",,,"8.7"," ,0,0128, ","3.24"," ,0,0805, ","92","0,0626,+","5953","0","49.89"," ,0","26.1"," ,0","50.6","0","60.1","0","41.1","0"
"USC00124613","KINGSBURY 1 N, IN US","41.53693","-86.70209","230.1","2009",,,"       57",,"        18","0",,,"13"," ,0,0205, ","6.5"," ,0,0115, ","1.91"," ,0,0818, ",,,,,"41.71"," ,0","46.1"," ,0",,,,,,
"US1INSH0004","SHELBYVILLE 7.1 WSW, IN US","39.4944","-85.9041","226.5","2009",,,,,,,,,,,,,"4.68"," ,N,0804, ",,,,,"50.79"," ,N",,,,,,,,
"US1INHR0005","MILLTOWN 5.7 SSE, IN US","38.262595","-86.253962","193.9","2009",,,,,,,,,,,,,"4.22"," ,N,0921, ",,,,,"57.39"," ,N",,,,,,,,
"US1INWK0005","BOONVILLE 2.4 N, IN US","38.080463","-87.275781","143.0","2009",,,,,,,,,,,,,"3.60"," ,N,0921, ",,,,,"55.64"," ,N",,,,,,,,
"US1INLG0005","LAGRANGE 1.3 ENE, IN US","41.6527","-85.3963","288.0","2009",,,,,,,,,,,,,,,,,,,"44.41"," ,N",,,,,,,,
"US1INLG0003","SHIPSHEWANA 6.8 NNW, IN US","41.758996","-85.648027","248.1","2009",,,,,"        14","N",,,,,"5.8"," ,N,0111, ","2.13"," ,N,0612, ",,,,,"38.48"," ,N","47.4"," ,N",,,,,,
"US1INPS0001","POSEYVILLE 2.8 NW, IN US","38.1968","-87.8222","138.1","2009",,,,,,,,,,,,,"3.14"," ,N,1009, ",,,,,"53.63"," ,N",,,,,,,,
"USC00123082","FRANKFORT DISPOSAL, IN US","40.2986","-86.5066","251.2","2009","639",,"       29",,"         7","0","-16","0,0116, ","7"," ,0,0128, ","4.0"," ,0,0203,+","3.12"," ,0,0211, ","93","0,0624, ","5951","2","46.01"," ,0","26.1"," ,0","50.5","0","59.9","0","41.1","0"
"USC00123078","FRANCESVILLE, IN US","40.9843","-86.8871","207.3","2009","475",,,,"        11","0","-23","0,0117,+",,,"6.0"," ,0,0204, ","2.62"," ,0,0308, ","91","0,0810,+","6710","7","39.43"," ,0","31.3"," ,0","48.2","0","58.2","0","38.2","0"
"US1INOW0009","SPENCER 7.0 S, IN US","39.185767","-86.778233","235.9","2009",,,,,,,,,,,,,"4.03"," ,N,0514, ",,,,,"50.37"," ,N",,,,,,,,
"USR0000ITPL","TIPSAW LAKE INDIANA, IN US","38.125","-86.625","218.8","2009","1095",,,,,,"-7","U,0116, ",,,,,,,"94","U,0627,+","4360","4",,,,,"55.7","U","66.1","U","45.2","U"
"US1INOW0006","GOSPORT 4.0 WSW, IN US","39.32","-86.73","177.1","2009",,,,,,,,,,,,,"3.21"," ,N,0514, ",,,,,"53.65"," ,N",,,,,,,,
"US1INWK0012","BOONVILLE 1.4 N WBNL RADIO, IN US","38.064934","-87.273925","142.0","2009",,,,,,,,,,,,,"3.07"," ,N,0921, ",,,,,"56.89"," ,N",,,,,,,,
"USC00123513","GREENCASTLE 1 E, IN US","39.644","-86.8766","224.0","2009",,,,,"         6","0",,,,,"10.0"," ,0,0128, ",,,,,,,,,"22.3"," ,0",,,,,,
"USC00122309","DUBOIS S IN FORAGE FARM, IN US","38.4558","-86.6983","210.3","2009","868",,"       13",,"         4","0","-7","0,0116, ","8"," ,0,0129,+","5.0"," ,0,0128, ","4.12"," ,0,1009, ","93","0,0627,+",,,"60.00"," ,0","11.5"," ,0","54.1","0","65.3","0","42.9","0"
"US1INWY0005","COLUMBIA CITY 6.6 SSE, IN US","41.0759","-85.4217","264.0","2009",,,,,,,,,,,,,"3.11"," ,N,0818, ",,,,,"42.08"," ,N",,,,,,,,
"US1INBW0010","COLUMBUS 3.2 ENE, IN US","39.219953","-85.855474","198.1","2009",,,,,,,,,,,,,"2.74"," ,N,1009, ",,,,,"53.62"," ,N",,,,,,,,
"USC00122184","DEPUTY 1 WNW, IN US","38.7997","-85.6724","193.5","2009",,,,,"         5","0",,,,,"4.6"," ,0,0127, ","2.53"," ,0,1009, ",,,,,"45.61"," ,0","16.1"," ,0",,,,,,
"US1INBW0011","TAYLORSVILLE 0.8 SSW, IN US","39.2849","-85.9526","200.9","2009",,,,,,,,,,,,,,,,,,,"47.90"," ,N",,,,,,,,
"USC00127069","PORTLAND 1 SW, IN US","40.4174","-84.9925","277.4","2009",,,,,"         7","0",,,,,"6.0"," ,0,0128, ",,,,,,,,,"24.7"," ,0",,,,,,
"US1INML0006","PLYMOUTH 2.5 WSW, IN US","41.329704","-86.356804","248.1","2009",,,,,,,,,,,,,"1.98"," ,N,0311, ",,,,,"38.42"," ,N",,,,,,,,
"USC00120550","BEDFORD 4 SW, IN US","38.8396","-86.5216","177.1","2009",,,,,"         4","0",,,,,"6.0"," ,0,0128, ","3.60"," ,0,0513, ",,,,,"52.97"," ,0","13.8"," ,0",,,,,,
"US1INML0003","PLYMOUTH 1.1 SSE, IN US","41.331903","-86.307406","259.1","2009",,,"       45",,"        18","N",,,"9"," ,N,0115, ","4.0"," ,N,0114, ","1.90"," ,N,0308, ",,,,,"40.24"," ,N","35.2"," ,N",,,,,,
"US1INML0002","WALKERTON 2.7 SSE, IN US","41.430196","-86.454908","221.0","2009",,,"       42",,"        14","N",,,"10"," ,N,0120,+","4.5"," ,N,0222, ","2.07"," ,N,0828, ",,,,,"35.97"," ,N","34.0"," ,N",,,,,,
"USC00120676","BERNE WWTP, IN US","40.6683","-84.93","255.7","2009","605",,"       42",,"         5","0","-16","0,0115, ","7"," ,0,0129,+","6.1"," ,0,0127, ","1.95"," ,0,0307, ","94","0,0625, ","6233","9","39.22"," ,0","16.6"," ,0","49.4","0","58.9","0","39.9","0"
"USC00124910","LEBANON 6 W, IN US","40.0505","-86.5744","281.9","2009",,,"       36",,"         8","0",,,"8"," ,0,0130,+","8.0"," ,0,0127, ","1.96"," ,0,1009, ",,,,,"40.35"," ,0","26.1"," ,0",,,,,,
"US1INGB0008","HAZLETON 2.5 S, IN US","38.45263","-87.5336","145.4","2009",,,,,,,,,,,,,"3.07"," ,N,1009, ",,,,,"54.94"," ,N",,,,,,,,
"USC00129243","WARSAW 5 SW, IN US","41.1719","-85.9192","259.1","2009",,,"       43",,"        14","0",,,"8"," ,0,0115, ","2.8"," ,0,0128, ","2.77"," ,0,0311, ",,,,,"46.00"," ,0","28.2"," ,0",,,,,,
"USC00128036","SHOALS 8 S, IN US","38.5529","-86.7944","145.4","2009","740",,,,"         7","0","-7","0,0131, ",,,"5.5"," ,0,0128, ","3.02"," ,0,1009, ","92","0,0626, ","5387","7","53.93"," ,0","15.1"," ,0","52.3","0","63.5","0","41.1","0"
"USC00129240","WARSAW, IN US","41.2634","-85.8677","248.4","2009",,,"       39",,"        14","0",,,"7"," ,0,0131,+","3.0"," ,0,0128, ","4.33"," ,0,0818, ",,,"6601","5","47.28"," ,0","26.4"," ,0",,,,,,
"USC00126401","NORTH JUDSON 3 S, IN US","41.1734","-86.7571","213.4","2009",,,,,"        11","0",,,,,"11.2"," ,0,0204, ","2.04"," ,0,1023, ",,,,,"39.52"," ,0","31.0"," ,0",,,,,,
"USC00126400","NORTHERN INDIANA WEATHER FORECAST OFFICE, IN US","41.3588","-85.6997","289.9","2009","561",,"       50",,"        16","0","-19","0,0116, ","10"," ,0,0117,+","4.3"," ,0,0113, ","6.45"," ,0,0817, ","94","0,0624, ","6357","7","50.54"," ,0","44.8"," ,0","49.3","0","58.3","0","40.2","0"
"USW00093817","EVANSVILLE REGIONAL AIRPORT, IN US","38.0441","-87.5205","121.9","2009","1248",,"        4",,"         3","0","-1","0,0116, ","4"," ,0,0128, ","2.7"," ,0,0128, ","2.45"," ,0,1008, ","97","0,0626, ","4531","1","50.22"," ,0","6.5"," ,0","56.1","0","65.9","0","46.3","0"
"USW00093819","INDIANAPOLIS INTERNATIONAL AIRPORT, IN US","39.72517","-86.28168","241.1","2009","939",,"       26",,"         9","0","-12","0,0116, ","11"," ,0,0130,+","8.0"," ,0,0128, ","3.81"," ,0,0804, ","93","0,0624, ","5296","4","48.68"," ,0","29.5"," ,0","53.1","0","61.9","0","44.3","0"
"USC00121873","CRAWFORDSVILLE 6 SE, IN US","40.0028","-86.8011","254.8","2009","496",,"       29",,"         4","0","-17","0,0116, ","8"," ,0,0131,+","7.9"," ,0,0128, ","2.66"," ,0,0712, ","90","0,0625, ","6324","1","48.69"," ,0","20.9"," ,0","49.1","0","58.9","0","39.3","0"
"USC00120784","BLOOMINGTON INDIANA UNIVERSITY, IN US","39.1742","-86.5214","253.0","2009","807",,"       21",,"         6","0","-8","0,0117,+","11"," ,0,0129, ","7.0"," ,0,0128, ","3.47"," ,0,0514, ","91","0,0810,+","5410","8","51.73"," ,0","22.2"," ,0","52.6","0","62.0","0","43.1","0"
"USC00122605","ELLISTON, IN US","39.0313","-86.9371","203.9","2009",,,"       14",,"         5","0",,,"11"," ,0,0128, ","6.0"," ,0,0127, ","4.35"," ,0,0514, ",,,,,"54.15"," ,0","16.1"," ,0",,,,,,
"US1INTP0009","OTTERBEIN 2.3 SE, IN US","40.4672","-87.0611","210.9","2009",,,,,"         8","N",,,,,"3.7"," ,N,0128, ","2.69"," ,N,0602, ",,,,,"43.91"," ,N","18.8"," ,N",,,,,,
"US1INHS0017","PLAINFIELD 0.9 S, IN US","39.687172","-86.389716","217.0","2009",,,,,,,,,,,,,"3.10"," ,N,0805, ",,,,,"48.98"," ,N",,,,,,,,
"USC00124497","KENDALLVILLE, IN US","41.4499","-85.2272","301.8","2009",,,,,,,,,,,,,,,,,,,,,,,,,,,,
"USC00127522","ROCKVILLE, IN US","39.7594","-87.2269","210.0","2009","876",,"       21",,"         8","0","-17","0,0116, ","6"," ,0,0130,+","5.1"," ,0,0128, ","3.18"," ,0,0211, ","93","0,0624, ","5238","9","49.07"," ,0","16.6"," ,0","53.0","0","62.8","0","43.1","0"
"US1INJS0023","REMINGTON 0.3 SSE, IN US","40.758436","-87.148439","223.1","2009",,,,,,,,,,,,,,,,,,,"36.80"," ,N",,,,,,,,
"US1INLK0015","DYER 1.0 WNW, IN US","41.506694","-87.524821","192.0","2009",,,,,,,,,,,,,"2.36"," ,N,1023, ",,,,,"47.49"," ,N",,,,,,,,
"USC00120331","ATTICA 2 E, IN US","40.2838","-87.1963","221.6","2009",,,"       31",,"         9","0",,,"6"," ,0,0131,+","4.5"," ,0,0128, ","2.07"," ,0,1009, ",,,,,"43.41"," ,0","22.5"," ,0",,,,,,
"USC00126437","VERNON 1 ENE, IN US","38.9886","-85.5859","228.6","2009",,,,,,,,,,,,,,,,,,,,,,,,,,,,
"USC00127646","RUSHVILLE, IN US","39.6042","-85.4532","289.0","2009",,,,,"         6","0","-11","0,0116,+",,,"6.2"," ,0,0128, ",,,"91","0,0625, ",,,"50.74"," ,0","19.6"," ,0","50.8","0","60.3","0","41.3","0"
"USC00126435","NORTH VERNON 2 ESE, IN US","39.0017","-85.5997","226.5","2009","873",,"       17",,"         4","0","-10","0,0205, ","11"," ,0,0130,+","6.0"," ,0,0128, ","4.55"," ,0,0804, ","91","0,0626,+","4824","3","49.89"," ,0","18.9"," ,0","54.2","0","64.5","0","44.0","0"
"USC00121303","CARMEL 3 E, IN US","39.9617","-86.0585","229.2","2009",,,,,"         4","0",,,,,"9.0"," ,0,0128, ","2.28"," ,0,0406, ",,,"5645","1","42.02"," ,0","18.8"," ,0",,,,,,
"US1INHN0003","NEW PALESTINE 1.4 S, IN US","39.70061","-85.895044","246.0","2009",,,,,,,,,,,,,"2.57"," ,N,0805, ",,,,,"45.76"," ,N",,,,,,,,
"USC00122638","ELWOOD, IN US","40.2873","-85.8453","264.0","2009",,,,,,,,,,,,,,,,,,,,,,,,,,,,
"USW00053842","INDIANAPOLIS EAGLE CREEK AIRPORT, IN US","39.825","-86.29583","250.9","2009","860",,,,,,"-13","W,0116, ",,,,,"3.77"," ,W,0804, ","92","W,0625,+","5416","8","45.97"," ,W",,,"52.5","W","61.2","W","43.9","W"
"US1INHS0008","PLAINFIELD 1.1 W, IN US","39.701264","-86.40785","221.0","2009",,,,,,,,,,,,,"3.17"," ,N,0805, ",,,,,"51.74"," ,N",,,,,,,,
"US1INMT0001","LOOGOOTEE 0.3 ESE, IN US","38.674123","-86.908586","180.1","2009",,,,,,,,,,,,,"2.55"," ,N,1009, ",,,,,"47.25"," ,N",,,,,,,,
"USC00128290","SPENCER, IN US","39.28385","-86.77048","167.3","2009",,,,,"         5","0","-10","0,0117,+",,,"6.0"," ,0,0128, ","2.78"," ,0,0514, ",,,,,"54.61"," ,0","16.6"," ,0",,,,,"41.3","0"
"US1INPT0003","VALPARAISO 2.0 WSW, IN US","41.46741","-87.08746","220.1","2009",,,,,,,,,,,,,"2.67"," ,N,1030, ",,,,,"44.09"," ,N",,,,,,,,
"US1INPY0001","BIRDSEYE 8.2 S, IN US","38.195833","-86.715739","137.5","2009",,,,,,,,,,,,,"4.12"," ,N,0731, ",,,,,"61.92"," ,N",,,,,,,,
"USC00124372","JASPER, IN US","38.3856","-86.9406","137.2","2009",,,,,"         4","0",,,,,"4.0"," ,0,0128, ","2.37"," ,0,1008, ",,,,,"56.58"," ,0","11.5"," ,0",,,,,,
"US1INHS0005","PLAINFIELD 2.1 NNW, IN US","39.730515","-86.395885","246.9","2009",,,,,,,,,,,,,"3.45"," ,N,0805, ",,,,,"54.45"," ,N",,,,,,,,
"US1INJS0037","DE MOTTE 0.8 NNW, IN US","41.210435","-87.205425","198.1","2009",,,,,,,,,,,,,"2.75"," ,N,0828, ",,,,,"42.24"," ,N",,,,,,,,
"USC00124244","INDIANA DUNES NATIONAL LAKESHORE, IN US","41.63178","-87.08803","207.3","2009","512",,"       47",,,,"-19","0,0116, ","20"," ,0,0204, ",,,,,"92","0,0810,+",,,"43.91"," ,0","51.7"," ,0","48.9","0","57.0","0","40.8","0"
"USC00128723","TERRE HAUTE INDIANA STATE, IN US","39.4708","-87.408","154.5","2009",,,,,,,,,,,,,,,,,"4590","3",,,,,,,,,,
"USC00128967","J.T. MYERS LOCKS AND DAM, IN US","37.7952","-87.993","103.6","2009","1381",,,,"         0","0","4","0,0115, ",,,"0.0"," ,0,1231,+","3.10"," ,0,1008, ","99","0,0627, ","4171","3","49.33"," ,0","0.0"," ,0","57.5","0","66.2","0","48.7","0"
"USC00126420","NORTH MANCHESTER WWTP, IN US","40.9936","-85.7749","231.6","2009","490",,"       54",,"        20","0","-21","0,0117,+","7"," ,0,0130,+","4.5"," ,0,0115, ","3.20"," ,0,0817, ","92","0,0625, ","6502","2","48.54"," ,0","31.1"," ,0","48.7","0","58.6","0","38.8","0"
"USC00125337","MARION 2 N, IN US","40.58","-85.6586","240.8","2009","671",,"       30",,"         9","0","-16","0,0117, ","8"," ,0,0128, ","6.5"," ,0,0128, ","1.97"," ,0,0406, ","93","0,0625, ",,,"39.28"," ,0","28.0"," ,0","50.1","0","59.6","0","40.6","0"
"US1INKS0010","WINONA LAKE 0.3 WNW, IN US","41.2205","-85.82154","249.0","2009",,,,,,,,,,,,,"2.78"," ,N,0308, ",,,,,"41.03"," ,N",,,,,,,,
"USC00127999","SHELBYVILLE SEWAGE PLANT, IN US","39.5282","-85.7914","229.2","2009","692",,"       12",,"         5","0","-10","0,0116, ","8"," ,0,0128, ","7.0"," ,0,0128, ","3.96"," ,0,0805, ","90","0,0627,+","5700","8","48.31"," ,0","15.9"," ,0","51.5","0","61.3","0","41.6","0"
"USC00120200","ANGOLA, IN US","41.6639","-85.0183","310.9","2009","328",,"       49",,"        16","0","-26","0,0116, ","13"," ,0,0115, ","6.4"," ,0,0110, ","2.04"," ,0,0516, ","91","0,0817,+","7052","7","42.76"," ,0","42.5"," ,0","46.6","0","56.6","0","36.7","0"
"USC00122620","ELNORA, IN US","38.8701","-87.0917","146.3","2009",,,,,,,,,,,,,,,,,,,,,,,,,,,,
"US1INLK0024","CROWN POINT 2.0 WSW, IN US","41.408917","-87.389939","230.1","2009",,,,,,,,,,,,,"2.60"," ,N,0611, ",,,,,"46.65"," ,N",,,,,,,,
"USC00121417","CHALMERS 5 W, IN US","40.6653","-86.955","219.5","2009","503",,"       36",,"         7","0","-19","0,0117, ","5"," ,0,0131,+","4.0"," ,0,0115, ","2.11"," ,0,0516, ","93","0,0625, ",,,"41.09"," ,0","21.5"," ,0","48.8","0","58.9","0","38.8","0"
"US1INJH0004","FRANKLIN 3.0 S, IN US","39.448667","-86.056744","221.9","2009",,,,,,,,,,,,,"3.01"," ,N,0805, ",,,,,"49.96"," ,N",,,,,,,,
"USC00127398","RIDGEVILLE 3 SSE, IN US","40.2552","-84.9958","315.5","2009",,,,,"        11","0",,,,,"8.0"," ,0,0128, ","1.16"," ,0,0627,+",,,,,"28.90"," ,0","28.8"," ,0",,,,,,
"US1INCK0005","CLARKSVILLE 1.3 S, IN US","38.298261","-85.762826","139.0","2009",,,,,,,,,,,,,"5.51"," ,N,0921, ",,,,,"64.69"," ,N",,,,,,,,
"USC00127267","REMINGTON 2 NNW, IN US","40.7942","-87.1719","210.3","2009",,,"       37",,"        12","0",,,"5"," ,0,0131,+","3.9"," ,0,0128, ","2.42"," ,0,0311, ",,,,,"40.32"," ,0","27.6"," ,0",,,,,,
"US1INCK0006","CHARLESTOWN 2.6 N, IN US","38.490847","-85.667716","191.1","2009",,,,,,,,,,,,,"6.84"," ,N,0921, ",,,,,"65.91"," ,N",,,,,,,,
"USC00125888","MOROCCO, IN US","40.958","-87.4777","204.8","2009",,,,,"        11","0",,,,,"3.5"," ,0,0114, ",,,,,,,,,"22.5"," ,0",,,,,,
"USC00123104","FREELANDVILLE, IN US","38.8672","-87.3083","167.6","2009",,,,,"         5","0",,,,,"6.0"," ,0,0128, ","3.24"," ,0,0619, ",,,,,"56.68"," ,0","15.8"," ,0",,,,,,
"USC00125407","MARTINSVILLE 2 SW, IN US","39.4039","-86.4531","180.4","2009","580",,"       15",,"         4","0","-12","0,0116, ","10"," ,0,0131,+","7.1"," ,0,0128, ","2.82"," ,0,0514, ","90","0,0625, ","5856","4","47.48"," ,0","19.4"," ,0","50.7","0","60.9","0","40.4","0"
"USC00120877","BOWLING GREEN 1 W, IN US","39.3854","-87.0399","183.2","2009",,,"       19",,"         3","0",,,"10"," ,0,0130,+","7.0"," ,0,0128, ","3.50"," ,0,0514, ",,,,,"54.72"," ,0","16.3"," ,0",,,,,,
"USC00122814","FARMERSBURG TV 2, IN US","39.2425","-87.3905","167.0","2009",,,"       22",,"         4","0",,,"9"," ,0,0129,+","4.5"," ,0,0128, ","2.54"," ,0,0428, ",,,,,"51.98"," ,0","13.8"," ,0",,,,,,
"USC00122816","FARMERS RETREAT, IN US","38.9756","-85.1028","271.3","2009",,,"       15",,"         6","0",,,"8"," ,0,0201,+","4.0"," ,0,0128,+","2.28"," ,0,1009, ",,,,,"43.30"," ,0","12.5"," ,0",,,,,,
"USC00126056","NASHVILLE 2 NNE, IN US","39.2401","-86.2295","210.3","2009",,,"       23",,"         4","0",,,"11"," ,0,0128, ","6.7"," ,0,0128, ","3.01"," ,0,0514, ",,,,,"52.73"," ,0","20.4"," ,0",,,,,,
"USR0000IHAR","HARDIN RIDGE INDIANA, IN US","39.0","-86.4228","228.6","2009","917",,,,,,"-9","U,0116, ",,,,,,,"93","U,0626, ","4836","8",,,,,"54.1","U","63.4","U","44.8","U"
"USC00124662","KOKOMO 3 WSW, IN US","40.4582","-86.1758","250.5","2009","528",,"       38",,"        15","0","-20","0,0117,+","8"," ,0,0204,+","6.8"," ,0,0128, ","2.30"," ,0,0212, ","93","0,0625, ","5897","2","44.27"," ,0","38.7"," ,0","49.4","0","59.7","0","39.1","0"
"USC00121030","BROOKVILLE, IN US","39.42387","-85.01445","192.0","2009",,,"       14",,"         7","0",,,"10"," ,0,0128, ","5.0"," ,0,0204,+","3.20"," ,0,0805, ",,,"5295","6","43.34"," ,0","21.4"," ,0",,,,,,
"US1INSN0009","ANGOLA 4.1 N, IN US","41.701001","-84.986686","328.0","2009",,,,,,,,,,,,,"2.05"," ,N,0516, ",,,,,"43.48"," ,N",,,,,,,,
"USC00124782","LAKEVILLE, IN US","41.5269","-86.2692","256.3","2009","434",,"       51",,"        15","0","-20","0,0117,+","16"," ,0,0117,+","5.0"," ,0,0221, ","2.30"," ,0,0827, ","96","0,0816, ",,,"44.81"," ,0","42.8"," ,0","47.9","0","58.3","0","37.4","0"
"USC00124667","KOKOMO 5 WSW, IN US","40.4614","-86.2122","248.1","2009",,,"       41",,"        10","0",,,"8"," ,0,0206,+","4.0"," ,0,0128, ","1.96"," ,0,1023, ",,,,,"42.93"," ,0","22.4"," ,0",,,,,,
"US1INHY0001","LEWISVILLE 1.8 ENE, IN US","39.82065","-85.3244","335.0","2009",,,,,,,,,,,,,,,,,,,"38.80"," ,N",,,,,,,,
"USC00129557","WHITESTOWN, IN US","39.9962","-86.3543","286.8","2009","642",,"       26",,"         8","0","-17","0,0116, ","8"," ,0,0128, ","6.5"," ,0,0128, ","3.12"," ,0,0211, ","92","0,0624, ","5677","2","41.98"," ,0","21.6"," ,0","51.2","0","60.6","0","41.9","0"
"USC00129678","WINCHESTER AAP 3, IN US","40.1715","-84.9207","338.3","2009","616",,"       37",,"         8","0","-16","0,0117,+","10"," ,0,0131,+","8.5"," ,0,0128, ","1.76"," ,0,0514, ","92","0,0626,+","6219","9","32.77"," ,0","25.6"," ,0","49.7","0","59.1","0","40.4","0"
"US1INSN0002","HUDSON 4.1 NNW, IN US","41.591868","-85.101163","321.9","2009",,,,,,,,,,,,,"2.53"," ,N,0818, ",,,,,"44.85"," ,N",,,,,,,,
"USC00127935","SEYMOUR 2 N, IN US","38.9822","-85.8988","173.7","2009","695",,"       13",,"         3","0","-6","0,0117,+","9"," ,0,0130,+","6.9"," ,0,0128, ","2.98"," ,0,0805, ","90","0,0626, ","5465","2","55.74"," ,0","12.3"," ,0","52.0","0","61.9","0","42.1","0"
"US1INSN0003","HUDSON 4.6 N, IN US","41.5997","-85.089524","301.1","2009",,,,,,,,,,,,,"2.38"," ,N,0818, ",,,,,"43.87"," ,N",,,,,,,,
"US1INCY0004","JASONVILLE 4.0 ENE, IN US","39.17632","-87.144557","167.6","2009",,,,,,,,,,,,,"2.95"," ,N,1009, ",,,,,"54.45"," ,N",,,,,,,,
"US1INDV0001","WASHINGTON 1.5 NW, IN US","38.67543","-87.18996","145.1","2009",,,,,,,,,,,,,"3.62"," ,N,1009, ",,,,,"51.57"," ,N",,,,,,,,
"USC00129113","VINCENNES 5 NE, IN US","38.7386","-87.4877","137.8","2009","1075",,"       14",,"         4","0","-5","0,0117,+","9"," ,0,0130,+","4.7"," ,0,0128,+","3.39"," ,0,1009, ","94","0,0628,+","5135","9","56.01"," ,0","13.7"," ,0","54.0","0","64.3","0","43.8","0"
"USC00127298","RENSSELAER, IN US","40.92386","-87.17539","192.0","2009",,,"       41",,"         8","0",,,"6"," ,0,0130,+","3.0"," ,0,0114, ","2.43"," ,0,0514, ",,,,,"41.67"," ,0","21.0"," ,0",,,,,,
"USC00122041","DANVILLE 3 SW, IN US","39.7344","-86.5361","291.4","2009",,,"       33",,"         9","0",,,"10"," ,0,0130,+","8.5"," ,0,0128, ","2.23"," ,0,0805,+",,,,,"45.27"," ,0","27.9"," ,0",,,,,,
"USC00120096","ALEXANDRIA, IN US","40.1968","-85.6702","265.5","2009",,,"       46",,"        12","0",,,"10"," ,0,0129, ","8.0"," ,0,0128, ","2.10"," ,0,0406, ",,,,,"40.50"," ,0","34.7"," ,0",,,,,,
"USC00121187","BUTLER 1 SE, IN US","41.4083","-84.8536","259.1","2009",,,"        0",,"         0","0",,,"0"," ,0,1231,+","0.0"," ,0,1231,+","2.75"," ,0,0311, ",,,,,"44.31"," ,0","0.0"," ,0",,,,,,
"USC00125541","MEDORA, IN US","38.7913","-86.2096","159.7","2009",,,"       15",,"         7","0",,,"10"," ,0,0131,+","5.0"," ,0,0127, ",,,,,,,,,"19.3"," ,0",,,,,,
"USC00127724","SAINT MEINRAD, IN US","38.1641","-86.8094","155.4","2009",,,,,"         3","0",,,,,"2.6"," ,0,0119, ","3.10"," ,0,1009, ",,,,,"52.76"," ,0","5.6"," ,0",,,,,,
"US1INCY0003","CLAY CITY 0.1 ESE, IN US","39.276373","-87.110448","184.1","2009",,,,,,,,,,,,,,,,,,,"52.78"," ,N",,,,,,,,
"USC00121747","COLUMBUS, IN US","39.166","-85.9227","185.6","2009","783",,"       13",,"         4","0","-8","0,0117,+","9"," ,0,0131,+","4.3"," ,0,0128, ","2.97"," ,0,0723, ","91","0,0625, ","5496","4","52.18"," ,0","16.0"," ,0","52.2","0","61.7","0","42.7","0"
"USC00129905","YOUNG AMERICA, IN US","40.5615","-86.3424","235.6","2009","497",,,,"        17","0","-18","0,0115, ",,,"6.0"," ,0,0127, ","2.50"," ,0,0817, ","92","0,0624, ",,,"42.53"," ,0","35.7"," ,0","48.8","0","58.6","0","39.1","0"
"USC00121628","CLINTON 2 W, IN US","39.6593","-87.4393","184.4","2009",,,"       24",,"         4","0",,,"7"," ,0,0130,+","6.2"," ,0,0128, ","2.39"," ,0,0514, ",,,,,"52.63"," ,0","13.6"," ,0",,,,,,
"USC00121739","COLUMBIA CITY, IN US","41.1452","-85.4898","254.2","2009",,,,,"         8","0",,,,,"3.8"," ,0,0112, ","4.30"," ,0,0817, ","93","0,0627,+",,,"45.86"," ,0","17.6"," ,0",,,"57.9","0",,
"USC00129222","WANATAH 2 WNW, IN US","41.4439","-86.9294","224.0","2009","426",,"       57",,"        20","0","-24","0,0117,+","23"," ,0,0205, ","15.0"," ,0,0204, ","2.15"," ,0,1023, ","94","0,0626, ","6918","5","42.73"," ,0","49.7"," ,0","47.6","0","58.6","0","36.5","0"
"US1INHT0001","HUNTINGTON 0.3 W, IN US","40.880196","-85.51118","241.1","2009",,,,,,,,,,,,,"2.16"," ,N,0406, ",,,,,"38.33"," ,N",,,,,,,,
"USC00126864","PERU, IN US","40.7646","-86.074","201.2","2009",,,"       22",,"         5","0",,,"5"," ,0,0129,+","3.6"," ,0,0127, ","2.00"," ,0,0405, ",,,,,"41.78"," ,0","11.2"," ,0",,,,,,
"USC00122149","DELPHI, IN US","40.615","-86.666","169.5","2009","674",,,,,,"-19","0,0115, ",,,,,,,"95","0,0624, ",,,,,,,"51.4","0","61.3","0","41.5","0"
"USC00127959","SHAKAMAK STATE PARK, IN US","39.1613","-87.2436","167.3","2009",,,,,"         5","0","-8","0,0116, ",,,"8.7"," ,0,0128, ","2.82"," ,0,0514, ","90","0,0627,+",,,"53.89"," ,0","18.3"," ,0","52.3","0","61.7","0","42.8","0"
"USC00126989","PLYMOUTH, IN US","41.3392","-86.3358","248.4","2009","485",,"       57",,"        22","0","-21","0,0117, ","10"," ,0,0119,+","6.2"," ,0,0115, ","1.89"," ,0,0311, ","94","0,0626, ","6690","5","35.88"," ,0","57.5"," ,0","48.4","0","58.0","0","38.7","0"
"USC00122825","FARMLAND 5 NNW, IN US","40.2538","-85.1484","294.1","2009",,,"       37",,"         7","0","-15","0,0117,+","11"," ,0,0130, ","6.0"," ,0,0128, ","2.28"," ,0,1002, ",,,,,"33.12"," ,0","21.7"," ,0",,,,,"39.2","0"
