"STATION","NAME","LATITUDE","LONGITUDE","ELEVATION","DATE","CDSD","CDSD_ATTRIBUTES","DSND","DSND_ATTRIBUTES","DSNW","DSNW_ATTRIBUTES","EMNT","EMNT_ATTRIBUTES","EMSD","EMSD_ATTRIBUTES","EMSN","EMSN_ATTRIBUTES","EMXP","EMXP_ATTRIBUTES","EMXT","EMXT_ATTRIBUTES","HDSD","HDSD_ATTRIBUTES","PRCP","PRCP_ATTRIBUTES","SNOW","SNOW_ATTRIBUTES","TAVG","TAVG_ATTRIBUTES","TMAX","TMAX_ATTRIBUTES","TMIN","TMIN_ATTRIBUTES"
"USC00134561","LAKE PARK, IA US","43.4483","-95.3247","446.5","2020",,,"       91",,"        12","7",,,"13"," ,7,0118, ","6.2"," ,7,0118, ","2.50"," ,7,0517, ",,,,,"22.28"," ,7","36.0"," ,7",,,,,,
"USC00138009","STRAWBERRY POINT, IA US","42.6853","-91.533","365.8","2020",,,"       76",,"        12","7",,,"9"," ,7,0127,+","5.0"," ,7,1212, ","3.82"," ,7,1023, ",,,,,"38.06"," ,7","35.1"," ,7",,,,,,
"USC00138806","WEBSTER CITY, IA US","42.4685","-93.7974","326.7","2020","685",,"       58",,"         8","7","-14","7,0213, ","8"," ,7,0123,+","5.0"," ,7,0118, ","1.83"," ,7,0909, ","95","7,0828, ","7295","6","24.91"," ,7","24.3"," ,7","47.0","7","58.6","7","35.5","7"
"US1IAPK0021","JOHNSTON 3.7 NNW, IA US","41.7366","-93.7236","292.3","2020",,,,,,,,,,,,,"2.76"," ,N,0715, ",,,,,"28.14"," ,N",,,,,,,,
"USW00014972","SPENCER MUNICIPAL AIRPORT, IA US","43.16444","-95.20167","407.8","2020","960",,,,,,"-14","W,0213, ",,,,,,,"100","W,0602, ","7087","1",,,,,"48.3","W","60.2","W","36.5","W"
"USC00130753","BLOOMFIELD, IA US","40.7392","-92.4142","261.5","2020",,,"       39",,"        10","7",,,"8"," ,7,0417, ","8.2"," ,7,0417, ","1.98"," ,7,0908, ",,,,,"33.87"," ,7","42.0"," ,7",,,,,,
"US1IABT0012","FAIRFAX 4.0 NW, IA US","41.96223","-91.836759","268.5","2020",,,,,,,,,,,,,"2.28"," ,N,0610, ",,,,,"35.40"," ,N",,,,,,,,
"US1IAPG0003","COLLEGE SPRINGS 0.3 NNW, IA US","40.62485","-95.1235","350.2","2020",,,,,,,,,,,,,"1.15"," ,N,0715, ",,,,,"21.00"," ,N",,,,,,,,
"USC00130512","BATTLE CREEK 3 NE, IA US","42.37","-95.575","420.6","2020","883",,"       48",,"        13","7","-22","7,0220, ","4"," ,7,0121,+","4.2"," ,7,0118, ","2.08"," ,7,0610, ","97","7,0824,+",,,"21.07"," ,7","27.8"," ,7","48.2","7","59.9","7","36.5","7"
"USC00131962","CRESTON 2 SW, IA US","41.0372","-94.3936","395.0","2020",,,,,,,,,,,,,,,,,,,"30.88"," ,7",,,,,,,,
"USC00137161","ROCKWELL CITY, IA US","42.3969","-94.6291","370.0","2020","906",,"       59",,"        11","7","-17","7,0122,+","10"," ,7,0130,+","7.1"," ,7,0118, ","1.87"," ,7,0909, ","97","7,0829, ","7018","9","23.38"," ,7","30.9"," ,7","48.4","7","59.4","7","37.3","7"
"US1IAMT0001","OSAGE 4.7 E, IA US","43.28372","-92.71764","357.8","2020",,,,,,,,,,,,,"1.68"," ,N,0517, ",,,,,"27.04"," ,N",,,,,,,,
"USC00136076","NORTH ENGLISH, IA US","41.517","-92.0597","242.9","2020",,,,,"         8","7",,,,,"4.0"," ,7,0124, ","3.35"," ,7,0610, ",,,,,"34.43"," ,7","18.7"," ,7",,,,,,
"USC00136199","OELWEIN 1 E, IA US","42.6801","-91.8751","355.1","2020","840",,"       71",,"        14","7","-17","7,0214, ","7"," ,7,1231,+","5.5"," ,7,1230, ","5.48"," ,7,0610, ","95","7,0828,+","6620","9","36.54"," ,7","35.9"," ,7","48.8","7","59.2","7","38.4","7"
"US1IAJH0020","CORALVILLE 1.4 S, IA US","41.670166","-91.602966","237.7","2020",,,,,,,,,,,,,"3.74"," ,N,0610, ",,,,,"42.13"," ,N",,,,,,,,
"USC00137844","SPENCER 1 N, IA US","43.1652","-95.1466","404.2","2020","856",,"       86",,"        13","7","-16","7,0213, ","12"," ,7,0120,+","6.4"," ,7,0117, ","1.21"," ,7,0319, ","99","7,0602, ","7414","9","20.19"," ,7","34.4"," ,7","47.4","7","58.1","7","36.7","7"
"USW00094991","LAMONI MUNICIPAL AIRPORT, IA US","40.6306","-93.9008","345.9","2020","1082",,,,,,"-6","W,0213, ",,,,,"1.33"," ,W,0911, ","95","W,0823, ","5866","1","31.55"," ,W",,,"52.1","W","61.8","W","42.4","W"
"USC00133487","GRUNDY CENTER, IA US","42.3647","-92.7594","300.2","2020","721",,"       64",,"         9","7","-13","7,0214, ","8"," ,7,0126,+","4.3"," ,7,1230, ","2.75"," ,7,0619, ","93","7,0828,+","6832","5","37.50"," ,7","24.8"," ,7","48.1","7","58.6","7","37.7","7"
"USC00135669","MONTICELLO, IA US","42.2411","-91.1732","249.9","2020",,,,,"         9","7",,,,,"8.5"," ,7,1230, ","5.58"," ,7,0906, ",,,,,"43.97"," ,7","28.5"," ,7",,,,,,
"USC00137726","SIOUX RAPIDS, IA US","42.8928","-95.1469","392.6","2020","843",,"       75",,"        12","7","-15","7,0213, ","9"," ,7,0119,+","6.7"," ,7,0117, ","1.83"," ,7,0618, ","97","7,0602, ","7326","2","23.93"," ,7","36.1"," ,7","47.6","7","58.2","7","37.0","7"
"USC00133007","FORT MADISON, IA US","40.6222","-91.334","161.5","2020","1134",,"       26",,"         7","7","-7","7,0214, ","3"," ,7,1229, ","3.0"," ,7,1229, ","1.71"," ,7,0514, ","95","7,0823, ","5566","5","36.80"," ,7","10.7"," ,7","53.2","7","61.8","7","44.5","7"
"US1IAJH0027","NORTH LIBERTY 0.7 SSW, IA US","41.731829","-91.615151","239.0","2020",,,,,,,,,,,,,"3.44"," ,N,0610, ",,,,,"41.68"," ,N",,,,,,,,
"USC00131833","CORNING, IA US","40.98833","-94.75889","362.7","2020","926",,"       40",,"        12","7","-9","7,0121, ","8"," ,7,0417, ","7.6"," ,7,0417, ","1.81"," ,7,0515, ","94","7,0829,+","6337","6","28.31"," ,7","35.9"," ,7","50.3","7","61.3","7","39.3","7"
"USC00131954","CRESCO 1 NE, IA US","43.3894","-92.0938","382.5","2020",,,,,,,,,,,,,,,,,,,,,,,,,,,,
"USC00132364","DUBUQUE LOCK AND DAM 11, IA US","42.5399","-90.6461","189.0","2020","898",,"       72",,"        13","7","-10","7,0215,+","9"," ,7,0129,+","6.3"," ,7,1230, ","2.30"," ,7,0610, ","96","7,0603, ","6400","4","39.61"," ,7","31.6"," ,7","49.3","7","58.6","7","39.9","7"
"USW00094988","MARSHALLTOWN MUNICIPAL AIRPORT, IA US","42.11056","-92.91611","296.9","2020","792",,,,,,"-10","W,0214, ",,,,,,,"93","W,0827,+","6888","5",,,,,"48.4","W","58.8","W","38.0","W"
"USC00131394","CHARITON 1 E, IA US","41.0163","-93.2791","294.1","2020","792",,,,,,"-14","7,0214, ",,,,,"2.05"," ,7,0515, ","95","7,0824, ","6423","2","33.69"," ,7",,,"49.6","7","61.1","7","38.1","7"
"USC00132362","DUBUQUE NUMBER 3, IA US","42.4087","-90.7325","328.3","2020",,,"       72",,"        10","7",,,"9"," ,7,0124, ","7.4"," ,7,1230, ","2.48"," ,7,0710, ",,,,,"39.24"," ,7","41.3"," ,7",,,,,,
"USW00094989","AMES MUNICIPAL AIRPORT, IA US","41.99056","-93.61889","291.1","2020","912",,,,,,"-13","W,0121, ",,,,,,,"95","W,0828,+","6579","3",,,,,"49.6","W","60.5","W","38.7","W"
"USC00135198","MARSHALLTOWN, IA US","42.0647","-92.9244","265.2","2020","802",,"       57",,"         9","7","-11","7,0122, ","9"," ,7,0131,+","5.9"," ,7,1230, ","1.99"," ,7,0610, ","93","7,0828,+","6675","1","30.63"," ,7","31.1"," ,7","48.6","7","59.3","7","37.8","7"
"USC00135992","NEWTON, IA US","41.7116","-93.0297","292.6","2020","958",,,,"        10","7","-9","7,0215,+",,,"8.1"," ,7,1230, ","1.77"," ,7,0622, ","96","7,0827,+","6623","4","30.62"," ,7","39.6"," ,7","49.7","7","59.9","7","39.5","7"
"USC00135876","NASHUA 2 SW, IA US","42.93618","-92.57006","323.4","2020",,,"       57",,"        11","7",,,"6"," ,7,0201,+","3.7"," ,7,0104, ","1.77"," ,7,0906, ",,,,,"30.73"," ,7","31.3"," ,7",,,,,,
"US1IAPK0003","DES MOINES 4.5 WNW, IA US","41.606632","-93.695586","260.9","2020",,,,,,,,,,,,,"1.50"," ,N,0623, ",,,,,"31.06"," ,N",,,,,,,,
"USW00014950","OTTUMWA INDUSTRIAL AIRPORT, IA US","41.1077","-92.4466","256.6","2020","935",,,,,,"-11","W,0214, ",,,,,"4.43"," ,W,0514, ","95","W,0826, ","6070","2","38.56"," ,W",,,"51.1","W","61.1","W","41.1","W"
"USC00130536","BEACONSFIELD, IA US","40.8069","-94.0474","370.3","2020",,,"       49",,"        11","7",,,"10"," ,7,0417, ","9.3"," ,7,0417, ",,,,,,,"37.48"," ,7","38.7"," ,7",,,,,,
"US1IAWS0002","AINSWORTH 7.4 N, IA US","41.396446","-91.541142","219.8","2020",,,,,,,,,,,,,"2.92"," ,N,0610, ",,,,,"32.38"," ,N",,,,,,,,
"USR0000IDES","DESOTO IOWA, IA US","41.5333","-96.0833","223.1","2020","1286",,,,,,"-5","U,0213,+",,,,,,,"99","U,0823, ","5722","8",,,,,"52.4","U","63.7","U","41.1","U"
"USC00135086","MANCHESTER NUMBER 2, IA US","42.4732","-91.4516","301.8","2020","663",,"       61",,"         9","7","-17","7,0215,+","8"," ,7,0125,+","5.4"," ,7,1230, ","4.34"," ,7,0906, ","94","7,0827, ","7321","2","40.37"," ,7","28.3"," ,7","47.0","7","57.4","7","36.6","7"
"USC00137386","SANBORN, IA US","43.1791","-95.6602","472.7","2020","824",,"       91",,"        15","7","-18","7,0213, ","13"," ,7,0121,+","6.1"," ,7,0118, ","2.32"," ,7,0610, ","97","7,0603, ","7769","9","20.85"," ,7","49.6"," ,7","46.4","7","56.6","7","36.3","7"
"US1IADW0006","HOPKINTON 5.4 WSW, IA US","42.304176","-91.341032","289.9","2020",,,,,,,,,,,,,"3.22"," ,N,0906, ",,,,,"41.31"," ,N",,,,,,,,
"USC00131060","BURLINGTON 2 S, IA US","40.7747","-91.1165","210.3","2020",,,,,,,,,,,,,"1.88"," ,7,0912, ",,,"5834","2","32.57"," ,7",,,,,,,,
"USC00133584","HAMPTON, IA US","42.756","-93.202","336.8","2020","822",,"       66",,"        11","7","-15","7,0214, ","9"," ,7,0201,+","4.4"," ,7,0118, ","2.68"," ,7,0619, ","96","7,0603, ","7224","2","30.34"," ,7","28.7"," ,7","47.9","7","58.9","7","36.9","7"
"USC00137147","ROCK RAPIDS, IA US","43.43","-96.1686","411.5","2020","862",,"       87",,"        11","7","-16","7,0214,+","6"," ,7,0413,+","6.1"," ,7,0118, ","2.15"," ,7,0619, ","99","7,0603, ","7544","1","19.61"," ,7","40.3"," ,7","47.2","7","58.5","7","35.9","7"
"USC00137700","SIOUX CENTER 2 SE, IA US","43.0558","-96.1525","414.5","2020","981",,"       68",,"        11","7","-13","7,0213, ","9"," ,7,0122,+","5.9"," ,7,0119, ","1.44"," ,7,0610, ","100","7,0608,+",,,"14.79"," ,7","31.7"," ,7","48.8","7","59.8","7","37.8","7"
"USC00136976","REMSEN NUMBER 2, IA US","42.8105","-95.9752","405.4","2020",,,"       57",,"        13","7",,,"6"," ,7,0119,+","4.2"," ,7,0118, ","1.58"," ,7,0610, ",,,,,"17.72"," ,7","34.4"," ,7",,,,,,
"USC00137702","SIOUX CITY ANG, IA US","42.3963","-96.3777","335.3","2020","978",,"       44",,"        12","7","-11","7,0221, ","6"," ,7,0121,+","5.2"," ,7,0118, ","2.54"," ,7,0709, ","98","7,0827,+","6947","7","21.40"," ,7","31.1"," ,7","49.1","7","60.4","7","37.7","7"
"USC00134557","LAKE MILLS, IA US","43.4177","-93.5347","384.0","2020",,,"       82",,"        12","7",,,"14"," ,7,0209, ","5.3"," ,7,0413, ","2.94"," ,7,0822, ",,,,,"30.00"," ,7","43.1"," ,7",,,,,,
"USC00133900","HORNICK 4 NNE, IA US","42.28389","-96.05806","341.4","2020",,,"       61",,"        11","7",,,"5"," ,7,0219,+","4.6"," ,7,0219, ","1.91"," ,7,0610, ",,,,,"20.42"," ,7","27.2"," ,7",,,,,,
"USC00130088","AKRON, IA US","42.8258","-96.5514","365.2","2020",,,"       47",,"        11","7",,,"7"," ,7,0122,+","5.0"," ,7,1111,+","1.37"," ,7,0329, ",,,,,"17.27"," ,7","30.6"," ,7",,,,,,
"USC00137152","ROCK VALLEY, IA US","43.2044","-96.3061","379.8","2020",,,"       52",,"         9","7",,,"7"," ,7,0120,+","6.0"," ,7,1111, ","3.15"," ,7,1012, ",,,,,"20.18"," ,7","35.2"," ,7",,,,,,
"USC00138688","WASHINGTON, IA US","41.2824","-91.7078","209.4","2020","896",,"       27",,"         9","7","-13","7,0214, ","6"," ,7,0126,+","4.0"," ,7,1230, ","2.55"," ,7,0610, ","96","7,0827,+","6253","1","38.54"," ,7","24.1"," ,7","50.2","7","61.0","7","39.4","7"
"USC00136940","RED OAK, IA US","41.0036","-95.2419","317.0","2020",,,"       32",,"         7","7",,,"8"," ,7,1231,+","8.2"," ,7,1230, ","1.60"," ,7,0701, ",,,,,"25.71"," ,7","26.6"," ,7",,,,,,
"USC00133675","HASTINGS 4 NE, IA US","41.0772","-95.48","320.0","2020",,,"       22",,"         7","7",,,"5"," ,7,1231,+","4.7"," ,7,1230, ","2.07"," ,7,0527, ",,,,,"20.25"," ,7","16.3"," ,7",,,,,,
"USC00138568","VINTON, IA US","42.1702","-92.0077","259.1","2020","684",,"       59",,"        10","7","-14","7,0214, ","8"," ,7,0125,+","6.0"," ,7,1230, ","3.36"," ,7,0610, ","92","7,0828,+","7252","2","36.02"," ,7","25.1"," ,7","47.0","7","57.4","7","36.7","7"
"US1IAPK0068","CLIVE 1.2 E, IA US","41.6061","-93.7462","257.9","2020",,,,,"        11","N",,,,,"6.7"," ,N,1230, ","1.58"," ,N,0908, ",,,,,"32.93"," ,N","38.5"," ,N",,,,,,
"USC00133438","GREENFIELD, IA US","41.29415","-94.44564","401.1","2020","925",,,,,,"-10","7,0120, ",,,,,"1.34"," ,7,0727, ","94","7,0829,+","6477","3","24.11"," ,7",,,"49.7","7","60.3","7","39.2","7"
"US1IADL0031","DALLAS CENTER 1.5 E, IA US","41.681515","-93.955348","324.9","2020",,,,,,,,,,,,,"1.47"," ,N,0908,+",,,,,"29.08"," ,N",,,,,,,,
"US1IAWY0010","ALLERTON 0.8 S, IA US","40.696518","-93.369739","334.7","2020",,,,,,,,,,,,,"2.24"," ,N,0715, ",,,,,"30.95"," ,N",,,,,,,,
"US1IABH0006","WATERLOO 1.9 SSE, IA US","42.465","-92.341","278.0","2020",,,,,,,,,,,,,"2.40"," ,N,0610, ",,,,,"42.66"," ,N",,,,,,,,
"USC00130157","ALLISON, IA US","42.7536","-92.8022","316.4","2020","784",,"       63",,"        10","7","-13","7,0215,+","8"," ,7,0118, ","6.0"," ,7,0118, ","3.00"," ,7,0622, ","96","7,0603, ","7311","9","32.70"," ,7","30.6"," ,7","47.3","7","57.8","7","36.9","7"
"USC00131363","CENTRAL CITY, IA US","42.20011","-91.52332","252.4","2020",,,,,"        11","7",,,,,"6.4"," ,7,1230, ","2.56"," ,7,0610, ",,,,,"41.71"," ,7","28.4"," ,7",,,,,,
"USC00132573","ELDORA, IA US","42.3652","-93.0971","327.1","2020","892",,"       59",,"         8","7","-12","7,0215,+","8"," ,7,0124,+","5.0"," ,7,0118, ","3.01"," ,7,0619, ","98","7,0824, ","7137","8","30.30"," ,7","25.3"," ,7","47.9","7","58.9","7","36.9","7"
"USC00134094","IONIA 2 W, IA US","43.0336","-92.5018","310.6","2020",,,"       62",,"        12","7",,,"9"," ,7,0123, ","4.0"," ,7,0104, ","2.50"," ,7,0320, ",,,,,"35.10"," ,7","26.9"," ,7",,,,,,
"USC00136151","OAKLAND, IA US","41.3044","-95.3844","384.0","2020","994",,"       37",,"         7","7","-7","7,0214,+","6"," ,7,1230, ","5.7"," ,7,1230, ","2.42"," ,7,0525, ","95","7,0606, ","6459","4","23.30"," ,7","27.2"," ,7","50.2","7","61.0","7","39.4","7"
"USC00137363","SALEM 1 S, IA US","40.8355","-91.6221","198.1","2020",,,,,"         8","7",,,,,"6.5"," ,7,0417, ","2.65"," ,7,0908, ",,,,,"32.60"," ,7","23.3"," ,7",,,,,,
"US1IABN0013","MADRID 5.8 NNW, IA US","41.94839","-93.8752","321.6","2020",,,,,,,,,,,,,"1.98"," ,N,0526, ",,,,,"28.39"," ,N",,,,,,,,
"USC00134894","LOGAN, IA US","41.638","-95.7883","301.8","2020","1016",,,,,,"-17","7,0213, ",,,,,"2.61"," ,7,0909, ","96","7,0824, ","6601","5","23.13"," ,7",,,"49.8","7","61.8","7","37.8","7"
"USC00138339","TRIPOLI, IA US","42.8125","-92.2574","321.6","2020","814",,"       66",,"        11","7","-18","7,0214, ","9"," ,7,0124, ","4.3"," ,7,1230, ","3.10"," ,7,0529, ","96","7,0603, ","7233","6","38.01"," ,7","31.4"," ,7","47.4","7","58.0","7","36.7","7"
"US1IACS0005","ATLANTIC 7.1 NNE, IA US","41.49434","-94.96502","410.0","2020",,,,,,,,,,,,,"1.30"," ,N,0909, ",,,,,"16.98"," ,N",,,,,,,,
"USC00136719","POCAHONTAS, IA US","42.7291","-94.6613","369.4","2020","830",,"       66",,"        10","7","-17","7,0220,+","8"," ,7,0123,+","7.6"," ,7,0118, ",,,"97","7,0603, ",,,"23.48"," ,7","33.1"," ,7","47.5","7","58.5","7","36.5","7"
"USC00132209","DES MOINES WSFO JOHNSTON, IA US","41.7366","-93.7236","292.3","2020",,,"       59",,"        14","7",,,"8"," ,7,0131,+","7.2"," ,7,1019, ","2.73"," ,7,0714, ",,,"6179","6","28.76"," ,7","46.7"," ,7",,,,,,
"USC00132689","EMMETSBURG, IA US","43.1024","-94.6833","373.4","2020",,,,,,,,,,,,,,,,,,,,,,,,,,,,
"USC00130389","AUGUSTA, IA US","40.7472","-91.275","191.7","2020",,,,,"         6","7",,,,,"4.0"," ,7,0417, ",,,,,,,,,"13.0"," ,7",,,,,,
"USC00131233","CARROLL, IA US","42.065","-94.85","378.0","2020","1016",,"       49",,"         9","7","-11","7,0214,+","7"," ,7,0124,+","5.7"," ,7,0118, ","2.25"," ,7,0909, ","96","7,0828,+","6546","9","20.10"," ,7","26.7"," ,7","49.7","7","60.8","7","38.6","7"
"USC00131354","CENTERVILLE, IA US","40.7324","-92.8899","275.8","2020","881",,,,"        11","7","-14","7,0215,+",,,"7.7"," ,7,0417, ","1.59"," ,7,0529, ","96","7,0825,+","6273","0","31.74"," ,7","33.7"," ,7","50.3","7","61.9","7","38.8","7"
"USC00130385","AUDUBON, IA US","41.7069","-94.9222","390.1","2020","793",,"       53",,"        13","7","-13","7,0121, ","8"," ,7,0125,+","4.9"," ,7,1230, ","2.16"," ,7,0517, ","95","7,0825, ","7017","2","21.49"," ,7","34.2"," ,7","48.0","7","59.5","7","36.5","7"
"US1IAAL0004","WAUKON 0.5 ESE, IA US","43.267291","-91.466922","383.4","2020",,,,,,,,,,,,,"2.60"," ,N,0620, ",,,,,"35.93"," ,N",,,,,,,,
"US1IAAL0006","POSTVILLE 5.5 NE, IA US","43.1409","-91.4926","329.2","2020",,,,,,,,,,,,,"3.06"," ,N,1023, ",,,,,"38.65"," ,N",,,,,,,,
"US1IAMC0013","MUSCATINE 2.1 N, IA US","41.448081","-91.074288","204.2","2020",,,,,,,,,,,,,"1.92"," ,N,1022, ",,,,,"35.49"," ,N",,,,,,,,
"USC00136800","PRIMGHAR, IA US","43.0863","-95.6291","463.3","2020","1032",,"       67",,"        11","7","-21","7,0214,+","9"," ,7,0117, ","6.1"," ,7,0117, ","1.82"," ,7,0517, ","98","7,0603,+","6718","4","20.66"," ,7","37.0"," ,7","49.6","7","60.2","7","39.0","7"
"USW00094982","DAVENPORT MUNICIPAL AIRPORT, IA US","41.61389","-90.59139","228.6","2020","925",,"       32",,"        14","W","-10","W,0214, ","7"," ,W,1230,+","9.1"," ,W,1229, ","2.59"," ,W,0514, ","94","W,0824,+","6118","0","38.36"," ,W","40.4"," ,W","51.1","W","60.9","W","41.3","W"
"USC00135952","NEW HAMPTON, IA US","43.0452","-92.3123","349.9","2020","622",,,,"        14","7","-18","7,0214, ",,,"5.0"," ,7,0218,+","2.00"," ,7,0610, ","94","7,0603, ","7702","9","38.60"," ,7","36.9"," ,7","45.7","7","55.9","7","35.5","7"
"USC00134502","KNOXVILLE, IA US","41.3247","-93.1008","272.8","2020",,,,,,,,,,,,,"3.25"," ,7,0610, ",,,"5744","2","33.89"," ,7",,,,,,,,
"USC00135837","MUSCATINE, IA US","41.4076","-91.0727","167.3","2020","954",,"       26",,"         9","7","-10","7,0215,+","5"," ,7,1230, ","4.5"," ,7,1230, ","2.10"," ,7,1022, ","95","7,0827,+","6061","5","38.91"," ,7","19.7"," ,7","51.5","7","62.0","7","40.9","7"
"USC00131705","COGGON, IA US","42.2792","-91.525","275.2","2020",,,,,,,,,,,,,,,,,,,,,,,,,,,,
"USC00131704","CLUTIER, IA US","42.08","-92.405","266.7","2020",,,,,,,,,,,,,"3.43"," ,7,0622, ",,,,,"39.24"," ,7",,,,,,,,
"USC00132235","DE WITT, IA US","41.8108","-90.5405","208.8","2020",,,,,"        13","7",,,,,"8.0"," ,7,1230, ","2.91"," ,7,0906, ",,,,,"38.91"," ,7","34.1"," ,7",,,,,,
"US1IAFY0003","WAUCOMA 3.2 S, IA US","43.008689","-92.027126","313.3","2020",,,,,,,,,,,,,"4.24"," ,N,0610, ",,,,,"44.21"," ,N",,,,,,,,
"USC00132110","DECORAH, IA US","43.3043","-91.7952","262.1","2020","916",,"       58",,"        12","7","-19","7,0214, ","9"," ,7,0211,+","6.0"," ,7,0209, ","2.49"," ,7,0610, ","96","7,0827, ","6358","3","34.64"," ,7","28.5"," ,7","49.8","7","60.8","7","38.9","7"
"USW00014990","CEDAR RAPIDS MUNICIPAL AIRPORT, IA US","41.8833","-91.7166","264.6","2020","766",,,,,,"-12","W,0214, ",,,,,"2.35"," ,W,0609, ","94","W,0826,+","6736","3","31.56"," ,W",,,"48.8","W","58.8","W","38.8","W"
"USR0000INEA","NEAL SMITH IOWA, IA US","41.5667","-93.2583","273.7","2020","1033",,,,,,"-9","U,0213, ",,,,,,,"96","U,0826,+","5857","2",,,,,"51.3","U","61.4","U","41.2","U"
"US1IAPK0037","WINDSOR HEIGHTS 0.8 SE, IA US","41.5981","-93.6995","263.0","2020",,,"       50",,"         9","N",,,"8"," ,N,0125, ","8.9"," ,N,1230, ","1.71"," ,N,0623, ",,,,,"33.22"," ,N","41.9"," ,N",,,,,,
"USC00134874","LITTLE SIOUX 2 NW, IA US","41.8263","-96.0505","312.4","2020","897",,"       65",,"        20","7","-12","7,0121, ","7"," ,7,0122, ","5.0"," ,7,1212, ","2.12"," ,7,0610, ","99","7,0825, ","6852","7","28.83"," ,7","49.8"," ,7","49.0","7","61.7","7","36.4","7"
"USW00094971","ESTHERVILLE MUNICIPAL AIRPORT, IA US","43.40111","-94.74722","401.4","2020","602",,,,,,"-18","W,0213, ",,,,,,,"98","W,0602, ","8002","7",,,,,"45.1","W","55.8","W","34.4","W"
"USC00135844","MUSCATINE 2 N, IA US","41.4713","-91.0463","207.3","2020","972",,"       27",,"         9","7","-1","7,0120,+","7"," ,7,0124, ","6.0"," ,7,1230, ","2.13"," ,7,1022, ","94","7,0827,+",,,"34.78"," ,7","28.5"," ,7","51.1","7","60.4","7","41.7","7"
"USC00130608","BELLEVUE L AND D 12, IA US","42.2611","-90.4231","183.8","2020","807",,,,"         9","7","-15","7,0215,+",,,"12.0"," ,7,1230, ","2.00"," ,7,0710, ","95","7,0708,+","6397","2","38.69"," ,7","33.0"," ,7","49.7","7","59.5","7","39.8","7"
"US1IACN0005","CAMANCHE 1.2 W, IA US","41.800081","-90.275062","181.7","2020",,,,,,,,,,,,,"2.84"," ,N,0906, ",,,,,"39.55"," ,N",,,,,,,,
"US1IAHR0016","LOGAN 0.8 WNW, IA US","41.65","-95.8057785","368.2","2020",,,,,,,,,,,,,"2.67"," ,N,0619, ",,,,,"23.52"," ,N",,,,,,,,
"USC00130600","BELLE PLAINE, IA US","41.8814","-92.2764","246.9","2020","832",,"       44",,"         8","7","-11","7,0214, ","9"," ,7,0125,+","6.8"," ,7,1230, ","3.41"," ,7,0610, ","95","7,0827, ","6463","8","30.81"," ,7","30.7"," ,7","49.4","7","60.2","7","38.7","7"
"US1IACW0002","NEW HAMPTON 0.4 SW, IA US","43.055346","-92.320374","350.5","2020",,,,,,,,,,,,,"2.18"," ,N,0610, ",,,,,"41.49"," ,N",,,,,,,,
"USC00131257","CASCADE, IA US","42.2979","-91.0116","248.1","2020","659",,,,,,"3","7,0121,+",,,,,,,"93","7,0828,+",,,"38.17"," ,7",,,"48.1","7","57.8","7","38.5","7"
"US1IACN0002","CALAMUS 2.0 NE, IA US","41.843637","-90.72746","218.8","2020",,,,,,,,,,,,,"3.27"," ,N,0906, ",,,,,"40.13"," ,N",,,,,,,,
"USC00137594","SHELDON, IA US","43.18036","-95.85321","432.8","2020",,,"       83",,"        11","7",,,"9"," ,7,0216,+","5.8"," ,7,0118, ","1.86"," ,7,0517, ",,,,,"19.18"," ,7","40.6"," ,7",,,,,,
"USC00136103","NORTHWOOD, IA US","43.4386","-93.2252","362.7","2020","474",,,,,,"-24","7,0214, ",,,,,"2.62"," ,7,0619, ","94","7,0603, ","8170","1","32.52"," ,7",,,"44.2","7","54.2","7","34.2","7"
"USC00137312","SAC CITY, IA US","42.4194","-94.9761","368.8","2020","965",,"       58",,"        14","7","-15","7,0221,+","5"," ,7,0123,+","4.0"," ,7,0118, ","1.68"," ,7,0320, ","96","7,0828,+","7176","5","20.66"," ,7","25.6"," ,7","48.3","7","59.6","7","37.0","7"
"USW00054902","DES MOINES 17 E, IA US","41.5562","-93.2855","280.7","2020","886",,,,,,"-9","R,0213, ",,,,,"2.96"," ,R,1022, ","95","R,0826,+","6227","7","30.68"," ,R",,,"50.7","R","61.0","R","40.4","R"
"USC00137678","SIGOURNEY, IA US","41.3371","-92.2279","223.1","2020","857",,"       23",,"         7","7","-12","7,0214, ","5"," ,7,1230,+","4.5"," ,7,1230, ","4.20"," ,7,0610, ","97","7,0827, ","5861","0","33.27"," ,7","19.8"," ,7","50.0","7","60.3","7","39.8","7"
"USC00134963","LOWDEN, IA US","41.86044","-90.9222","224.9","2020","906",,"       38",,"        17","7","-11","7,0214, ","10"," ,7,1229, ","10.8"," ,7,1229, ","2.66"," ,7,0906, ","96","7,0826,+","6445","8","43.39"," ,7","55.2"," ,7","50.2","7","61.1","7","39.4","7"
"USC00133517","GUTTENBERG L AND D 10, IA US","42.7858","-91.0958","188.4","2020","851",,"       61",,"        11","7","-11","7,0214, ","9"," ,7,0125,+","5.0"," ,7,0118, ","3.80"," ,7,0529, ","96","7,0603, ","6768","2","39.82"," ,7","26.5"," ,7","49.1","7","58.4","7","39.9","7"
"US1IAWB0003","FORT DODGE 1.6 ENE, IA US","42.51929","-94.15044","340.2","2020",,,,,,,,,,,,,"2.60"," ,N,0909, ",,,,,"27.66"," ,N",,,,,,,,
"USC00130112","ALBIA 3 NNE, IA US","41.0655","-92.7866","268.2","2020","921",,"       34",,"        10","7","-12","7,0214, ","8"," ,7,0125,+","7.4"," ,7,0417, ","2.46"," ,7,0515, ","94","7,0824, ","6177","5","37.58"," ,7","34.9"," ,7","50.6","7","60.2","7","41.1","7"
"USC00131442","CHEROKEE, IA US","42.7572","-95.5377","368.8","2020","899",,"       54",,"        10","7","-15","7,0220, ","8"," ,7,0121,+","6.0"," ,7,0118, ","2.12"," ,7,0610, ","99","7,0825, ","7382","9","23.18"," ,7","32.2"," ,7","47.5","7","59.0","7","36.1","7"
"USW00094910","WATERLOO MUNICIPAL AIRPORT, IA US","42.5544","-92.4011","264.6","2020","1013",,"       70",,"        13","W","-14","W,0214, ","9"," ,W,0201,+","4.8"," ,W,1229, ","2.94"," ,W,1022, ","96","W,0602, ","6614","6","35.88"," ,W","30.3"," ,W","49.7","W","60.3","W","39.1","W"
"USC00139067","WILLIAMSBURG 1 E, IA US","41.6649","-91.9977","237.7","2020",,,"       34",,"        12","7",,,"11"," ,7,1231,+","10.9"," ,7,1230, ","2.80"," ,7,0610, ",,,"6608","9","30.85"," ,7","38.0"," ,7",,,,,,
"USC00138410","UNDERWOOD, IA US","41.3894","-95.6811","329.2","2020",,,"       43",,"         6","7",,,"6"," ,7,1231,+","5.7"," ,7,1230, ","1.41"," ,7,0610, ",,,,,"17.52"," ,7","23.6"," ,7",,,,,,
"USC00137326","ST ANSGAR, IA US","43.3817","-92.9232","347.2","2020",,,"       73",,"        12","7",,,"15"," ,7,0218, ","6.3"," ,7,0104, ","2.60"," ,7,0610, ",,,,,"35.70"," ,7","37.1"," ,7",,,,,,
"USC00134735","LE MARS, IA US","42.7816","-96.1458","364.2","2020","960",,"       49",,"        11","7","-12","7,0117,+","7"," ,7,0120,+","4.3"," ,7,0118, ","1.27"," ,7,0610, ","100","7,0603, ","7254","8","18.72"," ,7","32.4"," ,7","48.5","7","59.9","7","37.1","7"
"US1IAPK0097","ANKENY 1.5 NNE, IA US","41.743761","-93.59088","281.9","2020",,,,,,,,,,,,,"2.42"," ,N,0715, ",,,,,"30.01"," ,N",,,,,,,,
"USC00131319","CEDAR RAPIDS NUMBER 1, IA US","42.0496","-91.5881","247.8","2020",,,"       58",,"        13","7",,,"10"," ,7,0124, ","5.8"," ,7,1229, ","2.24"," ,7,0810, ",,,"6279","4","40.11"," ,7","40.3"," ,7",,,,,,
"USW00094908","DUBUQUE REGIONAL AIRPORT, IA US","42.39778","-90.70361","321.9","2020","732",,"       73",,"        12","W","-16","W,0214, ","9"," ,W,0124, ","7.4"," ,W,1229, ","2.36"," ,W,0709, ","93","W,0824, ","6931","8","39.91"," ,W","41.2"," ,W","48.3","W","57.6","W","39.0","W"
"USC00134063","INDIANOLA 2 W, IA US","41.36639","-93.64806","281.6","2020","1008",,"       50",,"         9","7","-12","7,0214,+","8"," ,7,1231,+","8.3"," ,7,1230, ","3.45"," ,7,0610, ","95","7,0824,+","6275","9","34.09"," ,7","41.1"," ,7","50.7","7","61.8","7","39.7","7"
"USC00134142","IOWA FALLS, IA US","42.5188","-93.2536","321.6","2020","853",,"       62",,"         9","7","-14","7,0215,+","9"," ,7,0201,+","5.0"," ,7,0118, ","2.63"," ,7,0619, ","95","7,0827,+","6868","7","30.26"," ,7","24.2"," ,7","48.0","7","58.7","7","37.3","7"
"US1IAKS0005","BURT 0.5 NW, IA US","43.20552","-94.22739","362.4","2020",,,,,,,,,,,,,"2.73"," ,N,0517, ",,,,,"25.50"," ,N",,,,,,,,
"US1IAKS0004","ALGONA 0.7 SE, IA US","43.066279","-94.222148","371.9","2020",,,,,,,,,,,,,"1.73"," ,N,0517, ",,,,,"25.74"," ,N",,,,,,,,
"US1IAPT0002","COUNCIL BLUFFS 3.4 NNE, IA US","41.285299","-95.833623","362.1","2020",,,,,,,,,,,,,"1.47"," ,N,0610, ",,,,,"18.44"," ,N",,,,,,,,
"USC00136566","PERRY, IA US","41.8394","-94.1105","289.6","2020","941",,"       48",,"        10","7","-11","7,0214,+","5"," ,7,1231,+","5.7"," ,7,1230, ","1.41"," ,7,1110, ","97","7,0829,+","6340","4","24.54"," ,7","35.9"," ,7","49.9","7","61.3","7","38.6","7"
"USC00136327","OSKALOOSA, IA US","41.3213","-92.6466","253.0","2020",,,,,,,,,,,,,,,,,,,"31.43"," ,7",,,,,,,,
"US1IAPK0088","DES MOINES 5.4 WNW, IA US","41.61721","-93.70573","294.4","2020",,,,,,,,,,,,,"1.64"," ,N,0413, ",,,,,"33.67"," ,N",,,,,,,,
"US1IALN0030","CENTER POINT 0.6 NNW, IA US","42.193242","-91.7825529","246.3","2020",,,,,,,,,,,,,"1.96"," ,N,0610, ",,,,,"38.03"," ,N",,,,,,,,
"USC00134705","LE CLAIRE LOCK AND DAM 14, IA US","41.5747","-90.4005","175.9","2020","1016",,,,,,"-9","7,0215,+",,,,,"3.25"," ,7,0328, ","93","7,0827,+","6054","4","42.59"," ,7",,,"51.2","7","60.0","7","42.3","7"
"USC00130933","BROOKLYN, IA US","41.7394","-92.44","270.1","2020",,,,,,,,,,,,,"2.90"," ,7,0912, ",,,,,"35.99"," ,7",,,,,,,,
"US1IAJN0010","CENTER JUNCTION 2.6 W, IA US","42.113034","-91.140458","296.6","2020",,,,,,,,,,,,,"3.23"," ,N,0906, ",,,,,"45.64"," ,N",,,,,,,,
"USC00130133","ALGONA, IA US","43.06626","-94.22216","370.0","2020",,,"       72",,"        12","7","-17","7,0214,+","11"," ,7,0123, ","6.9"," ,7,0118, ","1.93"," ,7,0517, ",,,,,"24.56"," ,7","41.9"," ,7",,,,,"36.2","7"
"US1IASR0019","GILBERT 0.2 W, IA US","42.10789","-93.651113","302.1","2020",,,,,,,,,,,,,"1.92"," ,N,0715, ",,,,,"27.90"," ,N",,,,,,,,
"USC00135123","MAPLETON NUMBER 2, IA US","42.162","-95.7836","365.8","2020","877",,"       45",,"        13","7","-15","7,0221,+","5"," ,7,1231,+","4.0"," ,7,1230,+","2.39"," ,7,0610, ","95","7,0828,+","6924","8","23.36"," ,7","22.4"," ,7","48.8","7","60.4","7","37.1","7"
"USC00137664","SIBLEY 3 NE, IA US","43.4047","-95.7483","466.0","2020","770",,"       89",,"        13","7","-18","7,0214, ","16"," ,7,0122,+","7.0"," ,7,0118, ","1.80"," ,7,0610, ","98","7,0603, ","8051","9","18.61"," ,7","44.9"," ,7","45.6","7","56.7","7","34.5","7"
"US1IAAP0011","MELROSE 6.8 SSE, IA US","40.885","-93.0204","303.9","2020",,,,,,,,,,,,,"2.37"," ,N,0610, ",,,,,"33.70"," ,N",,,,,,,,
"US1IASR0002","AMES 1.5 NNE, IA US","42.044777","-93.617361","298.1","2020",,,,,,,,,,,,,"2.67"," ,N,0715, ",,,,,"28.98"," ,N",,,,,,,,
"US1IABC0009","WINTHROP 5.6 NNE, IA US","42.55206","-91.70663","343.8","2020",,,,,,,,,,,,,"4.59"," ,N,0906, ",,,,,"41.21"," ,N",,,,,,,,
"USC00130807","BOONE, IA US","42.04167","-93.89088","315.5","2020","928",,"       52",,"         8","7","-13","7,0213, ","7"," ,7,0131, ","4.8"," ,7,1212, ","1.88"," ,7,1023, ","96","7,0829,+","6658","7","24.94"," ,7","28.0"," ,7","49.4","7","60.5","7","38.2","7"
"USC00133509","GUTHRIE CENTER, IA US","41.6686","-94.4972","324.6","2020","954",,,,,,"-12","7,0121, ",,,,,,,"97","7,0829,+","6141","5",,,,,"50.1","7","61.8","7","38.4","7"
"US1IAPK0083","ALTOONA 1.5 SSE, IA US","41.63125","-93.46584","294.7","2020",,,,,,,,,,,,,"1.96"," ,N,0611, ",,,,,"36.01"," ,N",,,,,,,,
"USC00130923","BRITT 3 E, IA US","43.10554","-93.74444","371.9","2020",,,,,,,,,,,,,,,,,,,,,,,,,,,,
"USC00132789","FAIRFIELD, IA US","41.021","-91.9553","225.6","2020","863",,"       24",,"         8","7","-15","7,0214, ","4"," ,7,1231,+","4.0"," ,7,1230,+","2.92"," ,7,0610, ","97","7,0825, ","6226","0","37.79"," ,7","24.0"," ,7","50.2","7","59.6","7","40.8","7"
"US1IABH0017","GILBERTVILLE 1.0 NW, IA US","42.430701","-92.225269","272.8","2020",,,,,,,,,,,,,"3.11"," ,N,0610, ",,,,,"41.24"," ,N",,,,,,,,
"US1IACF0002","SCHLESWIG 0.4 NE, IA US","42.165479","-95.428708","451.1","2020",,,,,,,,,,,,,"2.05"," ,N,0610, ",,,,,"21.41"," ,N",,,,,,,,
"USC00130364","ATLANTIC 1 NE, IA US","41.4175","-95.0041","351.1","2020","983",,,,"         8","7","-11","7,0121, ",,,"5.9"," ,7,1230, ","1.56"," ,7,0515, ","97","7,0824, ","6468","3","18.86"," ,7","29.3"," ,7","50.0","7","62.5","7","37.5","7"
"USC00130241","ANKENY, IA US","41.73229","-93.64999","297.2","2020","1035",,,,,,"-11","7,0214,+",,,,,,,"96","7,0829,+","6382","8",,,,,"50.5","7","61.1","7","40.0","7"
"US1IAAP0008","CENTERVILLE 5.6 NE, IA US","40.796363","-92.812516","292.6","2020",,,,,,,,,,,,,"1.80"," ,N,1125, ",,,,,"31.54"," ,N",,,,,,,,
"US1IAAP0009","NUMA 1.7 W, IA US","40.682036","-93.011914","319.4","2020",,,,,,,,,,,,,,,,,,,"31.39"," ,N",,,,,,,,
"USC00135131","MAQUOKETA, IA US","42.0771","-90.6647","203.6","2020","848",,"       41",,"         9","7","-12","7,0214, ","10"," ,7,1230, ","9.5"," ,7,1230, ","3.25"," ,7,0906, ","94","7,0727,+","6458","8","37.85"," ,7","31.0"," ,7","49.6","7","59.8","7","39.4","7"
"USC00135493","MILFORD 4 NW, IA US","43.3827","-95.1841","427.3","2020","816",,"       80",,"        10","7","-19","7,0212, ","13"," ,7,0117, ","7.7"," ,7,0117, ","1.52"," ,7,0517, ","97","7,0603,+","7555","3","19.25"," ,7","35.7"," ,7","47.0","7","57.8","7","36.1","7"
"US1IAST0003","PARK VIEW 0.2 WSW, IA US","41.688547","-90.543813","241.1","2020",,,,,,,,,,,,,"2.73"," ,N,0906, ",,,,,"43.31"," ,N",,,,,,,,
"US1IAGT0001","JAMAICA 3.2 S, IA US","41.799126","-94.309307","321.0","2020",,,"       51",,"        10","N",,,"5"," ,N,1231,+","5.6"," ,N,1230, ","1.41"," ,N,1023, ",,,,,"20.57"," ,N","35.2"," ,N",,,,,,
"USC00136305","OSAGE, IA US","43.2794","-92.8106","356.6","2020","695",,"       71",,"        13","7","-17","7,0214, ","15"," ,7,0221,+","6.1"," ,7,0104, ","1.98"," ,7,0610, ","95","7,0603, ","7549","1","28.49"," ,7","35.3"," ,7","46.2","7","56.0","7","36.4","7"
"USC00132977","FOREST CITY 2 NNE, IA US","43.2844","-93.6305","390.1","2020",,,,,,,,,,,,,,,,,,,"25.81"," ,7",,,,,,,,
"USW00014931","BURLINGTON MUNICIPAL AIRPORT, IA US","40.78333","-91.12528","210.9","2020","1134",,,,,,"-9","W,0214, ",,,,,"1.75"," ,W,0912, ","97","W,0824, ","5713","1","29.87"," ,W",,,"52.7","W","62.2","W","43.2","W"
"USC00131402","CHARLES CITY, IA US","43.0604","-92.6717","302.7","2020","697",,"       63",,"        10","7","-19","7,0214, ","9"," ,7,0123, ","4.4"," ,7,0104, ","2.44"," ,7,0622, ","95","7,0602, ","7303","5","34.83"," ,7","34.8"," ,7","47.2","7","56.7","7","37.6","7"
"USW00014933","DES MOINES INTERNATIONAL AIRPORT, IA US","41.5338","-93.653","291.7","2020","1179",,"       54",,"        14","W","-10","W,0213, ","10"," ,W,0125, ","9.6"," ,W,1229, ","2.08"," ,W,1022, ","96","W,0828,+","6052","0","34.40"," ,W","48.0"," ,W","51.8","W","61.4","W","42.3","W"
"USC00132299","DONNELLSON, IA US","40.6458","-91.564","214.9","2020","1136",,"       24",,"         8","7","-8","7,0215,+","5"," ,7,0417,+","4.7"," ,7,0417, ","1.99"," ,7,0515, ","96","7,0825,+","5767","0","36.54"," ,7","21.5"," ,7","52.5","7","62.6","7","42.4","7"
"USC00138296","TOLEDO 3 N, IA US","42.03543","-92.58046","285.0","2020","788",,"       59",,"        15","7","-12","7,0214, ","7"," ,7,1231,+","7.0"," ,7,1230, ","2.48"," ,7,0610, ","95","7,0827,+","6987","8","32.86"," ,7","36.3"," ,7","48.2","7","59.0","7","37.5","7"
"USC00132171","DENISON, IA US","42.0363","-95.3288","427.0","2020","998",,"       51",,"        12","7","-11","7,0213,+","6"," ,7,0124,+","4.5"," ,7,0118, ","2.99"," ,7,0909, ","97","7,0825, ","6837","6","22.50"," ,7","27.3"," ,7","49.2","7","59.9","7","38.5","7"
"USC00136316","OSCEOLA, IA US","41.0194","-93.7502","313.3","2020","1057",,"       52",,"        12","7","-11","7,0214, ","9"," ,7,0126,+","6.9"," ,7,0417, ","2.28"," ,7,0727, ","98","7,0824, ","6198","1","29.87"," ,7","37.3"," ,7","50.8","7","62.3","7","39.3","7"
"US1IADM0007","BURLINGTON 6.5 SSW, IA US","40.7296209","-91.1896965","169.5","2020",,,,,,,,,,,,,"2.14"," ,N,0515, ",,,,,"29.72"," ,N",,,,,,,,
"USW00014937","IOWA CITY MUNICIPAL AIRPORT, IA US","41.63278","-91.54306","198.1","2020","954",,,,,,"-8","W,0214, ",,,,,"3.47"," ,W,0609, ","96","W,0826,+","5892","3","34.88"," ,W",,,"51.4","W","61.3","W","41.4","W"
"US1IADV0003","BLOOMFIELD 8.6 SSW, IA US","40.626167","-92.4543","276.8","2020",,,,,,,,,,,,,"1.95"," ,N,0908, ",,,,,"36.10"," ,N",,,,,,,,
"USW00014940","MASON CITY MUNICIPAL AIRPORT, IA US","43.1544","-93.3269","373.4","2020","727",,"       74",,"        10","W","-18","W,0214, ","10"," ,W,0125, ","4.1"," ,W,0117, ","2.43"," ,W,0709, ","96","W,0602, ","7542","2","28.78"," ,W","32.2"," ,W","46.6","W","57.2","W","36.0","W"
"US1IADV0002","MOULTON 3.6 ENE, IA US","40.704878","-92.615519","295.4","2020",,,,,,,,,,,,,"1.96"," ,N,0908, ",,,,,"29.54"," ,N",,,,,,,,
"USC00131635","CLINTON NUMBER 1, IA US","41.7947","-90.2639","178.3","2020","1058",,"       30",,"        11","7","-10","7,0214, ","6"," ,7,1231,+","5.0"," ,7,1229, ","3.07"," ,7,0906, ","94","7,0826,+","5839","8","35.30"," ,7","30.8"," ,7","52.4","7","61.8","7","42.9","7"
"USC00132603","ELKADER, IA US","42.7754","-91.4537","240.2","2020","623",,"       60",,"        12","7","-18","7,0215,+","8"," ,7,0124, ","4.7"," ,7,1230, ","4.92"," ,7,1023, ","94","7,0828,+","7154","3","42.32"," ,7","28.8"," ,7","46.6","7","58.1","7","35.1","7"
"USC00132724","ESTHERVILLE 4 E, IA US","43.4036","-94.7472","402.3","2020","659",,,,,,"-18","7,0213, ",,,,,"1.73"," ,7,0517, ","97","7,0603, ",,,"21.54"," ,7",,,"45.2","7","56.1","7","34.4","7"
"USW00014943","SIOUX CITY AIRPORT, IA US","42.3913","-96.3791","333.8","2020","1035",,"       56",,"        10","W","-14","W,0220, ","7"," ,W,0122,+","5.5"," ,W,0219, ","2.33"," ,W,0709, ","99","W,0602, ","6678","0","20.10"," ,W","40.0"," ,W","49.9","W","61.4","W","38.3","W"
"US1IAHY0001","NEW LONDON 1.5 SW, IA US","40.914155","-91.429263","224.9","2020",,,,,,,,,,,,,"2.01"," ,N,0610, ",,,,,"35.79"," ,N",,,,,,,,
"US1IATY0002","NEW MARKET 4.7 N, IA US","40.8006","-94.9102","358.4","2020",,,,,,,,,,,,,"1.68"," ,N,0727, ",,,,,"27.20"," ,N",,,,,,,,
"USC00138062","SWISHER NUMBER 2, IA US","41.8483","-91.6923","248.4","2020",,,,,"         9","7",,,,,"10.7"," ,7,1230, ","2.90"," ,7,0710, ",,,,,"38.20"," ,7","36.2"," ,7",,,,,,
"USC00134381","KEOKUK LOCK DAM 19, IA US","40.3968","-91.3749","160.6","2020","1109",,,,"         3","7","-4","7,0215,+",,,"4.0"," ,7,0213, ","2.00"," ,7,0912, ","94","7,0825, ","5657","8","34.15"," ,7","8.2"," ,7","52.9","7","61.9","7","43.8","7"
"USC00137892","STANLEY, IA US","42.6333","-91.8632","339.5","2020","660",,"       70",,"        12","7","-20","7,0214, ","10"," ,7,0124, ","6.0"," ,7,1230, ","4.62"," ,7,0610, ","94","7,0827,+","7395","2","41.98"," ,7","33.3"," ,7","46.5","7","57.4","7","35.6","7"
"USC00135230","MASON CITY, IA US","43.163","-93.1952","336.8","2020","742",,"       73",,"        12","7","-16","7,0214, ","8"," ,7,0221,+","3.1"," ,7,1230, ","2.25"," ,7,0517, ","98","7,0603, ","7456","1","31.33"," ,7","29.5"," ,7","46.9","7","57.3","7","36.6","7"
"USC00132041","DAKOTA CITY, IA US","42.7255","-94.1952","338.3","2020","836",,"       72",,"        11","7","-16","7,0213, ","8"," ,7,0124,+","5.1"," ,7,0118, ","2.22"," ,7,0320, ","98","7,0603, ","7274","9","26.13"," ,7","32.8"," ,7","47.7","7","58.4","7","37.0","7"
"USC00134101","IOWA CITY, IA US","41.6093","-91.5051","195.1","2020","902",,"       34",,"        11","7","-9","7,0215,+","7"," ,7,1231,+","7.0"," ,7,1230, ","3.80"," ,7,0610, ","96","7,0827,+","6249","9","37.33"," ,7","23.0"," ,7","50.2","7","61.0","7","39.5","7"
"USC00134585","LAMONI, IA US","40.6233","-93.9343","343.8","2020","1230",,,,,,"-7","7,0214, ",,,,,"1.98"," ,7,0715, ","97","7,0824, ","5954","0","33.99"," ,7",,,"52.3","7","62.8","7","41.8","7"
"USC00138026","SWEA CITY 5 N, IA US","43.45413","-94.30699","359.7","2020",,,"       79",,"        13","7",,,"8"," ,7,0210,+","6.9"," ,7,0413, ","3.61"," ,7,0906, ",,,"7772","6","29.14"," ,7","47.1"," ,7",,,,,,
"USC00136766","POSTVILLE, IA US","43.09","-91.5581","355.1","2020","717",,"       60",,"        10","7","-18","7,0215,+","10"," ,7,0124,+","3.8"," ,7,1230, ","2.57"," ,7,1023, ","94","7,0603, ","7086","5","38.79"," ,7","28.3"," ,7","47.2","7","57.6","7","36.9","7"
"USC00137613","SHENANDOAH, IA US","40.77188","-95.35679","304.5","2020","1129",,"       28",,"         9","7","-4","7,1231,+","6"," ,7,0417, ","6.0"," ,7,0417, ","1.35"," ,7,0716, ","95","7,0907, ","5874","5","23.51"," ,7","22.6"," ,7","52.1","7","63.3","7","40.9","7"
"US1IAWR0007","INDIANOLA 0.8 SSW, IA US","41.350468","-93.572889","288.0","2020",,,,,,,,,,,,,"2.90"," ,N,0715, ",,,,,"34.30"," ,N",,,,,,,,
"USC00136527","PELLA 1 S, IA US","41.3761","-92.9202","237.7","2020",,,"       48",,"         8","7",,,"10"," ,7,0125,+","7.0"," ,7,1230, ","2.48"," ,7,0610, ",,,,,"31.89"," ,7","27.2"," ,7",,,,,,
"USC00137859","SPIRIT LAKE, IA US","43.423","-95.1394","432.8","2020","868",,"       64",,"        12","7","-18","7,0214,+","10"," ,7,0121,+","6.1"," ,7,0413, ","2.21"," ,7,0517, ","96","7,0825,+","7727","6","24.14"," ,7","38.5"," ,7","46.9","7","56.9","7","36.8","7"
"US1IAWH0005","DECORAH 4.9SE, IA US","43.264814","-91.702947","336.2","2020",,,,,,,,,,,,,"3.12"," ,N,0620, ",,,,,"40.08"," ,N",,,,,,,,
"USC00134228","JEFFERSON, IA US","42.0103","-94.39523","321.6","2020","842",,"       48",,"         9","7","-12","7,0214, ","6"," ,7,0125,+","5.9"," ,7,0118, ","1.83"," ,7,0909, ","95","7,0828,+",,,"23.19"," ,7","28.5"," ,7","48.9","7","59.6","7","38.2","7"
"USC00138707","WATERLOO SNOW, IA US","42.46509","-92.34116","273.1","2020",,,,,,,,,,,,,,,,,,,,,,,,,,,,
"US1IADV0009","BLOOMFIELD 4.3 SSW, IA US","40.68872","-92.44063","264.0","2020",,,,,,,,,,,,,"2.77"," ,N,0908, ",,,,,"38.91"," ,N",,,,,,,,
"USC00137979","STORM LAKE, IA US","42.6469","-95.1933","439.5","2020","934",,"       40",,"        10","7","-14","7,0213, ","7"," ,7,0120, ","5.9"," ,7,0120, ",,,"94","7,0603, ",,,,,"29.1"," ,7","48.3","7","57.8","7","38.8","7"
"US1IADV0008","BLOOMFIELD 6.5 E, IA US","40.735521","-92.29492","242.0","2020",,,,,,,,,,,,,"2.31"," ,N,0908, ",,,,,"33.91"," ,N",,,,,,,,
"US1IADV0007","BLOOMFIELD 4.2 WNW, IA US","40.77675","-92.488506","265.8","2020",,,,,,,,,,,,,"1.96"," ,N,0515, ",,,,,"33.19"," ,N",,,,,,,,
"US1IAWH0001","DECORAH 7.9 ENE, IA US","43.343905","-91.644297","289.0","2020",,,,,,,,,,,,,"2.91"," ,N,0610, ",,,,,"35.80"," ,N",,,,,,,,
"US1IASX0007","SIOUX CENTER 2.6 N, IA US","43.1131","-96.1795","449.0","2020",,,,,,,,,,,,,"1.22"," ,N,0329, ",,,,,"15.22"," ,N",,,,,,,,
"USC00132638","ELMA, IA US","43.2419","-92.4433","357.2","2020",,,"       62",,"         9","7",,,"10"," ,7,0222,+","4.3"," ,7,0209, ","2.21"," ,7,0610, ",,,,,"34.09"," ,7","28.1"," ,7",,,,,,
"USC00132999","FORT DODGE 5 NNW, IA US","42.5836","-94.2005","339.9","2020",,,"       62",,"        10","7",,,"11"," ,7,0123, ","6.2"," ,7,0118, ","1.92"," ,7,0909, ",,,,,"26.02"," ,7","34.3"," ,7",,,,,,
"USC00130214","ANAMOSA 3 SSW, IA US","42.0773","-91.3027","276.1","2020","672",,"       56",,"        13","7","-12","7,0215, ","8"," ,7,1231,+","7.5"," ,7,1230, ","2.84"," ,7,0610, ","92","7,0828,+","6770","0","38.00"," ,7","37.8"," ,7","48.5","7","58.5","7","38.6","7"
"US1IADV0010","BLOOMFIELD 8.4 NNE, IA US","40.856022","-92.343188","244.4","2020",,,,,,,,,,,,,"2.14"," ,N,0610, ",,,,,"38.50"," ,N",,,,,,,,
"USC00132755","EVERLY 3 WNW, IA US","43.1833","-95.383","416.1","2020",,,"       89",,"        12","7",,,"12"," ,7,0122,+","7.0"," ,7,0118, ","1.85"," ,7,0517, ",,,,,"19.73"," ,7","39.1"," ,7",,,,,,
"US1IACL0003","MURRAY 0.5 N, IA US","41.0483124731792","-93.9495956897736","371.6","2020",,,"       51",,"        14","N",,,"8"," ,N,0125, ","5.8"," ,N,0417, ","2.53"," ,N,0727, ",,,,,"31.94"," ,N","40.3"," ,N",,,,,,
"US1IAPC0008","FONDA 4.5 NNW, IA US","42.636537","-94.894831","383.7","2020",,,,,,,,,,,,,"1.65"," ,N,0320, ",,,,,"19.67"," ,N",,,,,,,,
"US1IACL0004","MURRAY 1.7 W, IA US","41.04128","-93.98046","369.7","2020",,,"       52",,"        15","N",,,"8"," ,N,0125, ","6.3"," ,N,0417, ","2.75"," ,N,0727, ",,,,,"32.80"," ,N","41.1"," ,N",,,,,,
"USC00136891","RANDOLPH, IA US","40.8744","-95.5666","298.7","2020",,,"       36",,"         9","7",,,"8"," ,7,1231,+","8.0"," ,7,0417, ","1.55"," ,7,0715, ",,,,,"23.92"," ,7","29.7"," ,7",,,,,,
"US1IAST0037","DAVENPORT 0.9 WNW, IA US","41.5445","-90.591","204.8","2020",,,,,,,,,,,,,"2.67"," ,N,1022, ",,,,,"42.21"," ,N",,,,,,,,
"USC00132070","DAVENPORT WEATHER FORECAST OFFICE, IA US","41.61191","-90.58025","228.6","2020","956",,"       31",,"        14","7","-11","7,0214, ","8"," ,7,1229, ","9.1"," ,7,1229, ","2.69"," ,7,0514, ","94","7,0826, ","6292","6","39.20"," ,7","40.4"," ,7","50.7","7","60.3","7","41.1","7"
"US1IALN0003","ELY 0.5 SE, IA US","41.87051","-91.58073","231.0","2020",,,,,,,,,,,,,"2.65"," ,N,0610, ",,,,,"36.06"," ,N",,,,,,,,
"US1IAST0030","ELDRIDGE 0.7 SSW, IA US","41.644656","-90.587065","236.8","2020",,,,,,,,,,,,,"1.75"," ,N,0515, ",,,,,"38.42"," ,N",,,,,,,,
"USC00130203","AMES 5 SE, IA US","41.9519","-93.5655","265.2","2020","844",,"       50",,"         8","7","-12","7,0214,+","6"," ,7,1231,+","6.0"," ,7,1230, ","2.52"," ,7,0526, ","96","7,0829, ","6833","2","25.41"," ,7","22.6"," ,7","48.7","7","59.8","7","37.5","7"
"USC00131533","CLARINDA, IA US","40.7244","-95.0191","298.7","2020","1007",,"       25",,"        11","7","-5","7,0122,+","6"," ,7,0417, ","8.0"," ,7,0417, ","1.38"," ,7,0716, ","95","7,0927, ","6059","0","25.69"," ,7","22.7"," ,7","51.2","7","62.8","7","39.7","7"
"USC00132864","FAYETTE, IA US","42.88262","-91.83025","349.0","2020","585",,"       83",,"        13","7","-21","7,0215,+","13"," ,7,0221,+","4.0"," ,7,1230, ","4.50"," ,7,0610, ","95","7,0603, ","7765","8","35.96"," ,7","32.6"," ,7","45.4","7","56.0","7","34.8","7"
"US1IALN0007","CENTRAL CITY 6.7 W, IA US","42.1983","-91.6543","287.1","2020",,,,,,,,,,,,,"2.11"," ,N,0623, ",,,,,"39.62"," ,N",,,,,,,,
"USC00130200","AMES 8 WSW, IA US","42.0208","-93.7741","335.0","2020","1024",,"       46",,"        11","7","-12","7,0213, ","5"," ,7,0124,+","4.0"," ,7,1229,+","1.80"," ,7,0715, ","94","7,0828,+","6383","3","23.07"," ,7","25.0"," ,7","50.6","7","61.2","7","40.0","7"
