"STATION","NAME","LATITUDE","LONGITUDE","ELEVATION","DATE","CDSD","CDSD_ATTRIBUTES","DSND","DSND_ATTRIBUTES","DSNW","DSNW_ATTRIBUTES","EMNT","EMNT_ATTRIBUTES","EMSD","EMSD_ATTRIBUTES","EMSN","EMSN_ATTRIBUTES","EMXP","EMXP_ATTRIBUTES","EMXT","EMXT_ATTRIBUTES","HDSD","HDSD_ATTRIBUTES","PRCP","PRCP_ATTRIBUTES","SNOW","SNOW_ATTRIBUTES","TAVG","TAVG_ATTRIBUTES","TMAX","TMAX_ATTRIBUTES","TMIN","TMIN_ATTRIBUTES"
"USC00203429","GREENVILLE 2 NNE, MI US","43.2025","-85.2422","268.8","2019","492",,"       65",,"        19","7","-20","7,0131,+","10"," ,7,0201,+","7.0"," ,7,0128, ","1.93"," ,7,1002, ","92","7,0720,+","7492","3","48.54"," ,7","66.8"," ,7","46.0","7","57.6","7","34.4","7"
"USC00200032","ADRIAN 2 NNE, MI US","41.9163","-84.0158","231.6","2019",,,"       24",,"         5","7","-17","7,0131, ","7"," ,7,0121,+","6.0"," ,7,1111, ","1.88"," ,7,0501, ",,,"6456","8","44.42"," ,7","22.3"," ,7",,,,,"38.9","7"
"USC00201486","CHATHAM EXPERIMENT FARM 2, MI US","46.3414","-86.9242","265.2","2019","257",,"      152",,"        54","7","-29","7,0201, ","32"," ,7,0227,+","12.0"," ,7,0213, ","1.50"," ,7,1016, ","91","7,0720,+","9495","8","42.33"," ,7","219.6"," ,7","39.7","7","49.8","7","29.6","7"
"USC00203421","GREENLAND 6 N, MI US","46.8736","-89.1006","241.1","2019","187",,"      169",,"        58","7","-5","7,0201,+","48"," ,7,0226,+","14.0"," ,7,0215, ","1.20"," ,7,1231, ","90","7,0716, ","9194","0","43.64"," ,7","260.9"," ,7","40.4","7","49.6","7","31.2","7"
"US1MIAP0002","OSSINEKE 1.0 NNE, MI US","44.9215","-83.427","180.1","2019",,,,,,,,,,,,,"1.75"," ,N,1230, ",,,,,"38.73"," ,N",,,,,,,,
"USC00203306","GRAND LEDGE 1 NW, MI US","42.7631","-84.7622","243.8","2019",,,,,,,,,,,,,"2.30"," ,7,0620, ",,,,,"44.22"," ,7",,,,,,,,
"USC00200710","BENTON HARBOR AIRPORT, MI US","42.1245","-86.4266","190.5","2019","796",,"       23",,"        15","7","-18","7,0121, ","17"," ,7,0201,+","8.0"," ,7,0119, ","2.07"," ,7,0501, ","95","7,0722,+","6338","3","50.96"," ,7","44.7"," ,7","50.1","7","59.3","7","40.9","7"
"USC00205603","MORENCI, MI US","41.7216","-84.2147","234.7","2019",,,"       36",,"         9","7",,,"6"," ,7,0201,+","4.0"," ,7,0129, ","2.35"," ,7,0928, ",,,,,"46.59"," ,7","25.4"," ,7",,,,,,
"US1MIAP0001","ALPENA 1.6 SSW, MI US","45.051565","-83.44876","178.9","2019",,,,,,,,,,,,,"1.74"," ,N,0806, ",,,,,"39.28"," ,N",,,,,,,,
"USC00208443","VASSAR, MI US","43.3656","-83.5828","192.0","2019","417",,"       53",,,,"-14","7,0127,+","8"," ,7,0201,+",,,"4.32"," ,7,0525, ","94","7,0720, ","7320","5","39.80"," ,7",,,"45.8","7","56.4","7","35.3","7"
"USC00208202","TIPTON 2 WNW, MI US","42.0283","-84.1108","295.7","2019",,,,,,,,,,,,,"2.47"," ,7,0501, ","93","7,0720, ",,,"43.76"," ,7",,,,,"58.1","7",,
"USW00014853","DETROIT WILLOW RUN AIRPORT, MI US","42.23333","-83.53333","236.8","2019","976",,,,,,"-15","W,0131, ",,,,,"2.03"," ,W,0719, ","96","W,0720, ","6040","7","33.35"," ,W",,,"51.2","W","60.8","W","41.7","W"
"USC00201492","CHEBOYGAN, MI US","45.6527","-84.4725","179.2","2019","223",,"      122",,"        39","7","-25","7,0201, ","22"," ,7,0311,+","7.0"," ,7,0215, ","2.00"," ,7,0610, ","88","7,0720, ","8627","0","37.13"," ,7","90.4"," ,7","41.8","7","50.5","7","33.1","7"
"USC00208682","WATERSMEET 12 WSW, MI US","46.2231","-89.4085","515.1","2019",,,"      161",,"        40","7",,,"40"," ,7,0302,+","12.0"," ,7,1231, ","2.05"," ,7,0519, ",,,,,"43.98"," ,7","148.7"," ,7",,,,,,
"US1MIBN0005","BUCHANAN 1.3 WNW, MI US","41.836342","-86.388989","228.3","2019",,,,,,,,,,,,,"2.16"," ,N,1003, ",,,,,"48.24"," ,N",,,,,,,,
"US1MIBN0003","BUCHANAN 1.4 ESE, MI US","41.818287","-86.342251","231.3","2019",,,,,,,,,,,,,"1.85"," ,N,1003, ",,,,,"48.31"," ,N",,,,,,,,
"USW00014858","HANCOCK HOUGHTON CO AIRPORT, MI US","47.16861","-88.48889","333.8","2019","203",,,,,,"-21","W,0306, ",,,,,,,"90","W,0715, ","9424","6",,,,,"39.7","W","47.9","W","31.5","W"
"US1MINW0008","WHITE CLOUD 7.5 ENE, MI US","43.606302","-85.641918","298.1","2019",,,,,,,,,,,,,"3.40"," ,N,1002, ",,,,,"46.70"," ,N",,,,,,,,
"US1MIOK0035","WATERFORD 2.1 NW, MI US","42.687418","-83.413166","299.3","2019",,,,,,,,,,,,,,,,,,,"36.05"," ,N",,,,,,,,
"USC00205050","MANCHESTER, MI US","42.1508","-84.0236","294.1","2019","619",,"       39",,"        11","7","-18","7,0201, ","9"," ,7,1112, ","8.5"," ,7,1112, ","1.61"," ,7,1027, ","96","7,0721, ","6739","9","39.00"," ,7","35.5"," ,7","48.2","7","58.1","7","38.3","7"
"US1MICL0005","HARRISON 5.2 ESE, MI US","43.9886536449194","-84.7022844851017","296.9","2019",,,,,,,,,,,,,,,,,,,"41.99"," ,N",,,,,,,,
"USW00014850","TRAVERSE CITY CHERRY CAPITAL AIRPORT, MI US","44.74083","-85.5825","188.4","2019","449",,,,,,"-10","W,0126, ",,,,,"2.04"," ,W,0922, ","94","W,0710, ","7494","1","33.78"," ,W",,,"45.4","W","54.2","W","36.7","W"
"US1MIIH0034","MASON 5.8 ENE, MI US","42.614303","-84.338132","283.8","2019",,,,,"        14","N",,,,,"6.0"," ,N,0129, ","1.67"," ,N,0912, ",,,,,"38.93"," ,N","44.0"," ,N",,,,,,
"USW00094871","BENTON HARBOR, MI US","42.1256","-86.4284","196.0","2019","662",,,,,,"-16","W,0121, ",,,,,"1.51"," ,W,0927, ","93","W,0720, ","6456","8","43.93"," ,W",,,"49.3","W","57.8","W","40.8","W"
"USC00205065","MANISTEE 3 SE, MI US","44.2113","-86.2938","204.2","2019","387",,,,,,"-8","7,0121, ",,,,,"5.07"," ,7,0720, ","90","7,0719, ","7261","7","48.98"," ,7",,,"45.6","7","53.7","7","37.6","7"
"USC00206398","PAULDING, MI US","46.3976","-89.1794","416.7","2019","160",,"      166",,"        42","7","-29","7,0126, ","41"," ,7,0226,+","9.8"," ,7,0213, ","1.47"," ,7,0925, ","89","7,0704, ","9874","6","39.98"," ,7","166.5"," ,7","37.3","7","48.3","7","26.3","7"
"USC00206158","OLD MISSION 3 SSW, MI US","44.9215","-85.5161","199.9","2019",,,,,,,,,,,,,,,,,,,"35.77"," ,7",,,,,,,,
"USC00207364","SAULT STE MARIE, MI US","46.4866","-84.4089","192.0","2019","163",,"      167",,"        40","7","-25","7,0128,+","41"," ,7,0311,+","11.8"," ,7,0108, ","3.16"," ,7,1001, ","88","7,0704, ","9594","0","46.61"," ,7","157.7"," ,7","38.6","7","48.1","7","29.0","7"
"US1MIMR0004","MONROE 3.0 S, MI US","41.872635","-83.380939","182.3","2019",,,,,,,,,,,,,"1.78"," ,N,0531, ",,,,,"37.67"," ,N",,,,,,,,
"USC00204090","IRON MTN KINGSFORD WWTP, MI US","45.7858","-88.0841","326.4","2019","331",,"      141",,"        27","7","-22","7,0228,+","32"," ,7,0224, ","9.0"," ,7,1201,+","1.48"," ,7,0913, ","93","7,0720, ","9185","7","39.32"," ,7","99.8"," ,7","40.6","7","51.0","7","30.3","7"
"USC00203529","HALE LOUD DAM, MI US","44.4633","-83.7216","221.9","2019","332",,"       99",,"        20","7","-32","7,0202,+","20"," ,Z,0202,+","12.0"," ,7,0129, ","2.00"," ,7,0610, ","92","7,0720, ","8053","0","39.43"," ,7","60.9"," ,7","43.0","7","52.9","7","33.0","7"
"USC00203528","HALE 5 SSW NUMBER 2, MI US","44.3122","-83.8377","248.7","2019","180",,,,,,"-27","7,0126, ",,,,,,,"92","7,0720, ",,,,,,,"41.4","7","53.0","7","29.8","7"
"USW00014826","FLINT FCWOS, MI US","42.9666","-83.7494","234.7","2019","691",,"       68",,"        15","W","-14","W,0131,+","9"," ,W,0129, ","8.6"," ,W,1111, ","1.94"," ,W,0817, ","94","W,0720,+","7044","6","37.43"," ,W","54.4"," ,W","48.2","W","57.7","W","38.8","W"
"USC00200497","BARAGA 7 NW, MI US","46.8208","-88.6064","198.7","2019","179",,"      153",,"        35","7","-26","7,0128, ","34"," ,7,0215, ","17.6"," ,7,0215, ",,,"92","7,0704, ","9837","0",,,"149.9"," ,7","38.0","7","49.6","7","26.5","7"
"USW00014828","GLADWIN, MI US","43.9758","-84.4908","236.2","2019","316",,"       96",,"        20","7","-18","7,0201,+","14"," ,7,0202,+","10.0"," ,7,0129, ","1.52"," ,7,0912, ","92","7,0720, ","7966","8","40.75"," ,7","73.4"," ,7","43.9","7","54.2","7","33.7","7"
"USC00202437","EATON RAPIDS, MI US","42.5175","-84.653","265.2","2019",,,"       39",,,,"-16","7,0122, ","8"," ,7,0201,+",,,"2.25"," ,7,0610, ",,,"6780","6","41.23"," ,7",,,,,,,"38.7","7"
"USC00201468","CHARLEVOIX, MI US","45.3172","-85.2672","180.7","2019","294",,"      134",,"        38","7","-7","7,0309, ","37"," ,7,0221, ","8.0"," ,7,0213, ","1.33"," ,7,0412, ","91","7,0711, ","8082","3","40.70"," ,7","102.2"," ,7","43.6","7","50.6","7","36.5","7"
"USC00205822","NEWPORT 4 SSE, MI US","41.9497","-83.28","176.2","2019","782",,"       35",,"         7","7","-12","7,0201,+","7"," ,7,0121,+","5.2"," ,7,0120, ","1.64"," ,7,0602, ","95","7,0721, ",,,"40.39"," ,7","27.4"," ,7","49.0","7","57.6","7","40.4","7"
"USC00208417","VANDERBILT 11 ENE, MI US","45.1702","-84.4397","275.8","2019","149",,"      157",,,,"-27","7,0126, ","29"," ,7,0312,+",,,,,"92","7,0711, ","9132","2",,,,,"39.6","7","51.1","7","28.1","7"
"USC00203096","GAYLORD, MI US","45.0332","-84.7113","401.7","2019","153",,"      154",,"        51","7","-25","7,0122,+","24"," ,7,0302, ","8.3"," ,7,1231, ","1.52"," ,7,0923, ","90","7,0711, ","9346","5","47.31"," ,7","151.5"," ,7","39.4","7","48.8","7","29.9","7"
"US1MIWY0043","DEARBORN HEIGHTS 1.8 NW, MI US","42.3419570922852","-83.3020706176758","185.6","2019",,,,,,,,,,,,,"1.73"," ,N,0501, ",,,,,"38.24"," ,N",,,,,,,,
"US1MISC0003","PORT HURON 1.6 W, MI US","42.996173","-82.464307","186.2","2019",,,,,,,,,,,,,"3.19"," ,N,0912, ",,,,,"37.68"," ,N",,,,,,,,
"USC00203099","GAYLORD 9 SSW, MI US","44.90715","-84.71891","447.4","2019","223",,"      151",,"        49","7","-8","7,0121, ","28"," ,7,0304,+","8.1"," ,7,0224, ","1.93"," ,7,0922, ","91","7,0710, ","8538","3","46.11"," ,7","183.5"," ,7","42.0","7","50.2","7","33.9","7"
"USW00014833","JACKSON REYNOLDS FIELD, MI US","42.2667","-84.4667","304.2","2019","643",,,,,,"-16","W,0131, ",,,,,"1.33"," ,W,1026, ","95","W,0720, ","6753","8","36.41"," ,W",,,"48.4","W","57.7","W","39.1","W"
"US1MICT0002","HASLETT 1.2 N, MI US","42.76997","-84.40314","263.0","2019",,,"       62",,"        15","N",,,"9"," ,N,0130, ","6.2"," ,N,0129, ","2.49"," ,N,0610, ",,,,,"42.03"," ,N","47.6"," ,N",,,,,,
"USW00014836","LANSING CAPITAL CITY AIRPORT, MI US","42.7761","-84.5997","261.8","2019","652",,,,,,"-14","W,0131,+",,,,,"1.92"," ,W,0601, ","93","W,0720,+","6947","7","40.72"," ,W",,,"48.0","W","56.9","W","39.1","W"
"USW00094898","PORT HOPE, MI US","44.02194","-82.79306","179.8","2019",,,,,,,,,,,,,"1.11"," ,W,0525, ",,,,,"29.22"," ,W",,,,,,,,
"USW00094899","COPPER HARBOR, MI US","47.46667","-87.88333","190.8","2019","154",,,,,,"-8","W,0127, ",,,,,"2.32"," ,W,0107, ","84","W,0719,+","9105","5","36.17"," ,W",,,"40.8","W","47.5","W","34.0","W"
"USC00202328","DURAND WWTP, MI US","42.9269","-83.9894","234.7","2019",,,"       51",,"         7","7",,,"7"," ,7,0202,+","4.5"," ,7,0129, ","1.99"," ,7,0620, ","95","7,0720, ",,,"39.94"," ,7","25.6"," ,7",,,"57.5","7",,
"USW00094893","IRON MOUNTAIN FORD AIRPORT, MI US","45.81833","-88.11444","350.2","2019","285",,,,,,"-23","W,0126, ",,,,,"1.23"," ,W,0715, ","94","W,0719, ","9231","5","18.16"," ,W",,,"40.3","W","51.0","W","29.7","W"
"USW00014838","MARQUETTE, MI US","46.5458","-87.3795","186.8","2019","252",,,,"        33","7","-14","7,0131, ",,,"14.1"," ,7,0213, ","2.01"," ,7,1001, ","91","7,0711, ","9015","6","38.37"," ,7","135.8"," ,7","41.0","7","47.6","7","34.3","7"
"USC00201476","CHARLOTTE, MI US","42.5499","-84.825","274.9","2019",,,,,,,,,,,,,,,,,,,,,,,,,,,,
"USC00203530","HALFWAY LAKE, MI US","46.4748","-85.5925","258.2","2019",,,,,,,,,,,,,,,,,,,,,,,,,,,,
"USC00200146","ALMA, MI US","43.38686","-84.64818","221.9","2019",,,"       55",,"        12","7",,,"7"," ,7,0213,+","6.0"," ,7,1112, ","2.80"," ,7,1002, ",,,,,"45.18"," ,7","38.9"," ,7",,,,,,
"USC00203413","GREEN GARDEN NUMBER 2, MI US","46.4533","-87.3038","205.7","2019",,,"      162",,"        43","7",,,"33"," ,7,0224, ","19.0"," ,7,1201, ","1.61"," ,7,1016, ",,,,,"39.92"," ,7","164.3"," ,7",,,,,,
"USC00206007","NORTHPORT 2 W, MI US","45.1322","-85.6472","227.4","2019","237",,"      133",,"        44","7","-3","7,0304, ","23"," ,7,1112, ","22.0"," ,7,1112, ","1.75"," ,7,1231,+","87","7,0712,+","7998","3","40.66"," ,7","133.0"," ,7","43.7","7","50.7","7","36.7","7"
"USR0000MSEN","SENEY MICHIGAN, MI US","46.2403","-85.9428","221.3","2019","185",,,,,,"-28","U,0201, ",,,,,,,"90","U,0719, ","8806","4",,,,,"40.3","U","50.1","U","30.5","U"
"USC00204502","LAKE CITY EXPERIMENTAL FARM, MI US","44.3088","-85.205","374.9","2019","241",,"      127",,"        25","7","-24","7,0126, ","12"," ,7,0306,+","6.2"," ,7,0415, ","1.84"," ,7,0610, ","92","7,0720, ","8626","5","40.38"," ,7","82.3"," ,7","41.8","7","52.6","7","31.0","7"
"USC00206012","NW MICHIGAN RESEARCH FARM, MI US","44.883","-85.6752","249.9","2019","395",,"      123",,"        44","7","-3","7,0201, ","20"," ,7,1112, ","15.0"," ,7,1112, ","1.89"," ,7,0923, ","90","7,0711, ","7642","6","39.27"," ,7","139.8"," ,7","44.8","7","51.6","7","38.1","7"
"USC00207222","SAGINAW NUMBER 3, MI US","43.4122","-83.9561","182.9","2019","608",,"       50",,"        10","7","-12","7,0201,+","8"," ,7,0213, ","5.5"," ,7,0129, ","2.62"," ,7,1002, ","94","7,0720, ","7005","6","45.15"," ,7","31.8"," ,7","46.9","7","56.0","7","37.9","7"
"USW00014840","MUSKEGON CO AIRPORT, MI US","43.17111","-86.23667","190.5","2019","630",,"       78",,"        27","W","-12","W,0121, ","15"," ,W,0201,+","7.6"," ,W,0212, ","2.36"," ,W,1001, ","90","W,0706, ","6733","7","48.01"," ,W","84.8"," ,W","48.3","W","56.3","W","40.2","W"
"USC00206013","NWSFO GRAND RAPIDS, MI US","42.8933","-85.54472","236.2","2019","601",,"       68",,"        25","7","-12","7,0131, ","13"," ,7,0130, ","5.5"," ,7,1111, ","2.63"," ,7,0922, ","91","7,0720, ","6959","1","53.41"," ,7","84.9"," ,7","47.6","7","55.8","7","39.5","7"
"USW00014841","PELLSTON REGIONAL AIRPORT, MI US","45.5644","-84.7927","214.9","2019","190",,,,,,"-29","W,0128, ",,,,,"1.41"," ,W,1230, ","90","W,0719,+","8846","4","34.11"," ,W",,,"40.9","W","51.8","W","30.1","W"
"USC00203661","HASTINGS, MI US","42.64208","-85.28819","250.2","2019","548",,"       65",,"        28","7","-16","7,0201,+","17"," ,7,0131,+","9.0"," ,7,0129, ","2.80"," ,7,0620, ","92","7,0721, ","7191","2","50.46"," ,7","74.0"," ,7","46.9","7","56.3","7","37.5","7"
"USW00014845","SAGINAW MBS INTERNATIONAL AIRPORT, MI US","43.53306","-84.07972","201.2","2019","595",,"       57",,"        14","W","-12","W,0131, ","9"," ,W,0129, ","6.8"," ,W,0212, ","2.32"," ,W,1001, ","94","W,0719, ","7092","8","34.43"," ,W","42.3"," ,W","47.3","W","55.7","W","38.9","W"
"USC00201361","CASS CITY 1 SSW, MI US","43.5861","-83.1805","212.8","2019","334",,,,"        11","7","-18","7,0202,+",,,"8.0"," ,7,0129, ","2.72"," ,7,1002, ","92","7,0720, ","7560","9","38.40"," ,7","40.4"," ,7","44.7","7","54.6","7","34.9","7"
"USC00202691","FARMINGTON, MI US","42.4669","-83.3625","219.5","2019","573",,"       40",,"        13","7","-16","7,0201,+","8"," ,7,1112, ","8.6"," ,7,1112, ","2.67"," ,7,0912, ","95","7,0721, ","7178","8","39.17"," ,7","38.0"," ,7","47.1","7","56.6","7","37.6","7"
"USW00014847","SAULT STE MARIE SANDERSON FIELD, MI US","46.4794","-84.3572","220.1","2019","211",,"      167",,"        46","W","-24","W,0128, ","41"," ,W,0311,+","12.3"," ,W,0107, ","3.00"," ,W,0930, ","88","W,0719, ","8924","0","46.18"," ,W","158.2"," ,W","41.0","W","49.5","W","32.5","W"
"USW00094889","ANN ARBOR MUNICIPAL AIRPORT, MI US","42.22278","-83.74444","255.7","2019","537",,,,,,"-20","W,0131, ",,,,,"1.30"," ,W,0716, ","94","W,0720, ","6964","2","28.21"," ,W",,,"47.7","W","58.1","W","37.2","W"
"USC00201845","COVINGTON 1 NNW, MI US","46.5588","-88.5419","491.0","2019","213",,"      171",,"        51","7","-25","7,0201, ","48"," ,7,0225, ","14.0"," ,7,0225, ","1.74"," ,7,0422, ","88","7,0704, ","9928","5","38.68"," ,7","174.0"," ,7","38.5","7","47.8","7","29.2","7"
"USC00200758","BEULAH 7 SSW, MI US","44.5316","-86.1311","235.6","2019","351",,"      112",,"        30","7","-9","7,0122,+","16"," ,7,0305, ","9.3"," ,7,1112, ","2.30"," ,7,0721, ","91","7,0711, ","7790","0","42.67"," ,7","101.9"," ,7","44.6","7","53.1","7","36.2","7"
"USW00004847","ADRIAN LENAWEE CO AIRPORT, MI US","41.86778","-84.07944","242.6","2019","689",,,,,,"-19","W,0131, ",,,,,"1.39"," ,W,0330, ","95","W,0720, ","6659","5","39.07"," ,W",,,"48.8","W","57.8","W","39.8","W"
"USC00200197","AMASA 1 W, MI US","46.2347","-88.4544","448.1","2019","238",,"      140",,"        30","7","-40","7,0120, ","32"," ,7,0225, ","11.5"," ,7,0225, ","1.56"," ,7,0519, ","93","7,0720, ","10259","3","37.60"," ,7","112.7"," ,7","37.6","7","50.0","7","25.3","7"
"USC00202015","DEARBORN, MI US","42.3195","-83.2377","184.4","2019","751",,"       36",,"         9","7","-15","7,0131, ","8"," ,7,1112, ","6.7"," ,7,1112, ","2.14"," ,7,0501, ","94","7,0721, ","6239","3","38.11"," ,7","29.6"," ,7","49.5","7","58.3","7","40.6","7"
"USC00202375","EAST GRAND RAPIDS, MI US","42.9378","-85.6131","227.4","2019","537",,"       73",,"        29","7","-10","7,0201,+","16"," ,7,0131,+","6.8"," ,7,0129, ","2.16"," ,7,0923, ","91","7,0721, ","7237","4","52.94"," ,7","87.4"," ,7","46.7","7","55.7","7","37.6","7"
"USC00203585","HARBOR BEACH 1 SSE, MI US","43.8322","-82.6427","181.4","2019",,,"       71",,"        13","7",,,"13"," ,7,0130, ","4.8"," ,7,1112, ","1.22"," ,7,0611, ",,,,,"36.78"," ,7","35.0"," ,7",,,,,,
"USC00207820","STANDISH 4 NE, MI US","44.0126","-83.8977","187.5","2019","358",,"       74",,"        19","7","-19","7,0201, ","11"," ,7,0201,+","7.0"," ,7,0129, ","2.02"," ,7,1230, ","93","7,0720, ","7618","4","34.89"," ,7","63.0"," ,7","44.4","7","53.1","7","35.6","7"
"USC00205406","MICHIGAMME 3 WNW, MI US","46.5453","-88.18","521.2","2019",,,"      166",,"        43","7",,,"41"," ,7,0226,+","10.7"," ,7,0224, ","1.58"," ,7,1001, ",,,,,"35.65"," ,7","139.2"," ,7",,,,,,
"US1MIIN0001","SARANAC 2.6 NE, MI US","42.957642","-85.173759","203.3","2019",,,"       74",,"        26","N",,,"13"," ,N,0130, ","6.4"," ,N,0129, ","2.08"," ,N,1230, ",,,,,"49.85"," ,N","74.3"," ,N",,,,,,
"USC00202016","DEARBORN NUMBER 2, MI US","42.3469","-83.1736","184.4","2019",,,,,"         7","7",,,,,"7.8"," ,7,1112, ","2.47"," ,7,0501, ",,,"6079","4","34.16"," ,7","22.4"," ,7",,,,,,
"USC00207277","ST JAMES 4 SSW BEAVER ISLAND, MI US","45.6911","-85.5463","204.8","2019","196",,"      132",,"        29","7","-20","7,0129, ","29"," ,7,0302,+","9.0"," ,7,1230, ","2.22"," ,7,0519, ","84","7,0704, ",,,"44.68"," ,7","100.2"," ,7","42.3","7","49.7","7","34.8","7"
"USC00208245","TRAVERSE CITY 4.7ESE, MI US","44.73389","-85.51208","245.1","2019",,,"      130",,"        44","7",,,"21"," ,7,0307,+","8.1"," ,7,0101, ","1.97"," ,7,0912, ",,,,,"46.78"," ,7","139.2"," ,7",,,,,,
"USC00205097","MAPLE CITY 1 E, MI US","44.855","-85.8352","243.5","2019",,,,,,,,,,,,,,,,,,,,,,,,,,,,
"USC00206982","RICHMOND 4 NNW, MI US","42.8783","-82.7958","233.2","2019","629",,"       45",,"         8","7","-16","7,0131, ","9"," ,7,1114,+","9.2"," ,7,1112, ","1.92"," ,7,0818, ","94","7,0721,+","6946","7","32.94"," ,7","35.1"," ,7","47.7","7","56.4","7","39.0","7"
"USC00206184","ONAWAY 4 N, MI US","45.4108","-84.2233","227.1","2019",,,"      132",,"        36","7",,,"23"," ,7,0311,+","6.8"," ,7,0123, ","1.67"," ,7,0610, ",,,,,"38.31"," ,7","95.8"," ,7",,,,,,
"USC00204320","KENT CITY 2 SW, MI US","43.1994","-85.7717","256.0","2019",,,,,,,,,,,,,,,,,,,,,,,,,,,,
"USC00202382","EAST JORDAN 2 NW, MI US","45.1863","-85.1477","196.9","2019","242",,"      147",,"        52","7","-17","7,0122,+","29"," ,7,0311, ","8.5"," ,7,1231, ","1.42"," ,7,0625, ","91","7,0711, ","8822","1","44.12"," ,7","157.0"," ,7","41.2","7","50.4","7","32.0","7"
"USC00205892","NILES, MI US","41.8405","-86.2658","198.1","2019","810",,"       38",,"        15","7","-19","7,0131, ","12"," ,7,0129, ","7.5"," ,7,0128, ","1.81"," ,7,1003, ","92","7,0711, ","5989","3","49.78"," ,7","45.4"," ,7","51.0","7","60.3","7","41.7","7"
"USC00207275","ST. IGNACE, MI US","45.8608","-84.7196","201.5","2019","135",,"      137",,"        41","7","-21","7,0128, ","27"," ,7,0216, ","8.0"," ,7,1202,+","1.44"," ,7,1014, ","84","7,0704, ","9081","0","39.39"," ,7","118.4"," ,7","40.4","7","48.4","7","32.4","7"
"USR0000MMIO","MIO MICHIGAN, MI US","44.6761","-84.1283","320.0","2019","230",,,,,,"-29","U,0126, ",,,,,,,"92","U,0719, ","8508","5",,,,,"41.7","U","53.1","U","30.4","U"
"USW00004839","HOLLAND TULIP CITY AIRPORT, MI US","42.74611","-86.09667","210.0","2019","679",,,,,,"-13","W,0121, ",,,,,"2.48"," ,W,0922, ","92","W,0719, ","6620","8","42.84"," ,W",,,"48.7","W","56.7","W","40.8","W"
"US1MIMQ0019","ISHPEMING 7.2 SW, MI US","46.4055","-87.7567","445.9","2019",,,"      167",,"        42","N",,,"55"," ,N,0225, ","18.0"," ,N,0213, ","2.14"," ,N,1001, ",,,,,"43.87"," ,N","181.7"," ,N",,,,,,
"US1MIMQ0018","MARQUETTE 0.7 SSW, MI US","46.5409780293703","-87.4019466340542","221.6","2019",,,,,,,,,,,,,"1.96"," ,N,1001, ",,,,,"42.15"," ,N",,,,,,,,
"USC00203477","GROSSE POINTE FARMS, MI US","42.4077","-82.8891","186.8","2019",,,"       39",,"        11","7",,,"9"," ,7,1112, ","9.5"," ,7,1112, ","2.13"," ,7,0501, ","96","7,0721, ",,,"37.22"," ,7","28.9"," ,7",,,"56.5","7",,
"USR0000MBRR","BEAR MICHIGAN, MI US","44.8019","-86.0508","289.9","2019","255",,,,,,"-4","U,0121, ",,,,,,,"89","U,0710, ","7764","1",,,,,"44.3","U","52.5","U","36.1","U"
"USC00205533","MIO WWTP, MI US","44.6466","-84.1158","316.1","2019","298",,"      145",,"        34","7","-25","7,0127, ","20"," ,7,0306,+","7.5"," ,7,0129, ","1.60"," ,7,0613, ","91","7,0720, ","8326","6","38.86"," ,7","85.7"," ,7","42.8","7","53.7","7","31.9","7"
"USC00200089","ALBERTA FORD FOR CENTER, MI US","46.6448","-88.4812","399.3","2019","233",,"      158",,"        52","7","-33","7,0226,+","45"," ,7,0225, ","31.0"," ,7,0225, ",,,"89","7,0704, ",,,"40.11"," ,7","203.0"," ,7","38.4","7","48.1","7","28.6","7"
"USC00201178","CADILLAC 9 AND 10 NEWS, MI US","44.21138","-85.40865","415.4","2019","242",,"      126",,"        40","7","-14","7,0126, ","25"," ,7,0131, ","11.3"," ,7,0129, ","1.86"," ,7,0923, ","86","7,0721,+","8302","4","45.65"," ,7","114.6"," ,7","42.9","7","52.1","7","33.6","7"
"USC00201299","CARO WWTP, MI US","43.4838","-83.3919","210.3","2019","490",,"       50",,"        14","7","-16","7,0202,+","8"," ,7,1112,+","7.0"," ,7,1112, ","2.55"," ,7,1002, ","95","7,0720, ","7421","9","41.34"," ,7","43.0"," ,7","46.2","7","55.7","7","36.7","7"
"USC00206507","PETOSKEY, MI US","45.3725","-84.9766","182.6","2019","217",,,,"        47","7","-13","7,0304,+",,,"10.0"," ,7,0213, ","1.16"," ,7,1230,+","89","7,0711, ","8230","1","40.87"," ,7","145.1"," ,7","42.3","7","49.6","7","34.9","7"
"USC00208249","TRAVERSE CITY MUNSON, MI US","44.7607","-85.6443","193.5","2019","318",,"      122",,"        44","7","-8","7,0123,+","24"," ,7,0307,+","11.0"," ,7,0225, ","1.81"," ,7,0912, ","91","7,0711,+","8021","1","47.70"," ,7","134.8"," ,7","43.3","7","52.5","7","34.2","7"
"USC00208800","WEST BRANCH 3 SE, MI US","44.2541","-84.2011","269.7","2019","282",,"      106",,"        25","7","-23","7,0201,+","21"," ,7,0302, ","11.0"," ,7,0129, ","1.76"," ,7,0724, ","92","7,0720, ","8359","8","45.97"," ,7","88.6"," ,7","42.8","7","53.0","7","32.5","7"
"USC00206510","PETOSKEY NCMC, MI US","45.3613","-84.9512","228.0","2019","250",,"      128",,"        45","7","-19","7,0306,+","24"," ,7,0215,+","8.2"," ,7,1231, ","1.51"," ,7,0625, ","91","7,0711, ","8719","0","43.31"," ,7","159.3"," ,7","41.5","7","50.0","7","32.9","7"
"USC00200094","ALBION, MI US","42.24941","-84.7732","285.0","2019",,,,,,,,,,,,,,,,,,,,,,,,,,,,
"USC00205662","CENTRAL MICHIGAN UNIVERSITY, MI US","43.5859","-84.7694","242.3","2019","502",,,,,,"-10","7,0201, ",,,,,"3.50"," ,7,1002, ","91","7,0728,+","7305","6","45.71"," ,7",,,"46.7","7","55.6","7","37.7","7"
"USC00207280","SAINT JOHNS, MI US","43.0113","-84.5541","226.5","2019",,,,,,,,,,,,,"2.30"," ,7,1230, ",,,,,"41.90"," ,7",,,,,,,,
"US1MICS0005","NILES 3.5 E, MI US","41.840575709939","-86.1795915663242","233.5","2019",,,,,,,,,,,,,,,,,,,"47.85"," ,N",,,,,,,,
"USC00206839","RAPID RIVER 1 SW, MI US","45.91513","-86.98793","185.9","2019",,,,,,,,,,,,,,,,,,,,,,,,,,,,
"US1MIMD0010","MIDLAND 1.5 NNE, MI US","43.644126","-84.217296","199.0","2019",,,,,,,,,,,,,"2.84"," ,N,1002, ",,,,,"45.64"," ,N",,,,,,,,
"USW00094860","GRAND RAPIDS GERALD R FORD INTERNATIONAL AIRPORT, MI US","42.8825","-85.52389","244.8","2019","716",,"       68",,"        25","W","-10","W,0131, ","14"," ,W,0130, ","5.5"," ,W,1111, ","2.56"," ,W,0922, ","92","W,0720, ","6766","0","51.42"," ,W","84.9"," ,W","48.5","W","56.9","W","40.1","W"
"USC00204655","LAPEER WWTP, MI US","43.0608","-83.3074","249.9","2019","578",,"       47",,"         9","7","-12","7,0131, ","10"," ,7,0130,+","8.0"," ,7,0129, ","2.23"," ,7,1002, ","94","7,0721, ","7158","5","35.64"," ,7","38.0"," ,7","47.2","7","56.8","7","37.6","7"
"USC00202598","ENGADINE MDOT, MI US","46.128","-85.5696","208.8","2019","162",,,,,,"-28","7,0202,+",,,,,,,"93","7,0722,+","9267","1","43.87"," ,7",,,"39.5","7","50.1","7","29.0","7"
"USC00204659","LAPEER 2 W, MI US","43.058","-83.3605","255.1","2019","567",,"       72",,"        22","7","-14","7,0131, ","10"," ,7,0201,+","8.1"," ,7,1112, ","2.03"," ,7,1002, ","92","7,0721, ","6913","4","41.98"," ,7","65.0"," ,7","47.6","7","56.8","7","38.5","7"
"US1MIWY0125","CANTON 2.7 N, MI US","42.347327","-83.472867","210.6","2019",,,,,,,,,,,,,,,,,,,"35.49"," ,N",,,,,,,,
"USC00205073","MANISTIQUE WWTP, MI US","45.9512","-86.2513","182.9","2019","90",,"      147",,"        35","7","-19","7,0202,+","41"," ,7,0312,+","16.0"," ,7,0108, ","2.09"," ,7,0702, ","85","7,0630, ","9175","4","49.83"," ,7","130.7"," ,7","39.8","7","47.2","7","32.4","7"
"USC00206840","RAPID RIVER 4 SSE, MI US","45.8727","-86.9496","182.3","2019",,,,,,,,,,,,,,,,,,,,,,,,,,,,
"USR0000MBAL","BALDWIN MICHIGAN, MI US","43.8933","-85.8506","253.6","2019",,,,,,,,,,,,,,,"93","U,0719, ",,,,,,,,,"54.6","U",,
"USW00054854","GAYLORD 9 SSW, MI US","44.908","-84.7203","445.3","2019","177",,,,,,"-14","R,0121, ",,,,,"2.02"," ,R,0922, ","87","R,0710, ","8779","5","52.32"," ,R",,,"41.1","R","49.5","R","32.8","R"
"USW00004854","GAYLORD OTSEGO CO AIRPORT, MI US","45.01333","-84.70139","406.9","2019","189",,,,,,"-25","W,0121, ",,,,,"1.93"," ,W,0922, ","90","W,0710, ","8973","3","34.99"," ,W",,,"40.5","W","49.6","W","31.4","W"
"USW00094850","MARQUETTE WEATHER SERVICE OFFICE AIRPORT, MI US","46.5313","-87.5491","431.3","2019","182",,"      169",,"        50","W","-26","W,0128,+","53"," ,W,0224, ","16.5"," ,W,0212, ","3.02"," ,W,1127, ","88","W,0710, ","10089","8","49.78"," ,W","227.5"," ,W","37.9","W","46.9","W","28.8","W"
"US1MIMD0008","MIDLAND 2.9 SW, MI US","43.5934143066406","-84.2682266235352","193.2","2019",,,,,,,,,,,,,,,,,,,"45.94"," ,N",,,,,,,,
"US1MIKN0093","GRANDVILLE 0.6 SSW, MI US","42.89531","-85.76006","192.0","2019",,,,,,,,,,,,,"2.18"," ,N,0923, ",,,,,"47.23"," ,N",,,,,,,,
"USC00200864","BLOOMINGDALE, MI US","42.3838","-85.9626","224.3","2019","627",,,,"        23","7","-15","7,0121, ",,,"10.6"," ,7,0129, ","1.79"," ,7,0928, ","95","7,0721, ",,,"47.52"," ,7","95.5"," ,7","48.0","7","57.7","7","38.3","7"
"USC00204425","K.I. SAWYER WWTP, MI US","46.3341","-87.3779","340.2","2019","266",,"      156",,"        31","7","-22","7,0202,+","44"," ,7,0218, ","10.0"," ,7,1201,+","1.85"," ,7,1016, ","91","7,0704, ","9126","1","42.32"," ,7","124.2"," ,7","40.5","7","49.7","7","31.3","7"
"USC00207812","STAMBAUGH 2 SSE, MI US","46.0555","-88.6275","442.0","2019","123",,"      143",,"        30","7","-34","7,0127,+","38"," ,7,0227, ","8.0"," ,7,0213, ","1.66"," ,7,0903, ","89","7,0720,+","10393","8","39.08"," ,7","96.5"," ,7","36.6","7","48.4","7","24.9","7"
"USW00094849","ALPENA CO REGIONAL AIRPORT, MI US","45.0716","-83.5644","208.5","2019","290",,"      127",,"        24","W","-25","W,0126, ","23"," ,W,0129, ","11.8"," ,W,0128, ","1.79"," ,W,1127, ","95","W,0719, ","8352","9","36.59"," ,W","99.1"," ,W","42.7","W","52.7","W","32.7","W"
"US1MILL0001","NORTHPORT 5.0 SSW, MI US","45.061489","-85.648567","273.7","2019",,,,,,,,,,,,,"1.51"," ,N,0525, ",,,,,"45.14"," ,N",,,,,,,,
"USC00204793","LINDEN WWTP, MI US","42.8133","-83.8038","263.0","2019","488",,,,,,"-13","7,0201,+",,,,,"1.50"," ,7,1003,+","91","7,0721, ","7131","9","39.75"," ,7",,,"46.6","7","55.8","7","37.3","7"
"USC00202250","DOWAGIAC 1 W, MI US","41.9856","-86.132","225.6","2019","539",,"       49",,"        18","7","-19","7,0201,+","16"," ,7,0201,+","6.0"," ,7,1231,+","1.90"," ,7,0620, ","91","7,0721,+","6911","4","47.43"," ,7","47.6"," ,7","47.7","7","57.0","7","38.3","7"
"US1MIIS0005","SHEPHERD 3.7 SSE, MI US","43.47427","-84.66728","238.4","2019",,,,,,,,,,,,,"2.75"," ,N,1002, ",,,,,"43.37"," ,N",,,,,,,,
"USW00094847","DETROIT METRO AIRPORT, MI US","42.2313","-83.3308","192.3","2019","904",,"       41",,"        11","W","-14","W,0131, ","9"," ,W,1112, ","8.5"," ,W,1111, ","2.10"," ,W,0430, ","97","W,0720, ","6237","3","36.45"," ,W","36.4"," ,W","50.5","W","59.0","W","42.0","W"
"US1MIWS0042","ANN ARBOR 4.5 W, MI US","42.27814","-83.818844","278.6","2019",,,,,,,,,,,,,"1.34"," ,N,0613, ",,,,,"38.09"," ,N",,,,,,,,
"USC00206658","PONTIAC WWTP, MI US","42.6388","-83.2555","271.3","2019","760",,"       46",,"        11","7","-13","7,0201,+","8"," ,7,1112, ","7.2"," ,7,1112, ","1.58"," ,7,0813, ","95","7,0721, ","6897","7","44.84"," ,7","32.8"," ,7","48.6","7","57.6","7","39.6","7"
"USC00202851","FLINT 7 W, MI US","43.0377","-83.7694","207.0","2019","468",,"       64",,"        18","7","-13","7,0131, ","9"," ,7,0129, ","7.8"," ,7,1112, ","2.10"," ,7,0818, ","91","7,0720, ","7290","1","42.19"," ,7","54.8"," ,7","46.3","7","55.4","7","37.3","7"
"USC00205567","MONTAGUE 4 NW, MI US","43.4614","-86.4175","198.1","2019","382",,"       74",,"        28","7","-14","7,0121, ","12"," ,7,0130, ","5.2"," ,7,0212, ",,,"88","7,0719, ","7331","6",,,"74.3"," ,7","46.1","7","54.4","7","37.8","7"
"USC00200552","BATTLE CREEK 5 NW, MI US","42.3678","-85.2634","281.3","2019","653",,"       42",,"        21","7","-18","7,0131, ","10"," ,7,0131,+","7.5"," ,7,0119, ","2.54"," ,7,0620, ","94","7,0720, ",,,"45.52"," ,7","68.1"," ,7","49.1","7","59.0","7","39.3","7"
"USC00203025","FREMONT 4 WSW, MI US","43.4458","-86.0265","243.8","2019","429",,,,,,"-12","7,0122, ",,,,,"3.98"," ,7,1002, ","91","7,0720, ","7618","3","48.85"," ,7",,,"45.3","7","54.3","7","36.3","7"
"USC00201522","CHESANING, MI US","43.1936","-84.1113","189.0","2019",,,,,,,,,,,,,"3.18"," ,7,1002, ",,,,,"41.41"," ,7",,,,,,,,
"US1MIAG0006","MUNISING 11.1 SSW, MI US","46.278055","-86.75747","264.3","2019",,,,,,,,,,,,,"1.68"," ,N,1012, ",,,,,"49.90"," ,N",,,,,,,,
"USC00203823","HILLSDALE, MI US","41.9352","-84.6411","329.2","2019","629",,"       42",,"        15","7","-18","7,0131, ","8"," ,7,0130,+","6.0"," ,7,0129, ","2.74"," ,7,1003, ","93","7,0721, ","6982","7","51.45"," ,7","37.7"," ,7","47.7","7","57.1","7","38.3","7"
"US1MIOW0002","HOLLAND 3.9 NNE, MI US","42.822957","-86.06784","188.1","2019",,,"       71",,"        35","N",,,"19"," ,N,0131, ","9.0"," ,N,1113, ","1.70"," ,N,0923, ",,,,,"50.28"," ,N","103.1"," ,N",,,,,,
"USC00206300","OWOSSO WWTP, MI US","43.0161","-84.18","222.5","2019","558",,"       58",,"        13","7","-13","7,0201,+","10"," ,7,0202,+","5.0"," ,7,1112, ","2.71"," ,7,0610, ","93","7,0721,+","7187","9","42.84"," ,7","37.5"," ,7","47.1","7","56.3","7","37.8","7"
"USC00203391","GRAYLING, MI US","44.6546","-84.6998","346.6","2019","258",,"      132",,"        47","7","-33","7,0125, ","22"," ,7,0309,+","6.0"," ,7,1202,+","1.46"," ,7,1230, ","92","7,0710, ",,,"38.33"," ,7","112.4"," ,7","41.1","7","52.0","7","30.2","7"
"USC00208043","TAHQUAMENON FALLS STATE PARK, MI US","46.6013","-85.2238","227.1","2019","103",,"      178",,"        58","7","-22","7,0128, ","42"," ,7,0309,+","9.0"," ,7,1113,+","2.02"," ,7,0605, ","88","7,0705, ","9965","3","53.58"," ,7","225.6"," ,7","37.6","7","47.8","7","27.4","7"
"US1MILV0026","FENTON 6.2 WSW, MI US","42.768322","-83.829286","267.3","2019",,,,,,,,,,,,,"2.12"," ,N,0720, ",,,,,"39.34"," ,N",,,,,,,,
"USC00205451","MILAN WWTP, MI US","42.0811","-83.6769","207.3","2019",,,,,,,,,,,,,"2.40"," ,7,0501, ",,,"6566","9","46.37"," ,7",,,,,,,,
"USC00207070","ROCKFORD, MI US","43.1158","-85.5642","218.2","2019",,,,,,,,,,,,,,,,,,,,,,,,,,,,
"US1MIMB0033","ROSEVILLE 1.7 ENE, MI US","42.5147724151611","-82.9042267799377","180.4","2019",,,,,,,,,,,,,"2.58"," ,N,0813, ",,,,,"37.63"," ,N",,,,,,,,
"USC00204808","LEXINGTON WATER PLANT, MI US","43.263","-82.5327","189.6","2019","415",,,,,,"-11","7,0201,+",,,,,"2.91"," ,7,0525, ","95","7,0721, ","7100","7","37.72"," ,7",,,"45.9","7","54.2","7","37.6","7"
"USC00203278","GOODRICH, MI US","42.9163","-83.5097","277.4","2019","551",,"       51",,"        11","7","-14","7,0131, ","7"," ,7,1112, ","6.8"," ,7,1112, ","1.49"," ,7,1002, ","92","7,0721, ","7209","3","34.89"," ,7","37.8"," ,7","47.0","7","56.3","7","37.8","7"
"USC00201896","CROSS VILLAGE 1 E, MI US","45.6413","-85.0141","219.8","2019",,,"      121",,,,,,"25"," ,7,0311,+",,,,,,,"8103","7","38.83"," ,7",,,,,,,,
"USC00202984","FRANKFORT 2 NE, MI US","44.64822","-86.20986","289.0","2019",,,,,,,,,,,,,,,,,,,,,,,,,,,,
"USC00204130","ISHPEMING WWTP, MI US","46.4911","-87.6894","428.5","2019",,,,,,,,,,,,,"1.85"," ,7,0930, ","89","7,0720,+",,,"42.13"," ,7",,,,,"48.1","7",,
"USC00208972","WHITMORE LAKE 1 NW, MI US","42.4355","-83.783","276.1","2019","425",,,,,,"-20","7,0201, ",,,,,"2.47"," ,7,0912, ","91","7,0721, ","7007","0","45.30"," ,7",,,"46.5","7","56.3","7","36.7","7"
"USC00201780","COPPER HARBOR FORT WILKINS, MI US","47.4679","-87.8671","190.5","2019",,,,,,,,,,,,,,,,,,,,,,,,,,,,
"US1MIVB0002","GRAND JUNCTION 1.3 ENE, MI US","42.40925586","-86.04813018","202.7","2019",,,,,,,,,,,,,,,,,,,"44.09"," ,N",,,,,,,,
"US1MIVB0004","PAW PAW 3.6 NNE, MI US","42.265824","-85.861936","216.1","2019",,,,,,,,,,,,,"2.25"," ,N,0620, ",,,,,"47.44"," ,N",,,,,,,,
"USC00200417","BAD AXE, MI US","43.808","-82.9938","217.9","2019",,,"       58",,"        15","7",,,"11"," ,7,1112, ","10.8"," ,7,1112, ","1.06"," ,7,0923, ","93","7,0720, ","7483","2","33.67"," ,7","47.1"," ,7",,,"53.8","7",,
"USC00200779","BIG RAPIDS WATER TREATMENT PLANT, MI US","43.7072","-85.4819","273.7","2019","299",,,,"        21","7","-22","7,0127, ",,,"9.0"," ,7,0129, ","3.20"," ,7,1002, ","93","7,0720, ","8073","2","48.62"," ,7","64.0"," ,7","43.6","7","53.7","7","33.5","7"
"US1MIMQ0024","WOBIC 0.5 ESE, MI US","46.498396","-87.940723","491.0","2019",,,,,,,,,,,,,"1.71"," ,N,0519, ",,,,,"39.78"," ,N",,,,,,,,
"USC00200770","BIG BAY 1 NW, MI US","46.8325","-87.7504","233.2","2019","230",,"      172",,"        55","7","-15","7,0201, ","53"," ,7,0225, ","16.3"," ,7,0224, ","1.48"," ,7,0224, ","89","7,0705, ","9422","4","43.11"," ,7","204.8"," ,7","39.9","7","48.1","7","31.7","7"
"USC00201502","CHELSEA, MI US","42.3263","-84.0133","274.3","2019","666",,"       35",,"        13","7","-12","7,0201, ","9"," ,7,1112, ","6.4"," ,7,1112, ","1.57"," ,7,0928, ","93","7,0721, ","6791","6","39.72"," ,7","38.4"," ,7","48.3","7","57.6","7","39.1","7"
"USW00094815","KALAMAZOO BATTLE CREEK INTERNATIONAL AIRPORT, MI US","42.23472","-85.55194","264.6","2019","846",,,,,,"-18","W,0131, ",,,,,"1.89"," ,W,0620, ","95","W,0720, ","6535","4","37.90"," ,W",,,"49.6","W","58.6","W","40.6","W"
"USC00208941","WHITE LAKE 4 E, MI US","42.698","-83.4716","321.0","2019","380",,"       54",,"        11","7","-18","7,0131, ","9"," ,7,1111, ","9.3"," ,7,1111, ","1.87"," ,7,0911, ","91","7,0720,+","7693","1","41.12"," ,7","48.3"," ,7","45.1","7","54.8","7","35.5","7"
"USW00094817","PONTIAC OAKLAND CO INTERNATIONAL AIRPORT, MI US","42.665","-83.41806","297.5","2019","656",,,,,,"-14","W,0131,+",,,,,"1.14"," ,W,0911, ","94","W,0720, ","6929","4","34.63"," ,W",,,"48.0","W","56.6","W","39.4","W"
"US1MIOK0094","FARMINGTON HILLS 1.4 N, MI US","42.5066","-83.3791","267.6","2019",,,,,,,,,,,,,"2.09"," ,N,0717, ",,,,,"43.36"," ,N",,,,,,,,
"USC00209110","WYANDOTTE, MI US","42.20852","-83.16269","176.8","2019",,,"       46",,"        10","7",,,"8"," ,7,1112, ","8.1"," ,7,1112, ","1.65"," ,7,0805, ",,,,,"38.60"," ,7","37.2"," ,7",,,,,,
"US1MIME0010","MECOSTA 4.6 SSW, MI US","43.562697","-85.280632","297.2","2019",,,,,,,,,,,,,"3.37"," ,N,1002, ",,,,,"44.70"," ,N",,,,,,,,
"USW00094814","HOUGHTON LAKE ROSCOMMON CO AIRPORT, MI US","44.3591","-84.6738","350.8","2019","263",,"      110",,"        27","W","-23","W,0126, ","17"," ,W,0302,+","9.2"," ,W,0128, ","1.48"," ,W,1230, ","90","W,0719, ","8346","6","38.10"," ,W","89.1"," ,W","42.5","W","52.3","W","32.8","W"
"USW00054810","CHATHAM 1 SE, MI US","46.3345","-86.92","266.7","2019","146",,,,,,"-30","R,0201, ",,,,,"1.86"," ,R,0519, ","89","R,0719, ","9704","3","46.47"," ,R",,,"38.7","R","48.3","R","29.0","R"
"US1MIMB0054","UTICA 2.9 E, MI US","42.635189","-82.965289","183.5","2019",,,,,,,,,,,,,"3.32"," ,N,0813, ",,,,,"37.82"," ,N",,,,,,,,
"USC00204105","IRONWOOD NUMBER 2, MI US","46.46521","-90.13827","463.3","2019","169",,"      157",,"        49","7","-27","7,0201,+","38"," ,7,1215, ","16.3"," ,7,1201, ","1.80"," ,7,1201, ","88","7,0716, ",,,"43.58"," ,7","208.8"," ,7","38.3","7","48.2","7","28.4","7"
"USC00204104","IRONWOOD, MI US","46.4656","-90.1892","435.9","2019","212",,"      150",,"        51","7","-28","7,0201,+","33"," ,7,0302,+","13.8"," ,7,1231, ","1.82"," ,7,1201, ","88","7,0716, ","9988","2","45.15"," ,7","218.0"," ,7","38.1","7","47.1","7","29.0","7"
"USC00208706","WATTON 2 WSW, MI US","46.52664","-88.64243","424.9","2019","197",,"      165",,"        45","7","-27","7,0201, ","41"," ,7,0227,+","10.2"," ,7,0224, ","2.58"," ,7,0705, ","88","7,0704, ",,,"42.12"," ,7","158.8"," ,7","38.4","7","48.5","7","28.3","7"
"USC00203932","HOUGHTON LAKE 6 WSW, MI US","44.3119","-84.8922","345.9","2019",,,"      116",,"        35","7",,,"17"," ,7,0228,+","9.5"," ,7,0129, ",,,,,,,,,"95.1"," ,7",,,,,,
"USC00202170","DOLLAR BAY, MI US","47.1167","-88.5137","183.5","2019",,,,,,,,,,,,,,,,,,,,,,,,,,,,
"US1MIOK0085","TROY 1.8 S, MI US","42.5543327331543","-83.1391754150391","203.3","2019",,,,,,,,,,,,,"1.97"," ,N,0705, ",,,,,"39.91"," ,N",,,,,,,,
"USC00207188","RUDYARD 5 SE, MI US","46.19076","-84.50852","203.3","2019","85",,"      153",,"        34","7","-34","7,0127,+","35"," ,7,0215, ","14.0"," ,7,0108, ","1.62"," ,7,0609, ","91","7,0720, ","10133","3","41.56"," ,7","91.8"," ,7","37.0","7","48.1","7","25.8","7"
"USC00203628","HARRISVILLE 2 NNE, MI US","44.6819","-83.2808","178.3","2019","99",,"      119",,"        22","7","-13","7,0127, ","19"," ,7,0129, ","13.7"," ,7,0129, ","2.12"," ,7,1230, ","87","7,0720, ","8715","6","25.90"," ,7","85.8"," ,7","41.1","7","48.1","7","34.0","7"
"US1MIOD0003","LUZERNE 2.4 NE, MI US","44.6414","-84.2383","344.1","2019",,,,,,,,,,,,,"1.59"," ,N,0610, ",,,,,"35.18"," ,N",,,,,,,,
"USR0000MWDO","WINDIGO MICHIGAN, MI US","47.9117","-89.1547","213.4","2019","178",,,,,,"-24","U,0127, ",,,,,,,"89","U,0703, ","9480","8",,,,,"39.3","U","46.4","U","32.2","U"
"USW00014804","MOUNT CLEMENS ANG BASE, MI US","42.6083","-82.8183","176.8","2019","675",,"       27",,"         9","7","-12","7,0131,+","6"," ,7,0129,+","5.3"," ,7,1111, ","1.93"," ,7,0820, ","97","7,0720, ","6716","9","38.67"," ,7","33.8"," ,7","48.6","7","57.2","7","39.9","7"
"USC00200230","ANN ARBOR U OF MICH, MI US","42.29806","-83.66388","247.8","2019","630",,"       51",,"        13","7","-18","7,0131, ","10"," ,7,1112, ","9.3"," ,7,1111, ","1.75"," ,7,0610, ","94","7,0720, ","6670","7","45.48"," ,7","59.5"," ,7","48.6","7","58.8","7","38.4","7"
"USC00205488","MILLINGTON 3 SE, MI US","43.2836","-83.4791","249.9","2019",,,"       48",,"        14","7",,,"7"," ,7,1112, ","5.7"," ,7,0128, ","3.82"," ,7,0525, ",,,,,"41.63"," ,7","47.2"," ,7",,,,,,
"US1MIOW0044","HOLLAND 3.0 W, MI US","42.7706909179688","-86.1620559692383","189.6","2019",,,,,,,,,,,,,"1.47"," ,N,0721, ",,,,,"43.78"," ,N",,,,,,,,
"USC00203744","HERMAN, MI US","46.6653","-88.3772","523.3","2019","166",,"      181",,"        77","7","-25","7,0201, ","54"," ,7,0225, ","12.0"," ,7,0215, ","2.55"," ,7,0925, ","87","7,0704, ","10226","1","48.97"," ,7","242.8"," ,7","37.4","7","45.7","7","29.2","7"
"USC00204161","JACOBSVILLE, MI US","47.0083","-88.4318","198.1","2019","111",,"      162",,"        47","7","-20","7,0307,+","38"," ,7,0312,+","13.5"," ,7,1128, ","1.58"," ,7,0819, ","89","7,0716, ","9953","4","39.00"," ,7","151.5"," ,7","38.0","7","47.8","7","28.1","7"
"USC00207312","SALINE 4 SW, MI US","42.1236","-83.8199","256.0","2019","722",,,,"         9","7","-19","7,0201,+",,,"7.2"," ,7,1112, ","2.51"," ,7,0501, ","96","7,0721, ",,,"42.41"," ,7","29.6"," ,7","48.8","7","58.7","7","38.9","7"
"USC00203078","GARDEN CORNERS, MI US","45.8983","-86.5485","178.9","2019","151",,"      149",,"        30","7","-32","7,0127,+","32"," ,7,0303,+","11.9"," ,7,1202, ","2.32"," ,7,0919, ","87","7,0720, ","9260","5","47.41"," ,7","113.8"," ,7","39.5","7","50.0","7","29.0","7"
"US1MIWS0007","ANN ARBOR 3.1 SE, MI US","42.239144","-83.69582","251.5","2019",,,,,"        11","N",,,,,"6.1"," ,N,1112, ","3.35"," ,N,0717, ",,,,,"38.60"," ,N","36.0"," ,N",,,,,,
"USC00206583","PICKFORD 3 NE, MI US","46.1863","-84.3238","191.7","2019",,,,,,,,,,,,,,,,,,,,,,,,,,,,
"USW00014814","ALPENA WASTEWATER PLANT, MI US","45.0605","-83.428","179.8","2019","266",,"      104",,"        23","7","-13","7,0202, ","17"," ,7,0221, ","7.0"," ,7,0101, ","2.00"," ,7,0806, ","89","7,0806,+","8462","2","37.98"," ,7","56.8"," ,7","42.4","7","49.8","7","35.0","7"
"USC00204280","KEARSARGE, MI US","47.2752","-88.417","341.4","2019",,,,,,,,,,,,,,,,,,,,,,,,,,,,
"USC00208080","TECUMSEH, MI US","42.0027","-83.9336","237.7","2019","564",,,,,,"-19","7,0131, ",,,,,"2.60"," ,7,0501, ","97","7,0721, ","6889","1","47.61"," ,7",,,"47.7","7","59.1","7","36.2","7"
"USC00202308","DUNDEE, MI US","41.9552","-83.6488","201.2","2019","742",,,,,,"-14","7,0201,+",,,,,"1.64"," ,7,1027, ","96","7,0721, ","6581","3","41.97"," ,7",,,"49.1","7","58.3","7","40.0","7"
"USC00203639","HARVEY, MI US","46.4907","-87.3544","195.1","2019",,,,,,,,,,,,,,,,,,,"39.32"," ,7",,,,,,,,
"USC00205816","NEWBERRY CORRECTIONAL FACILITY, MI US","46.3287","-85.5033","270.1","2019",,,,,,,,,,,,,,,,,,,,,,,,,,,,
"USC00200925","BOYNE FALLS, MI US","45.1672","-84.9138","221.9","2019","528",,"      125",,"        47","7","-19","7,0121, ","25"," ,7,0311,+","9.0"," ,7,0101, ","2.25"," ,7,0922, ","94","7,0711,+","7921","5","41.15"," ,7","134.5"," ,7","44.8","7","54.6","7","35.0","7"
"US1MIKN0032","GRAND RAPIDS 2.9 NW, MI US","42.991906","-85.694373","194.2","2019",,,,,,,,,,,,,"2.82"," ,N,1002, ",,,,,"53.37"," ,N",,,,,,,,
"USW00014815","BATTLE CREEK KELLOGG AIRPORT, MI US","42.3075","-85.25111","282.9","2019","755",,,,,,"-18","W,0131, ",,,,,"1.33"," ,W,1026, ","94","W,0720, ",,,"37.61"," ,W",,,"48.9","W","57.6","W","40.2","W"
"USC00203632","HART, MI US","43.6747","-86.4238","234.7","2019",,,"       81",,"        32","7",,,"15"," ,7,0202,+","6.3"," ,7,1107, ","4.65"," ,7,1002, ",,,,,"53.33"," ,7","86.1"," ,7",,,,,,
"USW00014817","CADILLAC, MI US","44.2655","-85.3966","394.7","2019","303",,,,,,"-20","7,0126, ",,,,,"2.09"," ,7,0923, ","91","7,0720, ","8406","2","44.43"," ,7",,,"42.7","7","52.1","7","33.3","7"
"USC00202783","FIFE LAKE 2 WNW, MI US","44.5848","-85.3653","320.6","2019",,,,,,,,,,,,,,,,,,,"43.11"," ,7",,,,,,,,
"USC00204967","LUPTON 1 S, MI US","44.4199","-84.0232","276.8","2019","170",,,,,,"-26","7,0201, ",,,,,,,"92","7,0720, ","8591","8",,,,,"41.6","7","52.9","7","30.3","7"
"USC00202423","EAST TAWAS, MI US","44.2838","-83.5036","178.6","2019","341",,"       80",,"        20","7","-15","7,0201, ","14"," ,7,0130,+","12.4"," ,7,0129, ","2.02"," ,7,1230, ","92","7,0720, ","7886","1","38.12"," ,7","67.2"," ,7","44.3","7","53.6","7","34.9","7"
"USC00208774","WELLSTON 1 N, MI US","44.2294","-85.9572","235.6","2019","267",,"      131",,"        42","7","-17","7,0121, ","27"," ,7,0129, ","14.8"," ,7,0129, ","5.95"," ,7,0721, ","95","7,0720, ","8425","7","51.88"," ,7","153.6"," ,7","42.6","7","53.6","7","31.7","7"
"USR0000MDOE","DOE LAKE MICHIGAN, MI US","46.2536","-86.7142","248.4","2019","132",,,,,,"-28","U,0201, ",,,,,,,"93","U,0719, ","9727","9",,,,,"37.9","U","49.9","U","25.9","U"
"USC00206354","PARADISE, MI US","46.6038","-85.0396","191.4","2019","98",,"      169",,"        59","7","-25","7,0128, ","41"," ,7,0306,+","9.2"," ,7,1111, ","2.20"," ,7,0605, ","89","7,0721,+","9798","3","51.30"," ,7","235.0"," ,7","38.2","7","46.8","7","29.5","7"
"USW00014822","DETROIT CITY AIRPORT, MI US","42.40917","-83.01","190.8","2019","852",,,,,,"-12","W,0131,+",,,,,"1.19"," ,W,0330, ","96","W,0720, ","6446","3","31.48"," ,W",,,"50.0","W","58.2","W","41.8","W"
"USC00208772","WELLSTON TIPPY DAM, MI US","44.2586","-85.9394","198.1","2019",,,"      120",,"        36","7",,,"26"," ,7,0130, ","8.0"," ,7,0129,+","3.06"," ,7,0721, ",,,,,"44.59"," ,7","112.1"," ,7",,,,,,
"USW00014824","ESCANABA, MI US","45.7438","-87.0406","180.1","2019",,,"      125",,"        26","7",,,"26"," ,7,0228, ","16.0"," ,7,1202, ","1.67"," ,7,0919, ",,,,,"38.00"," ,7","104.8"," ,7",,,,,,
"US1MIHL0001","LITCHFIELD 0.3 ENE, MI US","42.045278","-84.753056","317.0","2019",,,,,,,,,,,,,"2.16"," ,N,0928, ",,,,,"43.74"," ,N",,,,,,,,
"USC00204258","KALKASKA 11 SE, MI US","44.5897","-85.0486","330.1","2019","134",,"      152",,"        45","7","-25","7,0122,+","24"," ,7,0227, ","10.5"," ,7,0225,+","2.08"," ,7,0716, ","88","7,0711, ","9110","9","43.40"," ,7","154.6"," ,7","39.9","7","49.9","7","30.0","7"
"USC00207407","SCOTTVILLE 2 SE, MI US","43.9331","-86.2453","203.0","2019",,,"       96",,"        27","7",,,"17"," ,7,0131,+","11.8"," ,7,1112, ",,,,,,,,,"100.0"," ,7",,,,,,
"US1MIMK0001","LAKE CITY 5.0 SSW, MI US","44.265899","-85.255264","374.3","2019",,,,,,,,,,,,,"1.61"," ,N,0610, ",,,,,"45.39"," ,N",,,,,,,,
"USC00204257","KALKASKA, MI US","44.728","-85.1727","315.5","2019","234",,"      137",,"        54","7","-22","7,0121, ","25"," ,7,0307,+","12.5"," ,7,0213, ","1.40"," ,7,0912, ","91","7,0711, ","8899","2","39.34"," ,7","161.5"," ,7","40.9","7","50.9","7","31.0","7"
"US1MIMB0009","NEW BALTIMORE 0.4 SSE, MI US","42.677025","-82.735671","175.0","2019",,,,,,,,,,,,,"1.35"," ,N,0501, ",,,,,"35.18"," ,N",,,,,,,,
"US1MIMB0007","SHELBY 0.4 SSE, MI US","42.665936","-83.028694","207.3","2019",,,,,,,,,,,,,"1.25"," ,N,1027, ",,,,,"38.97"," ,N",,,,,,,,
"USC00205591","MORAN, MI US","45.9902","-84.8361","211.8","2019","158",,"      157",,"        35","7","-24","7,0126, ","35"," ,7,0311, ","7.8"," ,7,1202, ","1.92"," ,7,1016, ","85","7,0704, ","9162","2","46.86"," ,7","120.6"," ,7","40.0","7","50.0","7","30.1","7"
"USC00206680","PORT HURON, MI US","42.975","-82.4194","179.8","2019","727",,"       34",,"         8","7","-10","7,0131,+","9"," ,7,1112, ","6.0"," ,7,1111, ","2.30"," ,7,0911, ","95","7,0720, ","6634","5","35.92"," ,7","30.8"," ,7","49.2","7","56.4","7","42.0","7"
"USC00203295","GRAND HAVEN WASTEWATER PLANT, MI US","43.0618","-86.2044","182.9","2019",,,"       52",,"        17","7",,,"10"," ,7,0131,+","5.2"," ,7,0415, ","1.95"," ,7,1002, ","88","7,0718, ",,,"44.40"," ,7","47.2"," ,7",,,"54.6","7",,
"US1MIMT0008","EDMORE 3.8 ESE, MI US","43.3797492980957","-84.9731903076172","307.2","2019",,,,,,,,,,,,,"3.48"," ,N,1002, ",,,,,"49.25"," ,N",,,,,,,,
"USC00208184","THREE RIVERS, MI US","41.9299","-85.6385","246.9","2019","611",,"       42",,"        15","7","-19","7,0201,+","7"," ,7,0128, ","4.2"," ,7,0129, ","2.88"," ,7,0928, ","92","7,0721, ","6846","2","51.85"," ,7","39.4"," ,7","47.9","7","57.0","7","38.9","7"
"US1MIKN0008","GRAND RAPIDS 3.1 NNE, MI US","43.0053","-85.641146","212.4","2019",,,,,,,,,,,,,,,,,,,"47.50"," ,N",,,,,,,,
"US1MIWS0031","DEXTER 2.2 SE, MI US","42.304488","-83.855344","285.6","2019",,,,,,,,,,,,,"1.42"," ,N,1230, ",,,,,"40.71"," ,N",,,,,,,,
"USC00200228","ANN ARBOR SE, MI US","42.2416","-83.6933","253.6","2019","631",,"       50",,"        16","7","-18","7,0131, ","9"," ,7,1112, ","8.9"," ,7,1112, ","4.08"," ,7,0717, ","94","7,0721, ","6923","1","44.91"," ,7","53.6"," ,7","47.9","7","58.3","7","37.7","7"
"USR0000MWAT","WATERSMEET MICHIGAN, MI US","46.2689","-89.17","489.2","2019","210",,,,,,"-29","U,0126, ",,,,,,,"90","U,0703, ","9481","5",,,,,"38.6","U","49.3","U","27.9","U"
"USC00200106","ALGONAC WWTP, MI US","42.6158","-82.5436","176.8","2019","627",,"       37",,"         7","7","-12","7,0131, ","7"," ,7,1113,+","7.0"," ,7,1112, ","1.79"," ,7,0912, ","96","7,0721,+","6869","1","34.33"," ,7","24.1"," ,7","47.9","7","58.2","7","37.6","7"
"USC00203858","HOLLAND, MI US","42.7988","-86.205","188.1","2019",,,,,,,,,,,,,,,,,,,,,,,,,,,,
"USC00200342","ATLANTA, MI US","45.00471","-84.14043","267.9","2019","220",,,,,,"-24","7,0126, ",,,,,,,"92","7,0720,+","8853","6","34.93"," ,7",,,"40.9","7","51.4","7","30.4","7"
"US1MIAT0006","MANCELONA 0.5 ESE, MI US","44.8998127877712","-85.0509964674711","348.4","2019",,,,,,,,,,,,,,,,,,,"44.33"," ,N",,,,,,,,
"USC00201675","COLDWATER ST SCHOOL, MI US","41.9622","-84.9925","299.9","2019","560",,"       39",,"        14","7","-29","7,0131, ","9"," ,7,0119, ","8.0"," ,7,1111, ","2.53"," ,7,0927, ","92","7,0720, ","7048","6","43.31"," ,7","32.7"," ,7","47.2","7","56.4","7","37.9","7"
"USC00204944","LOWELL, MI US","42.9291","-85.3402","195.1","2019",,,,,,,,,,,,,"1.89"," ,7,1002,+",,,,,"48.48"," ,7",,,,,,,,
"USC00201435","CLARKSBURG, MI US","46.49909","-87.84506","473.7","2019","126",,"      169",,"        43","7","-35","7,0127, ","60"," ,7,0225,+","16.5"," ,7,0213, ","2.10"," ,7,1001, ","89","7,0711,+","10296","3","40.61"," ,7","165.6"," ,7","36.4","7","48.6","7","24.3","7"
"USC00202094","DETOUR VILLAGE, MI US","45.9983","-83.9013","181.4","2019","168",,"      138",,"        33","7","-28","7,0128, ","32"," ,7,0312,+","18.0"," ,7,0108, ","2.53"," ,7,0610, ","88","7,0720, ","9252","8","37.02"," ,7","128.1"," ,7","40.0","7","47.2","7","32.8","7"
"US1MIKN0016","GRAND RAPIDS 2.5 ENE, MI US","42.9697","-85.6075","233.8","2019",,,,,,,,,,,,,"2.45"," ,N,1002, ",,,,,"50.20"," ,N",,,,,,,,
"US1MIHG0006","CALUMET 5.8 ENE, MI US","47.272","-88.334","271.3","2019",,,,,,,,,,,,,"1.45"," ,N,0509, ",,,,,"42.04"," ,N",,,,,,,,
"US1MIKN0014","GRANDVILLE 1.3 WSW, MI US","42.897161","-85.779139","186.2","2019",,,"       74",,"        31","N",,,"19"," ,N,0131, ","8.1"," ,N,0129, ","2.39"," ,N,0923, ",,,,,"56.33"," ,N","106.2"," ,N",,,,,,
"USC00203188","GLENNIE 2 SE, MI US","44.5358","-83.7022","272.5","2019","185",,"      101",,"        20","7","-26","7,0202,+","15"," ,7,0131,+","8.8"," ,7,0129, ","1.57"," ,7,1230, ","90","7,0720, ","8649","9","34.60"," ,7","59.3"," ,7","41.4","7","51.9","7","30.8","7"
"US1MIKN0011","LOWELL 1.4 ESE, MI US","42.923687","-85.322221","215.8","2019",,,,,,,,,,,,,"1.85"," ,N,0923, ",,,,,"50.25"," ,N",,,,,,,,
