"STATION","NAME","LATITUDE","LONGITUDE","ELEVATION","DATE","CDSD","CDSD_ATTRIBUTES","DSND","DSND_ATTRIBUTES","DSNW","DSNW_ATTRIBUTES","EMNT","EMNT_ATTRIBUTES","EMSD","EMSD_ATTRIBUTES","EMSN","EMSN_ATTRIBUTES","EMXP","EMXP_ATTRIBUTES","EMXT","EMXT_ATTRIBUTES","HDSD","HDSD_ATTRIBUTES","PRCP","PRCP_ATTRIBUTES","SNOW","SNOW_ATTRIBUTES","TAVG","TAVG_ATTRIBUTES","TMAX","TMAX_ATTRIBUTES","TMIN","TMIN_ATTRIBUTES"
"US1MOFSA179","ELLINGTON 5.8 SE, MO US","37.179542","-90.892519","214.9","2007",,,,,"         2","N",,,,,"1.5"," ,N,1216, ","3.54"," ,N,0927, ",,,,,"47.15"," ,N","3.1"," ,N",,,,,,
"US1MOFSA059","BUFFALO 1.0 SW, MO US","37.6322","-93.1046","359.1","2007",,,,,"         1","N",,,,,"2.0"," ,N,0201, ","3.60"," ,N,0821, ",,,,,"44.19"," ,N","2.0"," ,N",,,,,,
"US1MOFSA177","RICHMOND 0.8 ESE, MO US","39.2733","-93.9603","249.0","2007",,,,,"         1","N",,,,,"1.0"," ,N,1227, ","2.77"," ,N,0506, ",,,,,"39.38"," ,N","1.0"," ,N",,,,,,
"US1MOFSA057","GREENFIELD 0.8 SSW, MO US","37.4056","-93.846","341.1","2007",,,,,"         1","N",,,,,"1.5"," ,N,0201, ","5.61"," ,N,0820, ",,,,,"46.88"," ,N","1.5"," ,N",,,,,,
"USC00230360","AVA 6 NW, MO US","37.0091","-92.7561","381.9","2007",,,,,,,,,,,,,,,,,,,,,,,,,,,,
"USC00236468","PACIFIC, MO US","38.4858","-90.77","172.2","2007",,,"        3",,"         4","0",,,"2"," ,0,1217,+","1.0"," ,0,0215,+","2.14"," ,0,0113, ",,,,,"31.67"," ,0","3.9"," ,0",,,,,,
"USC00232302","DORA 3 SE, MO US","36.73964","-92.20856","294.4","2007",,,,,"         1","0",,,,,"2.0"," ,0,0204, ","2.51"," ,0,0701, ","104","0,0813, ",,,"33.24"," ,0","3.1"," ,0",,,"69.3","0",,
"USC00238524","UNITY VILLAGE, MO US","38.9482","-94.397","287.1","2007",,,,,"         4","0",,,,,"4.0"," ,0,0213, ","7.44"," ,0,0507, ",,,,,"43.67"," ,0","7.5"," ,0",,,,,,
"USC00238523","UNIONVILLE, MO US","40.475","-93.0031","323.1","2007","1239",,"       48",,"        18","0","-5","0,0216, ","8"," ,0,1229,+","8.3"," ,0,1223, ","3.06"," ,0,0507, ","99","0,0808,+","5740","9","42.72"," ,0","46.4"," ,0","52.1","0","62.5","0","41.7","0"
"USC00233079","FULTON, MO US","38.84838","-91.94196","234.7","2007","1471",,"       33",,"         9","0","-1","0,0217,+","5"," ,0,0218,+","4.6"," ,0,0213,+","1.40"," ,0,0425, ","104","0,0816, ","5113","7","34.37"," ,0","23.8"," ,0","54.9","0","65.9","0","43.9","0"
"US1MOFSA171","UNIONVILLE 0.8 W, MO US","40.4764","-93.0193","324.0","2007",,,,,"         0","N",,,,,"0.0"," ,N,1231,+","2.91"," ,N,0507, ",,,,,"42.43"," ,N","0.0"," ,N",,,,,,
"US1MOFSA051","JEFFERSON CITY 3.0 ESE, MO US","38.5598","-92.1376","189.0","2007",,,,,"         4","N",,,,,"4.0"," ,N,0121, ","1.80"," ,N,0926, ",,,,,"35.86"," ,N","11.1"," ,N",,,,,,
"USC00230127","ALTON, MO US","36.69184","-91.39902","247.8","2007","1530",,,,"         1","0","2","0,0201,+",,,"1.0"," ,0,1216, ","3.71"," ,0,0213, ","103","0,0816,+",,,"39.99"," ,0","1.0"," ,0","57.4","0","70.0","0","44.8","0"
"USW00003947","KANSAS CITY INTERNATIONAL AIRPORT, MO US","39.2972","-94.7306","306.3","2007","1619",,"       30",,"         8","0","-3","0,0216,+","4"," ,0,0123,+","3.6"," ,0,0120, ","2.10"," ,0,0506, ","102","0,0815, ","4761","0","33.05"," ,0","19.6"," ,0","55.6","0","65.7","0","45.5","0"
"USC00230368","AVA 12 SW, MO US","36.875","-92.852","364.8","2007",,,,,"         2","0",,,,,"2.3"," ,0,0201, ","2.94"," ,0,0701, ","102","0,0813, ",,,"36.35"," ,0","4.1"," ,0",,,"67.8","0",,
"US1MOFSA175","MOBERLY 2.5 N, MO US","39.4559","-92.4357","266.1","2007",,,,,"         2","N",,,,,"3.0"," ,N,1207,+","4.28"," ,N,0628, ",,,,,"38.70"," ,N","6.0"," ,N",,,,,,
"US1MOFSA055","STEELVILLE 10.2 SSE, MO US","37.8401","-91.2654","281.9","2007",,,,,"         0","N",,,,,"0.0"," ,N,1231,+","2.14"," ,N,0630, ",,,,,"31.17"," ,N","0.0"," ,N",,,,,,
"US1MOFSA173","NEW LONDON 0.9 SSW, MO US","39.5727","-91.4046","210.9","2007",,,,,"         0","N",,,,,"0.0"," ,N,1231,+","2.45"," ,N,0628, ",,,,,"31.20"," ,N","0.0"," ,N",,,,,,
"USC00232547","ELLINGTON, MO US","37.2333","-90.97","222.5","2007",,,"        7",,"         2","0",,,"2"," ,0,1216,+","2.0"," ,0,0201, ",,,,,,,,,"3.0"," ,0",,,,,,
"USR0000MAVA","AVA MISSOURI, MO US","36.9431","-92.65","399.6","2007","1621",,,,,,"6","U,0131, ",,,,,,,"102","U,0814,+","4183","7",,,,,"58.0","U","68.5","U","47.5","U"
"US1MOFSA053","BOONVILLE 3.7 SE, MO US","38.9341","-92.6907","207.0","2007",,,,,"         4","N",,,,,"6.0"," ,N,0121, ","2.43"," ,N,0628, ",,,,,"36.20"," ,N","12.8"," ,N",,,,,,
"USC00233999","HORNERSVILLE, MO US","36.0452","-90.1492","78.0","2007",,,"        2",,"         1","0",,,"2"," ,0,0202,+","2.3"," ,0,0201, ","3.36"," ,0,1018, ",,,,,"45.14"," ,0","2.8"," ,0",,,,,,
"US1MOFSA047","LIBERTY 9.4 NNE, MO US","39.27496","-94.248563","229.8","2007",,,,,"         1","N",,,,,"1.1"," ,N,1227, ","2.78"," ,N,0506, ",,,,,"38.24"," ,N","1.1"," ,N",,,,,,
"US1MOFSA169","RICHLAND 3.6 NNE, MO US","37.9093","-92.3738","365.2","2007",,,,,"         0","N",,,,,"0.0"," ,N,1231,+","5.00"," ,N,0821, ",,,,,"43.17"," ,N","0.0"," ,N",,,,,,
"USC00238082","STOCKTON DAM, MO US","37.6968","-93.7725","281.0","2007",,,,,"         5","0",,,,,"2.5"," ,0,0201, ",,,"102","0,0816,+",,,"48.23"," ,0","10.0"," ,0",,,"67.0","0",,
"US1MOFSA045","KAHOKA 0.6 S, MO US","40.4145","-91.7191","210.9","2007",,,,,"         0","N",,,,,"0.0"," ,N,1231,+","1.89"," ,N,0824, ",,,,,"32.52"," ,N","0.0"," ,N",,,,,,
"US1MOFSA167","BOLIVAR 1.0 ENE, MO US","37.6152","-93.3978","309.1","2007",,,,,"         2","N",,,,,"4.0"," ,N,0120, ","3.55"," ,N,0820, ",,,,,"48.87"," ,N","5.0"," ,N",,,,,,
"US1MOFSA049","PLATTSBURG 0.6 W, MO US","39.5647","-94.474","288.0","2007",,,,,"         1","N",,,,,"4.5"," ,N,1223, ","2.72"," ,N,0507, ",,,,,"40.20"," ,N","4.5"," ,N",,,,,,
"USR0000MCHI","CHILLICOTHE MISSOURI, MO US","39.7683","-93.485","237.7","2007","1480",,,,,,"-5","U,0216, ",,,,,,,"103","U,0815, ","4880","9",,,,,"54.7","U","64.8","U","44.6","U"
"USW00003945","COLUMBIA SNOW, MO US","38.8169","-92.2183","272.2","2007","1707",,"       29",,"         8","0","-1","0,0216, ","6"," ,0,0121, ","5.4"," ,0,1215, ","2.72"," ,0,0628, ","105","0,0815, ","4759","7","32.96"," ,0","21.9"," ,0","56.6","0","66.8","0","46.4","0"
"USC00235492","MEMPHIS, MO US","40.4575","-92.1822","234.7","2007","1111",,"       36",,"         9","0","-8","0,0217,+","5"," ,0,0214, ","3.5"," ,0,1216, ","2.75"," ,0,1018, ","100","0,0808, ","5619","5","39.23"," ,0","22.6"," ,0","51.8","0","63.2","0","40.5","0"
"USC00235253","MARBLE HILL, MO US","37.3036","-89.9663","118.9","2007",,,,,"         1","0",,,,,"1.5"," ,0,1216, ","2.90"," ,0,1018, ","105","0,0816, ","4021","2","45.52"," ,0","2.6"," ,0",,,"70.1","0",,
"USC00236460","OZARK BEACH, MO US","36.6745","-93.1076","254.2","2007","1412",,"        2",,"         1","0","8","0,0201,+","2"," ,0,0201, ","2.0"," ,0,0201, ","2.17"," ,0,0213, ","103","0,0816, ","4314","5","38.75"," ,0","2.0"," ,0","57.2","0","68.8","0","45.6","0"
"USC00239178","ZALMA 4 E, MO US","37.1563","-90.0105","128.0","2007",,,"        1",,"         1","0",,,"2"," ,0,1216, ","1.1"," ,0,1216, ","2.20"," ,0,0224, ",,,,,"46.69"," ,0","1.3"," ,0",,,,,,
"USC00238880","WEST PLAINS, MO US","36.72667","-91.87357","336.8","2007",,,,,"         2","0",,,,,"4.0"," ,0,0204, ","2.60"," ,0,0701, ","103","0,0812, ",,,"35.50"," ,0","5.5"," ,0",,,"69.1","0",,
"USC00238515","UNION, MO US","38.4444","-91.0041","164.6","2007","1829",,"       17",,"         6","0","0","0,0216, ","6"," ,0,1217,+","4.5"," ,0,1216, ","2.12"," ,0,0113, ","108","0,0815, ","4304","3","37.85"," ,0","18.5"," ,0","58.1","0","69.7","0","46.6","0"
"USC00234154","INDEPENDENCE, MO US","39.0647","-94.3861","300.2","2007",,,,,"         8","0",,,,,"5.3"," ,0,0121, ","6.38"," ,0,0507, ",,,,,"49.03"," ,0","23.0"," ,0",,,,,,
"USC00238754","WASOLA 5 N, MO US","36.85814","-92.58758","373.7","2007",,,,,"         0","0",,,,,"0.0"," ,0,1231,+","2.25"," ,0,0213, ",,,,,"33.69"," ,0","0.0"," ,0",,,,,,
"USC00237300","ROSEBUD, MO US","38.45093","-91.37527","222.5","2007",,,"       13",,"         5","0","-5","0,0205,+","4"," ,0,1216, ","3.4"," ,0,0121, ","1.90"," ,0,0629, ",,,,,"33.28"," ,0","15.7"," ,0",,,,,"42.3","0"
"US1MOFSA161","ROLLA 0.9 SE, MO US","37.9387","-91.7566","327.1","2007",,,,,"         0","N",,,,,"0.0"," ,N,1231,+","3.10"," ,N,0907, ",,,,,"42.16"," ,N","0.0"," ,N",,,,,,
"US1MOFSA043","OZARK 1.6 SE, MO US","37.0016","-93.1897","408.1","2007",,,,,"         1","N",,,,,"1.5"," ,N,0201, ","3.00"," ,N,0602, ",,,,,"47.83"," ,N","2.0"," ,N",,,,,,
"US1MOFSA165","PLATTE CITY 0.3 ENE, MO US","39.3633","-94.7724","285.9","2007",,,,,"         4","N",,,,,"5.8"," ,N,0121, ","2.17"," ,N,0507, ",,,,,"34.72"," ,N","18.4"," ,N",,,,,,
"US1MOFSA041","KEYTESVILLE 0.3 E, MO US","39.4322","-92.9305","209.1","2007",,,,,"         3","N",,,,,"4.0"," ,N,0213, ","3.31"," ,N,0628, ",,,,,"44.46"," ,N","9.0"," ,N",,,,,,
"US1MOFSA163","BOWLING GREEN 0.6 SE, MO US","39.3326","-91.1884","273.1","2007",,,,,"         0","N",,,,,"0.0"," ,N,1231,+","1.56"," ,N,0116, ",,,,,"28.28"," ,N","0.0"," ,N",,,,,,
"USC00237309","ROUND SPRING 2 SW, MO US","37.25979","-91.42791","252.7","2007","1296",,"        3",,"         0","0","-1","0,0201,+","1"," ,0,1216,+","0.8"," ,0,0202,+","1.91"," ,0,0414, ","107","0,0816, ",,,"36.64"," ,0","2.1"," ,0","56.0","0","70.2","0","41.8","0"
"US1MOFSA157","PERRYVILLE 1.1 NE, MO US","37.7398","-89.8603","174.0","2007",,,,,"         1","N",,,,,"1.0"," ,N,0201, ","2.05"," ,N,1210, ",,,,,"34.57"," ,N","1.0"," ,N",,,,,,
"US1MOFSA037","HARRISONVILLE 0.4 W, MO US","38.6545","-94.3569","289.0","2007",,,,,"         0","N",,,,,"0.0"," ,N,1231,+","6.60"," ,N,0507, ",,,,,"53.60"," ,N","0.0"," ,N",,,,,,
"US1MOFSA155","CARUTHERSVILLE 1.6 N, MO US","36.2022","-89.6694","86.0","2007",,,,,"         1","N",,,,,"1.0"," ,N,0201, ","2.67"," ,N,1023, ",,,,,"43.96"," ,N","1.0"," ,N",,,,,,
"USW00003975","POPLAR BLUFF MUNICIPAL AIRPORT, MO US","36.7725","-90.32472","99.7","2007","1882",,,,,,"7","W,0204, ",,,,,"2.75"," ,W,0113, ","103","W,0816, ","3921","4","46.67"," ,W",,,"59.5","W","69.9","W","49.1","W"
"US1MOFSA035","VAN BUREN 7.2 SW, MO US","36.9382","-91.1104","199.0","2007",,,,,"         0","N",,,,,"0.0"," ,N,1231,+","3.80"," ,N,0909, ",,,,,"43.81"," ,N","0.0"," ,N",,,,,,
"US1MOFSA159","SEDALIA 1.5 SSW, MO US","38.6834","-93.2433","260.9","2007",,,,,"         0","N",,,,,"0.0"," ,N,1231,+","2.03"," ,N,0628, ",,,,,"39.69"," ,N","0.0"," ,N",,,,,,
"US1MOFSA039","STOCKTON 0.2 NW, MO US","37.6984","-93.7986","291.1","2007",,,,,"         1","N",,,,,"3.0"," ,N,1216, ","3.13"," ,N,0602, ",,,,,"44.41"," ,N","3.0"," ,N",,,,,,
"USC00234271","JEFFERSON CITY WATER PLANT, MO US","38.58541","-92.18246","198.1","2007","1620",,,,"         5","0","3","0,0216, ",,,"4.3"," ,0,0121, ","1.61"," ,0,0611, ","105","0,0816, ",,,"35.27"," ,0","13.5"," ,0","56.4","0","66.6","0","46.1","0"
"USC00236452","OZARK, MO US","37.0194","-93.2338","345.6","2007",,,,,"         1","0",,,,,"1.0"," ,0,0201, ","2.78"," ,0,0602, ",,,,,"46.25"," ,0","1.0"," ,0",,,,,,
"USC00237780","SILOAM SPRINGS, MO US","36.8097","-92.0549","329.2","2007",,,,,"         0","0",,,,,"0.0"," ,0,1231,+","3.00"," ,0,0204, ",,,,,"43.28"," ,0","0.0"," ,0",,,,,,
"USR0000MATL","ATLANTA MISSOURI, MO US","39.8697","-92.5206","256.0","2007","1259",,,,,,"-8","U,0204, ",,,,,,,"99","U,0812, ","5325","1",,,,,"53.3","U","64.3","U","42.3","U"
"USC00231674","CLEARWATER DAM, MO US","37.1319","-90.7755","201.2","2007",,,,,"         0","0",,,,,"0.0","T,0,1206, ","6.00"," ,0,0927, ",,,,,"46.35"," ,0","0.0","T,0",,,,,,
"USC00238746","WASHINGTON, MO US","38.54155","-90.975","148.4","2007",,,"       19",,"         5","0",,,"5"," ,0,1216, ","4.0"," ,0,0214, ","1.77"," ,0,0113, ",,,,,"34.06"," ,0","14.8"," ,0",,,,,,
"USC00234023","HOUSTON 2 W, MO US","37.3344","-92.0058","327.7","2007",,,"        2",,"         4","0",,,"2"," ,0,0201, ","2.0"," ,0,1216,+","2.18"," ,0,0701, ",,,,,"34.35"," ,0","7.0"," ,0",,,,,,
"USC00236563","PATTONSBURG 2 S, MO US","40.0147","-94.1294","251.5","2007",,,"       34",,"         8","0",,,"5"," ,0,1231,+","5.5"," ,0,1223, ","6.09"," ,0,0507, ",,,,,"40.46"," ,0","25.7"," ,0",,,,,,
"USC00238984","WILLIAMSVILLE, MO US","36.98922","-90.59462","147.8","2007",,,"        3",,"         1","0",,,"1"," ,0,1216,+","1.0"," ,0,0204, ","4.70"," ,0,0927, ",,,,,"50.03"," ,0","2.6"," ,0",,,,,,
"USC00238620","VIENNA 2 WNW, MO US","38.2016","-91.9811","234.7","2007",,,,,"         5","0",,,,,"3.5"," ,0,0121, ","1.84"," ,0,0511, ","109","0,0816, ",,,"38.47"," ,0","11.0"," ,0",,,"70.0","0",,
"USC00234705","LAMAR 7 N, MO US","37.5984","-94.2842","293.5","2007","1703",,,,"         0","0","4","0,0117, ",,,"0.0","T,0,0217,+","5.45"," ,0,0611, ","102","0,0815, ","4126","5","63.20"," ,0","0.0","T,0","57.7","0","68.2","0","47.2","0"
"USW00013988","KANSAS CITY DOWNTOWN AIRPORT, MO US","39.1208","-94.5969","226.2","2007","1946",,,,"         8","0","1","0,0116, ",,,"3.2"," ,0,0120, ","2.70"," ,0,0506, ","103","0,0815, ","4459","1","38.80"," ,0","18.0"," ,0","57.6","0","66.9","0","48.3","0"
"USW00013987","JOPLIN REGIONAL AIRPORT, MO US","37.15221","-94.49527","296.3","2007","1872",,,,,,"5","0,0116, ",,,,,"5.20"," ,0,0908, ","103","0,0815,+","3909","7","55.56"," ,0",,,"59.1","0","69.3","0","48.9","0"
"USC00230224","ARCADIA, MO US","37.598","-90.6263","279.8","2007","1391",,"        7",,"         3","0","3","0,0201,+","2"," ,0,1216,+","2.3"," ,0,1216, ","2.06"," ,0,0414, ","105","0,0816,+","4691","3","42.31"," ,0","7.6"," ,0","56.1","0","68.3","0","44.0","0"
"US1MOFSA153","GAINESVILLE 6.2 ENE, MO US","36.6232","-92.3148","231.0","2007",,,,,"         0","N",,,,,"0.0"," ,N,1231,+","3.50"," ,N,0630, ",,,,,"34.87"," ,N","0.0"," ,N",,,,,,
"US1MOFSA033","CARROLLTON 1.0 NNE, MO US","39.3757","-93.4858","227.1","2007",,,,,"         5","N",,,,,"6.0"," ,N,0122, ","2.50"," ,N,1018, ",,,,,"36.73"," ,N","17.0"," ,N",,,,,,
"US1MOFSA151","LINN 0.8 SE, MO US","38.4729","-91.8335","276.1","2007",,,,,"         4","N",,,,,"4.0"," ,N,1216, ","1.43"," ,N,0629, ",,,,,"33.76"," ,N","12.8"," ,N",,,,,,
"US1MOLF0001","ODESSA 5.5 SSE, MO US","38.926053","-93.909752","273.1","2007",,,,,"         9","N",,,,,"4.5"," ,N,0121, ","2.98"," ,N,0629, ",,,,,"37.62"," ,N","17.5"," ,N",,,,,,
"US1MOFSA031","JACKSON 1.0 SW, MO US","37.3693","-89.6666","132.9","2007",,,,,"         2","N",,,,,"1.0"," ,N,0204,+","3.65"," ,N,1017, ",,,,,"40.68"," ,N","2.0"," ,N",,,,,,
"US1MOFSA025","KINGSTON 0.1 WNW, MO US","39.6429","-94.0396","277.1","2007",,,,,"         6","N",,,,,"4.0"," ,N,0213, ","3.50"," ,N,0506, ",,,,,"30.70"," ,N","13.6"," ,N",,,,,,
"US1MODG0003","AVA 4.5 SW, MO US","36.91541","-92.73242","388.9","2007",,,,,"         2","N",,,,,"1.5"," ,N,0201, ","2.34"," ,N,0908, ",,,,,"39.37"," ,N","3.2"," ,N",,,,,,
"US1MOFSA147","MARYVILLE 1.4 SSW, MO US","40.324","-94.879","335.0","2007",,,,,"         3","N",,,,,"2.0"," ,N,0213, ","5.00"," ,N,0506, ",,,,,"40.74"," ,N","5.3"," ,N",,,,,,
"US1MOFSA023","POPLAR BLUFF 4.2 NW, MO US","36.8053","-90.4619","150.0","2007",,,,,"         0","N",,,,,"0.0"," ,N,1231,+","3.30"," ,N,0213, ",,,,,"49.84"," ,N","0.0"," ,N",,,,,,
"US1MOFSA145","NEOSHO 3.9 WNW, MO US","36.8636","-94.4408","351.1","2007",,,,,"         1","N",,,,,"2.0"," ,N,0201, ","2.73"," ,N,0425, ",,,,,"54.77"," ,N","2.7"," ,N",,,,,,
"USW00003963","JEFFERSON CITY MEMORIAL AIRPORT, MO US","38.59111","-92.15583","174.7","2007",,,,,,,,,,,,,,,,,,,,,,,,,,,,
"US1MOFSA029","LINN CREEK 9.4 SE, MO US","37.9559","-92.5711","309.1","2007",,,,,"         0","N",,,,,"0.0"," ,N,1231,+","3.45"," ,N,0821, ",,,,,"36.71"," ,N","0.0"," ,N",,,,,,
"USW00003966","ST LOUIS SPIRIT OF ST LOUIS AIRPORT, MO US","38.65722","-90.65583","140.8","2007","1762",,,,,,"0","W,0204, ",,,,,"1.44"," ,W,0501, ","106","W,0815, ","4536","2","29.35"," ,W",,,"57.2","W","68.6","W","45.9","W"
"US1MOFSA027","FULTON 3.4 SW, MO US","38.8217","-91.9966","267.0","2007",,,,,"         3","N",,,,,"6.0"," ,N,0120, ","2.00"," ,N,1210, ",,,,,"31.52"," ,N","10.0"," ,N",,,,,,
"US1MOFSA149","ALTON 1.7 NNW, MO US","36.7176","-91.409","267.9","2007",,,,,"         0","N",,,,,"0.0"," ,N,1231,+","3.14"," ,N,0213, ",,,,,"37.10"," ,N","0.0"," ,N",,,,,,
"USC00234382","KEARNEY 3 E, MO US","39.3667","-94.3294","256.0","2007",,,"       32",,"         8","0",,,"6"," ,0,0121, ","6.0"," ,0,0121, ",,,,,,,,,"28.2"," ,0",,,,,,
"USC00238188","SUMNER 3 SW, MO US","39.6366","-93.2899","210.3","2007",,,"       42",,"         6","0",,,"6"," ,0,0218,+","4.0"," ,0,0213,+","2.75"," ,0,1018, ",,,,,"38.22"," ,0","19.6"," ,0",,,,,,
"USC00239032","WINDSOR, MO US","38.5319","-93.5241","256.0","2007",,,,,"        14","0",,,,,"6.0"," ,0,0121, ",,,,,,,,,"30.2"," ,0",,,,,,
"USC00238184","SUMMERSVILLE 3 SE, MO US","37.14002","-91.62707","376.7","2007","1332",,"        0",,"         5","0","3","0,0201,+","0"," ,0,1231,+","1.5"," ,0,0202,+","3.95"," ,0,0701, ","104","0,0813, ","4455","0","42.61"," ,0","6.5"," ,0","56.1","0","67.4","0","44.9","0"
"US1MODG0001","MOUNTAIN GROVE 14.0 S, MO US","36.93","-92.27","349.9","2007",,,,,"         3","N",,,,,"2.0"," ,N,0201, ","2.71"," ,N,0701, ",,,,,"44.28"," ,N","4.5"," ,N",,,,,,
"USC00234136","IBERIA, MO US","38.0996","-92.3096","285.9","2007",,,,,"         3","0",,,,,"2.0"," ,0,0201, ","3.26"," ,0,0926, ",,,,,"35.56"," ,0","5.6"," ,0",,,,,,
"USW00013991","MARSHALL, MO US","39.1341","-93.2225","240.8","2007","1480",,,,"         8","0","-2","0,0216, ",,,"5.2"," ,0,0121, ","3.41"," ,0,0506, ","102","0,0816, ","5094","1","40.90"," ,0","25.6"," ,0","54.7","0","64.8","0","44.6","0"
"USC00237645","SELIGMAN, MO US","36.54194","-93.93667","466.3","2007","1246",,,,,,"8","0,0216,+",,,,,,,"102","0,0816,+","4104","1",,,,,"56.5","0","68.1","0","44.9","0"
"USC00232511","ELDORADO SPRINGS, MO US","37.86403","-94.01563","278.9","2007","1846",,"        0",,"         0","0","6","0,0116, ","0"," ,0,1231,+","0.0"," ,0,1231,+","3.76"," ,0,0730, ","102","0,0815, ","3748","5","48.83"," ,0","0.0"," ,0","58.7","0","69.5","0","47.9","0"
"USC00235227","MANSFIELD, MO US","37.10861","-92.579","441.4","2007",,,,,"         2","0",,,,,"2.0"," ,0,0201, ","2.22"," ,0,0602, ",,,"4530","7","42.05"," ,0","4.3"," ,0",,,,,,
"USC00236678","PIERCE CITY, MO US","36.9494","-94.0077","374.9","2007",,,"        0",,"         0","0",,,"0"," ,0,1231,+","0.0"," ,0,1231,+","2.64"," ,0,0602, ",,,,,"50.29"," ,0","0.0"," ,0",,,,,,
"USC00233043","FREEDOM, MO US","38.4583","-91.7029","245.4","2007",,,"       21",,"         6","0",,,"4"," ,0,1217,+","4.0"," ,0,0121, ",,,"107","0,0816, ","4582","4",,,"13.1"," ,0",,,"67.1","0",,
"USW00013997","VICHY ROLLA NATIONAL AIRPORT, MO US","38.1318","-91.76461","338.3","2007","1535",,,,,,"3","0,0216, ",,,,,"2.62"," ,0,0907, ","107","0,0815, ","4695","1","33.15"," ,0",,,"56.3","0","66.7","0","46.0","0"
"US1MOFSA021","STATION JOSEPH 2.1 NE, MO US","39.783","-94.7977","301.1","2007",,,,,"         4","N",,,,,"7.0"," ,N,1222, ","4.20"," ,N,0506, ",,,,,"39.09"," ,N","17.0"," ,N",,,,,,
"US1MOFSA143","NEW MADRID 0.3 SE, MO US","36.5869","-89.5452","91.1","2007",,,,,"         1","N",,,,,"1.0"," ,N,0217, ","3.30"," ,N,1018,+",,,,,"53.29"," ,N","2.0"," ,N",,,,,,
"USC00233601","HANNIBAL WATER WORKS, MO US","39.72316","-91.37482","217.0","2007","1339",,,,,,"-5","0,0216, ",,,,,"2.13"," ,0,0629, ","100","0,0816, ","5240","3","37.06"," ,0",,,"53.8","0","63.4","0","44.2","0"
"USC00234019","HOUSTON, MO US","37.31864","-91.96282","373.1","2007",,,,,,,,,,,,,,,,,,,,,,,,,,,,
"USW00013995","SPRINGFIELD WEATHER SERVICE OFFICE AIRPORT, MO US","37.23985","-93.39007","384.7","2007","1713",,"       14",,"         3","0","3","0,0204, ","2"," ,0,0204, ","1.4"," ,0,0131, ","2.93"," ,0,0820, ","102","0,0815,+","4186","8","44.30"," ,0","5.9"," ,0","58.1","0","68.3","0","47.9","0"
"USC00231304","CAPLINGER MILLS, MO US","37.7947","-93.8019","252.1","2007",,,"        0",,"         0","0",,,"0"," ,0,1231,+","0.0"," ,0,1231,+",,,,,,,,,"0.0"," ,0",,,,,,
"USW00013994","ST LOUIS LAMBERT INTERNATIONAL AIRPORT, MO US","38.7525","-90.3736","161.8","2007","2023",,"       17",,"         4","0","5","0,0216,+","6"," ,0,1216, ","6.9"," ,0,1215, ","2.12"," ,0,0719, ","105","0,0815, ","4425","2","30.57"," ,0","16.7"," ,0","58.3","0","67.7","0","48.9","0"
"US1MOFSA141","VERSAILLES 0.2 SE, MO US","38.4311","-92.844","313.0","2007",,,,,"         0","N",,,,,"0.0"," ,N,1231,+","3.55"," ,N,0502, ",,,,,"34.15"," ,N","0.0"," ,N",,,,,,
"USW00013993","ST JOSEPH ROSECRANS MEMORIAL AIRPORT, MO US","39.7736","-94.9233","249.3","2007","1466",,,,,,"-4","X,0216,+",,,,,"4.12"," ,X,0824, ","99","X,0815, ","5253","5","36.52"," ,X",,,"53.9","X","65.2","X","42.6","X"
"US1MOFSA135","CALIFORNIA 0.3 SW, MO US","38.6277","-92.5707","271.9","2007",,,,,"         4","N",,,,,"4.5"," ,N,0120, ","3.12"," ,N,0610, ",,,,,"38.78"," ,N","10.0"," ,N",,,,,,
"USR0000MSUL","SULLIVAN MISSOURI, MO US","38.2339","-91.15","281.0","2007","1665",,,,,,"4","U,0204, ",,,,,,,"105","U,0815, ","4191","4",,,,,"57.3","U","67.4","U","47.2","U"
"US1MOFSA015","LINCOLN 0.4 NNE, MO US","38.3992","-93.3286","289.0","2007",,,,,"         2","N",,,,,"1.0"," ,N,0213,+","3.05"," ,N,0911, ",,,,,"38.68"," ,N","2.0"," ,N",,,,,,
"USC00230608","BETHANY, MO US","40.2575","-94.0269","289.3","2007",,,,,"         9","0",,,,,"5.0"," ,0,1223, ","4.48"," ,0,0507, ","98","0,0813, ",,,"45.19"," ,0","30.2"," ,0",,,"62.6","0",,
"USW00003994","SEDALIA MEMORIAL AIRPORT, MO US","38.70417","-93.18333","274.3","2007","1655",,,,,,"3","W,0116, ",,,,,"2.23"," ,W,0610, ","101","W,0815,+","4518","8","27.57"," ,W",,,"56.7","W","66.3","W","47.2","W"
"US1MOFSA133","ANNISTON 1.9 WNW, MO US","36.836","-89.3567","93.9","2007",,,,,"         1","N",,,,,"1.5"," ,N,0204, ","3.77"," ,N,1024, ",,,,,"54.52"," ,N","2.1"," ,N",,,,,,
"US1MOFSA013","BUTLER 0.8 SSW, MO US","38.2491","-94.3466","256.9","2007",,,,,"         4","N",,,,,"7.0"," ,N,0121, ","4.07"," ,N,0507, ",,,,,"52.16"," ,N","17.4"," ,N",,,,,,
"US1MOFSA139","MONTGOMERY CITY 0.8 SE, MO US","38.9658","-91.4962","259.1","2007",,,,,"         0","N",,,,,"0.0"," ,N,1231,+","1.76"," ,N,0225, ",,,,,"31.60"," ,N","0.0"," ,N",,,,,,
"US1MOFSA019","COLUMBIA 1.3 NW, MO US","38.9669","-92.3443","232.0","2007",,,,,"         0","N",,,,,"0.0"," ,N,1231,+","2.39"," ,N,0628, ",,,,,"37.95"," ,N","0.0"," ,N",,,,,,
"US1MOFSA137","PARIS 0.7 S, MO US","39.4675","-92.0023","218.8","2007",,,,,"         1","N",,,,,"3.0"," ,N,1222, ","2.12"," ,N,0628, ",,,,,"32.74"," ,N","3.0"," ,N",,,,,,
"US1MOFSA017","MARBLE HILL 0.4 NE, MO US","37.3057","-89.9744","141.1","2007",,,,,"         0","N",,,,,"0.0"," ,N,1231,+","2.85"," ,N,1018, ",,,,,"44.10"," ,N","0.0"," ,N",,,,,,
"USC00232591","ELSBERRY 1 S, MO US","39.1559","-90.78309","144.8","2007","1659",,"       23",,"         5","0","-5","0,0216, ","6"," ,0,1217,+","4.0"," ,0,1216,+","1.78"," ,0,0628, ","102","0,0816,+","4560","1","28.26"," ,0","17.4"," ,0","56.7","0","68.1","0","45.3","0"
"USC00230164","ANDERSON, MO US","36.65194","-94.43861","320.0","2007",,,,,"         3","0","5","0,0216, ",,,"3.0"," ,0,0201, ","3.52"," ,0,0825, ","103","0,0814, ","4014","9","42.41"," ,0","6.9"," ,0","58.0","0","68.5","0","47.6","0"
"USC00235976","NEOSHO, MO US","36.86489","-94.36036","314.9","2007",,,,,"         0","0",,,,,"0.0"," ,0,1231,+","2.63"," ,0,1009, ",,,"4203","3","54.80"," ,0","0.0"," ,0",,,,,,
"USC00232220","DE SOTO, MO US","38.13988","-90.50645","222.8","2007",,,"        7",,"         2","0",,,"4"," ,0,1216, ","3.0"," ,0,1216, ","1.63"," ,0,0526, ",,,,,"31.87"," ,0","6.5"," ,0",,,,,,
"USC00233793","HERMANN, MO US","38.70143","-91.43123","156.7","2007",,,"        3",,"         0","0",,,"4"," ,0,1216, ","0.0"," ,0,1231,+","1.73"," ,0,0502, ",,,,,"30.31"," ,0","0.0"," ,0",,,,,,
"USC00238444","TRENTON, MO US","40.0824","-93.6086","255.1","2007","1455",,,,"        10","0","-4","0,0217, ",,,"5.3"," ,0,0214, ","3.90"," ,0,0506, ","102","0,0815, ","5442","2","34.76"," ,0","30.5"," ,0","53.5","0","65.0","0","42.0","0"
"US1MOTY0001","BRANSON 3.8 E, MO US","36.636277","-93.177984","312.1","2007",,,,,"         1","N",,,,,"1.8"," ,N,0201, ","2.45"," ,N,0825, ",,,,,"42.21"," ,N","2.3"," ,N",,,,,,
"US1MOFSA131","IBERIA 5.6 NE, MO US","38.1564","-92.2358","277.1","2007",,,,,"         4","N",,,,,"3.0"," ,N,0121, ","4.30"," ,N,0926, ",,,,,"41.81"," ,N","8.8"," ,N",,,,,,
"USC00236826","POTOSI 4 SW, MO US","37.89566","-90.84129","336.8","2007",,,"        9",,"         3","0",,,"5"," ,0,1216, ","4.5"," ,0,1216, ",,,,,,,,,"9.7"," ,0",,,,,,
"US1MOFSA011","LAMAR 0.3 ESE, MO US","37.4925","-94.2683","295.0","2007",,,,,"         0","N",,,,,"0.0"," ,N,1231,+","6.35"," ,N,0611, ",,,,,"58.30"," ,N","0.0"," ,N",,,,,,
"US1MOTY0006","HOLLISTER 3.5 SW, MO US","36.5869","-93.269251","271.0","2007",,,,,"         1","N",,,,,"2.5"," ,N,0201, ","2.55"," ,N,0611, ",,,,,"38.73"," ,N","2.7"," ,N",,,,,,
"US1MOFSA003","SAVANNAH 0.6 NNE, MO US","39.9476","-94.8245","337.1","2007",,,,,"         2","N",,,,,"5.0"," ,N,0121, ","3.10"," ,N,0824,+",,,,,"37.06"," ,N","9.5"," ,N",,,,,,
"US1MOFSA125","VIENNA 4.3 NNW, MO US","38.2428","-91.9825","241.1","2007",,,,,"         4","N",,,,,"4.0"," ,N,1216, ","2.40"," ,N,0821, ",,,,,"40.15"," ,N","12.3"," ,N",,,,,,
"US1MOFSA001","KIRKSVILLE 1.4 S, MO US","40.1746","-92.5786","287.1","2007",,,,,"         8","N",,,,,"3.5"," ,N,0121, ","2.71"," ,N,1018, ",,,,,"35.51"," ,N","20.9"," ,N",,,,,,
"US1MOFSA123","SACO 5 NE, MO US","37.41649","-90.37518","216.4","2007",,,,,"         0","N",,,,,"0.0"," ,N,1231,+","2.81"," ,N,0909, ",,,,,"38.43"," ,N","0.0"," ,N",,,,,,
"US1MOFSA007","MEXICO 3.3 SSW, MO US","39.1231307983398","-91.8944625854492","251.2","2007",,,,,"         7","N",,,,,"7.0"," ,N,0214, ","1.86"," ,N,0628, ",,,,,"31.36"," ,N","22.0"," ,N",,,,,,
"US1MOFSA129","PRINCETON 1.4 NNE, MO US","40.4162","-93.5769","296.9","2007",,,,,"         4","N",,,,,"4.0"," ,N,0122, ","2.50"," ,N,0506, ",,,,,"37.81"," ,N","9.8"," ,N",,,,,,
"US1MOFSA005","ROCKPORT 0.5 E, MO US","40.4162","-95.5081","294.1","2007",,,,,"         8","N",,,,,"6.0"," ,N,1215,+","3.85"," ,N,0809, ",,,,,"44.81"," ,N","32.5"," ,N",,,,,,
"US1MOFSA127","PALMYRA 1.0 W, MO US","39.7938","-91.5439","198.1","2007",,,,,"         6","N",,,,,"4.0"," ,N,1216,+","1.90"," ,N,0224, ",,,,,"35.80"," ,N","19.1"," ,N",,,,,,
"USC00237475","ST PETERS 2 SE, MO US","38.76783","-90.58932","175.3","2007",,,"       18",,"         5","0",,,"7"," ,0,0214, ","7.2"," ,0,0214, ","1.53"," ,0,0502, ",,,,,"32.32"," ,0","20.2"," ,0",,,,,,
"US1MOFSA009","CASSVILLE 0.5 SW, MO US","36.6732","-93.8745","405.1","2007",,,,,"         1","N",,,,,"2.8"," ,N,0201, ","2.44"," ,N,0825, ",,,,,"46.15"," ,N","2.8"," ,N",,,,,,
"USC00238561","VALLEY PARK, MO US","38.5572","-90.4922","161.8","2007",,,"        2",,"         1","0",,,"2"," ,0,0218, ","1.5"," ,0,0218, ","1.94"," ,0,0112, ",,,,,"33.14"," ,0","2.0"," ,0",,,,,,
"USC00235050","LONG BRANCH RESERVOIR, MO US","39.7505","-92.5065","249.9","2007","1433",,,,"         6","0","-3","0,0216, ",,,"5.0"," ,0,0121, ","3.14"," ,0,0808, ","99","0,0816,+","5294","3","37.57"," ,0","16.9"," ,0","54.0","0","64.5","0","43.5","0"
"USC00231364","CARUTHERSVILLE, MO US","36.1876","-89.6601","82.3","2007","2383",,"        2",,"         2","0","13","0,0203, ","2"," ,0,0202,+","2.0"," ,0,0201, ","2.41"," ,0,1023, ","104","0,0817, ","3575","0","48.29"," ,0","3.0"," ,0","62.0","0","72.0","0","52.1","0"
"US1MOJC0003","GRAIN VALLEY 0.4 SW, MO US","39.002777","-94.212755","242.9","2007",,,,,"         8","N",,,,,"5.0"," ,N,0121, ","3.45"," ,N,0507, ",,,,,"40.94"," ,N","21.9"," ,N",,,,,,
"USC00235843","MOUNTAIN VIEW 5 W, MO US","36.9911","-91.7944","365.8","2007",,,,,"         1","0","1","0,0201, ",,,"1.2"," ,0,0121, ","2.11"," ,0,0701, ","105","0,0815, ",,,"26.58"," ,0","1.2"," ,0","58.0","0","69.5","0","46.5","0"
"USC00237105","RICH FOUNTAIN 3 E, MO US","38.3889","-91.8208","182.3","2007",,,"       15",,"         5","0",,,"5"," ,0,1216,+","4.6"," ,0,0115, ","1.65"," ,0,0821, ",,,,,"29.26"," ,0","16.3"," ,0",,,,,,
"US1MOOZ0001","GAINESVILLE 8.2 NE, MO US","36.67601","-92.30365","281.9","2007",,,,,"         1","N",,,,,"1.5"," ,N,0204, ","3.18"," ,N,0701, ",,,,,"37.55"," ,N","1.8"," ,N",,,,,,
"USC00238313","TECUMSEH 1 NE, MO US","36.5967","-92.2617","252.4","2007",,,"        0",,"         2","0",,,"0"," ,0,1231,+","2.5"," ,0,0201, ","3.43"," ,0,0701, ",,,,,"34.74"," ,0","3.5"," ,0",,,,,,
"USC00231801","COLUMBIA U OF M, MO US","38.94243","-92.32044","234.7","2007","1791",,"       50",,"         9","0","3","0,0216,+","5"," ,0,0121, ","3.6"," ,0,0121, ","2.21"," ,0,0825, ","104","0,0815, ","4574","0","37.81"," ,0","22.0"," ,0","57.1","0","66.7","0","47.5","0"
"USC00234515","KINGSVILLE, MO US","38.7424","-94.073","274.9","2007",,,"       43",,"        25","0",,,"7"," ,0,0120, ","6.0"," ,0,0121, ","4.50"," ,0,0628, ",,,,,"38.09"," ,0","59.2"," ,0",,,,,,
"US1MOFSA121","MACON 1.5 N, MO US","39.7606","-92.4672","268.8","2007",,,,,"         2","N",,,,,"3.5"," ,N,1216, ","2.98"," ,N,1018, ",,,,,"34.80"," ,N","6.5"," ,N",,,,,,
"USC00234637","LA BELLE, MO US","40.1231","-91.9228","234.7","2007",,,,,,,,,,,,,,,,,,,,,,,,,,,,
"US1MOFSA113","TROY 1.2 NNE, MO US","38.992","-90.9652","148.1","2007",,,,,"         0","N",,,,,"0.0"," ,N,1231,+","2.44"," ,N,0114, ",,,,,"29.41"," ,N","0.0"," ,N",,,,,,
"US1MOFSA111","MONTICELLO 0.4 SSW, MO US","40.114","-91.7153","178.0","2007",,,,,"         0","N",,,,,"0.0"," ,N,1231,+","2.12"," ,N,1018, ",,,,,"30.72"," ,N","0.0"," ,N",,,,,,
"USW00053879","LEES SUMMIT MUNICIPAL AIRPORT, MO US","38.95972","-94.37139","303.9","2007","1632",,,,,,"-1","W,0216, ",,,,,"3.61"," ,W,0506, ","99","W,0815,+","4642","8","37.20"," ,W",,,"56.3","W","65.6","W","47.0","W"
"US1MOFSA117","CHILLICOTHE 2.9 E, MO US","39.7978","-93.4997","239.0","2007",,,,,"        11","N",,,,,"5.5"," ,N,0121, ","3.82"," ,N,0507, ",,,,,"41.08"," ,N","28.0"," ,N",,,,,,
"US1MOFSA115","BROOKFIELD 1.2 WSW, MO US","39.7824","-93.0979","251.2","2007",,,,,"         2","N",,,,,"5.0"," ,N,0213, ","3.27"," ,N,0824, ",,,,,"35.77"," ,N","7.6"," ,N",,,,,,
"USC00236012","NEW FRANKLIN 1 W, MO US","39.0172","-92.7558","195.4","2007","1524",,,,"         9","0","-2","0,0204, ",,,"5.0"," ,0,0121, ","2.92"," ,0,0628, ","104","0,0816, ","5045","8","34.26"," ,0","18.5"," ,0","55.1","0","65.9","0","44.3","0"
"US1MOFSA119","ANDERSON 3.2 NNW, MO US","36.6956","-94.4739","334.4","2007",,,,,"         1","N",,,,,"2.2"," ,N,0201, ","3.64"," ,N,0613, ",,,,,"49.56"," ,N","2.2"," ,N",,,,,,
"USC00236493","PALMYRA, MO US","39.7683","-91.5138","189.0","2007",,,,,"        11","0",,,,,"6.5"," ,0,0213, ","1.45"," ,0,1003,+",,,,,"36.17"," ,0","20.6"," ,0",,,,,,
"US1MOJH0001","HOLDEN 6.2 S, MO US","38.6234","-93.9869","263.0","2007",,,,,"         6","N",,,,,"5.0"," ,N,0213,+","3.33"," ,N,0701, ",,,,,"40.91"," ,N","17.5"," ,N",,,,,,
"USC00231356","CARTHAGE 5 S, MO US","37.1772","-94.3047","298.1","2007",,,,,"         4","0",,,,,"3.0"," ,0,0201, ","6.70"," ,0,0611, ",,,,,"63.73"," ,0","10.5"," ,0",,,,,,
"USC00237578","SAVERTON LOCK AND DAM 22, MO US","39.63615","-91.24987","143.9","2007",,,,,"         2","0",,,,,"3.0"," ,0,1215, ","2.06"," ,0,0427, ","112","0,0816, ",,,"28.66"," ,0","8.5"," ,0",,,"65.4","0",,
"USC00234982","LINNEUS 3 SE, MO US","39.857","-93.1497","248.1","2007","1259",,,,"         7","0","-5","0,0216,+",,,"5.0"," ,0,0213, ","2.72"," ,0,0507, ","102","0,0816, ","5483","1","34.69"," ,0","15.8"," ,0","52.7","0","63.4","0","42.0","0"
"USC00230143","AMITY 4 NE, MO US","39.8913","-94.36","296.9","2007","1399",,,,"        14","0","-5","0,0117, ",,,"4.0"," ,0,1207,+","5.05"," ,0,0507, ","100","0,0816,+","5418","8","41.77"," ,0","28.5"," ,0","53.3","0","63.6","0","43.1","0"
"USC00238664","WACO, MO US","37.29","-94.6041","274.0","2007",,,,,"         6","0",,,,,"3.8"," ,0,0201, ","6.26"," ,0,0612, ",,,,,"60.18"," ,0","15.9"," ,0",,,,,,
"USC00230820","BOONVILLE 3 SW, MO US","38.9461","-92.7716","239.3","2007",,,,,,,,,,,,,,,,,,,,,,,,,,,,
"USC00236804","PORTAGEVILLE, MO US","36.4136","-89.6997","85.3","2007","2084",,,,"         1","0","12","0,0217, ",,,"2.0"," ,0,0201, ","2.05"," ,0,0114, ","104","0,0817, ","3863","1","40.24"," ,0","2.0"," ,0","60.5","0","70.1","0","51.0","0"
"USC00232568","ELM, MO US","38.868","-94.0352","259.1","2007","1335",,,,"        10","0","-2","0,0216, ",,,"5.5"," ,0,0121, ","4.82"," ,0,0630, ","101","0,0816, ","5005","6","46.41"," ,0","21.9"," ,0","54.4","0","64.9","0","43.9","0"
"USC00235834","MOUNTAIN GROVE 2 N, MO US","37.1542","-92.26184","446.8","2007","1485",,,,"         3","0","5","0,0205,+",,,"2.0"," ,0,0121, ","1.72"," ,0,0701, ","103","0,0813, ",,,"35.86"," ,0","5.5"," ,0","56.7","0","66.9","0","46.6","0"
"USC00233416","GREEN CITY 5 N, MO US","40.3504","-92.9491","315.5","2007",,,,,"        12","0",,,,,"3.5"," ,0,1207, ","4.60"," ,0,0507, ",,,,,"43.90"," ,0","21.4"," ,0",,,,,,
"USW00013301","CHILLICOTHE 22 ENE, MO US","39.8668","-93.147","253.9","2007","1239",,,,,,"-6","R,0216, ",,,,,"2.81"," ,R,0506, ","100","R,0815, ","5402","4","36.06"," ,R",,,"53.2","R","63.2","R","43.1","R"
"USC00235715","MONTAUK STATE PARK, MO US","37.4525","-91.6819","288.0","2007",,,"        1",,"         0","0",,,"2"," ,0,0201, ","0.0"," ,0,1231,+","2.58"," ,0,0115, ",,,,,"36.60"," ,0","0.0"," ,0",,,,,,
"US1MOFSA223","GREENVILLE 5.2 WNW, MO US","37.1559","-90.5329","212.1","2007",,,,,"         0","N",,,,,"0.0"," ,N,1231,+","4.88"," ,N,0503, ",,,,,"51.42"," ,N","0.0"," ,N",,,,,,
"US1MOFSA103","EDINA 2.3 E, MO US","40.1689","-92.1294","238.0","2007",,,,,"         0","N",,,,,"0.0"," ,N,1231,+","2.10"," ,N,0628, ",,,,,"34.87"," ,N","0.0"," ,N",,,,,,
"USC00230817","BOONVILLE, MO US","38.9708","-92.7603","226.8","2007",,,,,"         9","0",,,,,"4.2"," ,0,0121, ","2.24"," ,0,0531, ",,,,,"33.17"," ,0","21.3"," ,0",,,,,,
"US1MOFSA221","POTOSI 4 NW, MO US","37.98715","-90.83544","260.6","2007",,,,,"         0","N",,,,,"0.0"," ,N,1231,+","1.80"," ,N,0619, ",,,,,"33.47"," ,N","0.0"," ,N",,,,,,
"US1MOBY0005","PURDY 4.8 SSW, MO US","36.75","-93.94","441.0","2007",,,,,"         2","N",,,,,"2.0"," ,N,0201, ","3.50"," ,N,0320, ",,,,,"41.56"," ,N","3.3"," ,N",,,,,,
"US1MOFSA101","WARRENSBURG 1.1 NNE, MO US","38.7737","-93.7179","251.2","2007",,,,,"         8","N",,,,,"6.0"," ,N,0120, ","3.71"," ,N,0628, ",,,,,"39.84"," ,N","20.5"," ,N",,,,,,
"US1MOTY0008","ROCKAWAY BEACH 1.3 NNW, MO US","36.72013","-93.165464","299.0","2007",,,,,"         2","N",,,,,"4.0"," ,N,0201, ","2.54"," ,N,0701, ",,,,,"41.92"," ,N","5.0"," ,N",,,,,,
"US1MOFSA227","GRANT CITY 0.5 NE, MO US","40.4907","-94.4078","324.9","2007",,,,,"         8","N",,,,,"5.5"," ,N,0121, ","4.47"," ,N,0808, ",,,,,"47.80"," ,N","23.5"," ,N",,,,,,
"US1MOFSA107","HIGGINSVILLE 0.9 NNE, MO US","39.0762","-93.7204","249.0","2007",,,,,"         8","N",,,,,"5.0"," ,N,0121, ","2.04"," ,N,0628, ",,,,,"34.52"," ,N","19.0"," ,N",,,,,,
"US1MOFSA225","MARSHFIELD 1.4 W, MO US","37.3394","-92.9352","445.0","2007",,,,,"         0","N",,,,,"0.0"," ,N,1231,+","4.00"," ,N,0701, ",,,,,"41.26"," ,N","0.0"," ,N",,,,,,
"US1MOFSA105","LEBANON 1.3 E, MO US","37.6675","-92.6366","390.1","2007",,,,,"         0","N",,,,,"0.0"," ,N,1231,+","3.26"," ,N,0821, ",,,,,"39.35"," ,N","0.0"," ,N",,,,,,
"USC00233094","GALENA, MO US","36.8061","-93.4677","313.0","2007",,,,,"         1","0",,,,,"2.0"," ,0,0201, ","3.00"," ,0,0516, ",,,,,"50.64"," ,0","2.2"," ,0",,,,,,
"USC00237452","ST LOUIS SCIENCE CENTER, MO US","38.63079","-90.27077","157.0","2007",,,"       10",,,,,,"4"," ,0,1216, ",,,,,,,"3913","7","36.06"," ,0","7.6"," ,0",,,,,,
"US1MOFSA229","HARTVILLE 0.5 SSE, MO US","37.2433","-92.5083","355.1","2007",,,,,"         1","N",,,,,"1.5"," ,N,0201, ","3.04"," ,N,0701, ",,,,,"47.85"," ,N","1.5"," ,N",,,,,,
"US1MOFSA109","MOUNT VERNON 1.3 NNW, MO US","37.1178","-93.8304","385.0","2007",,,,,"         0","N",,,,,"0.0"," ,N,1231,+","4.17"," ,N,0820, ",,,,,"57.01"," ,N","0.0"," ,N",,,,,,
"USC00235027","LOCKWOOD, MO US","37.39088","-93.94905","328.3","2007","1451",,"       25",,"         5","0","4","0,0117,+","5"," ,0,0121, ","2.8"," ,0,0113, ","3.66"," ,0,0611, ","101","0,0816, ","4583","2","51.15"," ,0","12.9"," ,0","56.2","0","66.3","0","46.2","0"
"USC00231580","CHILLICOTHE 2 S, MO US","39.775","-93.5357","237.7","2007","1706",,,,"         6","0","-7","0,0216, ",,,"3.5"," ,0,0213,+","3.79"," ,0,0507, ","106","0,0816,+","5173","9","37.81"," ,0","15.2"," ,0","54.9","0","65.9","0","43.9","0"
"USC00238777","WAYNESVILLE 2 W, MO US","37.81313","-92.23161","271.3","2007",,,,,,,,,,,,,,,,,,,"48.15"," ,0",,,,,,,,
"USC00236357","OREGON, MO US","39.9807","-95.1465","322.5","2007",,,,,,,,,,,,,"4.14"," ,0,0507, ",,,"5403","7","35.77"," ,0",,,,,,,,
"USC00231340","CARROLLTON, MO US","39.3594","-93.4886","214.9","2007",,,,,"         5","0",,,,,"3.0"," ,0,1207,+","2.15"," ,0,1018, ","101","0,0816, ",,,"31.18"," ,0","15.2"," ,0",,,"65.3","0",,
"USC00234850","LEES SUMMIT REED WLR, MO US","38.8802","-94.3358","304.8","2007","1388",,,,"         6","0","-1","0,0116, ",,,"5.0"," ,0,0213,+","4.20"," ,0,0507, ","98","0,0816,+",,,"42.06"," ,0","16.7"," ,0","54.7","0","64.7","0","44.7","0"
"USC00232318","DOWNING, MO US","40.4906","-92.3705","265.2","2007",,,"       58",,"         9","0",,,"6"," ,0,0217, ","4.4"," ,0,0213, ","5.32"," ,0,0824, ",,,,,"44.28"," ,0","27.8"," ,0",,,,,,
"USC00233649","HARRISONVILLE, MO US","38.6494","-94.3567","274.3","2007",,,,,"         6","0",,,,,"5.0"," ,0,0121,+",,,,,,,"48.17"," ,0","15.3"," ,0",,,,,,
"USC00235704","MONETT 4 SW, MO US","36.86176","-93.96244","432.8","2007",,,,,"         2","0","7","0,0216, ",,,"1.5"," ,0,0201, ","2.97"," ,0,0320, ",,,,,"49.16"," ,0","3.2"," ,0",,,,,"48.0","0"
"US1MOFSA213","PROTEM, MO US","36.51","-92.8","259.1","2007",,,,,"         1","N",,,,,"2.0"," ,N,0201, ","3.25"," ,N,0729, ",,,,,"39.85"," ,N","2.8"," ,N",,,,,,
"US1MOFSA211","MILAN 1.2 SW, MO US","40.1893","-93.1378","296.9","2007",,,,,"         1","N",,,,,"4.0"," ,N,0122, ","3.50"," ,N,0507, ",,,,,"42.44"," ,N","4.4"," ,N",,,,,,
"US1MOFSA217","NEVADA 0.2 W, MO US","37.841747","-94.356492","264.6","2007",,,,,"         6","N",,,,,"3.8"," ,N,0120, ","3.20"," ,N,0730, ",,,,,"59.47"," ,N","11.8"," ,N",,,,,,
"US1MOFSA215","HOUSTON 2.0 S, MO US","37.2942","-91.9646","363.9","2007",,,,,"         1","N",,,,,"2.0"," ,N,0201, ","2.00"," ,N,0630, ",,,,,"33.26"," ,N","2.5"," ,N",,,,,,
"US1MOFSA219","WARRENTON 1.1 WSW, MO US","38.8134","-91.1588","260.9","2007",,,,,"         2","N",,,,,"4.0"," ,N,0214, ","1.95"," ,N,0720, ",,,,,"32.31"," ,N","5.7"," ,N",,,,,,
"USC00236745","PLEASANT HILL WEATHER FORECAST OFFICE, MO US","38.8099","-94.2647","304.8","2007","1497",,"       40",,"        11","0","0","0,0216, ","5"," ,0,0121, ","5.4"," ,0,0121, ","4.25"," ,0,0507, ","100","0,0816, ","4834","7","45.03"," ,0","26.8"," ,0","55.3","0","65.4","0","45.1","0"
"USC00230088","ALLEY SPRING RANGER STATION, MO US","37.1527","-91.4438","213.4","2007",,,"        0",,"         1","0",,,"0"," ,0,1231,+","1.0"," ,0,1216, ","3.50"," ,0,1213, ",,,,,"41.24"," ,0","1.0"," ,0",,,,,,
"USC00231297","CAPE GIRARDEAU NUMBER 2, MO US","37.3024","-89.5233","108.5","2007","1744",,"        3",,"         2","0","7","0,0204, ","2"," ,0,0204, ","1.7"," ,0,0204, ","3.42"," ,0,1018, ","104","0,0816, ","4175","3","47.74"," ,0","2.9"," ,0","58.3","0","70.7","0","45.8","0"
"USC00236509","PARIS, MO US","39.41417","-92.00389","233.8","2007",,,,,"         7","0",,,,,"8.0"," ,0,1231, ",,,,,,,,,"22.5"," ,0",,,,,,
"USC00232941","FLEMINGTON 4 E, MO US","37.7928","-93.4317","306.0","2007",,,"       24",,"         4","0",,,"6"," ,0,0121, ","3.0"," ,0,0201,+","2.26"," ,0,0602, ",,,,,"43.65"," ,0","14.0"," ,0",,,,,,
"USC00236749","PLEASANT HOPE, MO US","37.4902","-93.2811","343.5","2007",,,"        5",,"         2","0",,,"2"," ,0,0204,+","2.0"," ,0,0201, ","6.20"," ,0,0821, ",,,,,"50.31"," ,0","3.5"," ,0",,,,,,
"USC00238805","WELDON SPRING NWS, MO US","38.69893","-90.68287","185.9","2007","1574",,"       17",,"         4","0","0","0,0205, ","6"," ,0,1217,+","6.0"," ,0,0214, ","1.70"," ,0,0113, ","104","0,0816, ","4707","0","34.85"," ,0","20.7"," ,0","56.3","0","66.9","0","45.7","0"
"US1MOFSA201","LAMBERT 0.8 ESE, MO US","37.0912","-89.5421","99.1","2007",,,,,"         2","N",,,,,"2.0"," ,N,0204, ","3.49"," ,N,0114, ",,,,,"47.14"," ,N","3.0"," ,N",,,,,,
"US1MOFSA205","SHELBYVILLE 0.3 SE, MO US","39.8038","-92.0366","231.0","2007",,,,,"         3","N",,,,,"5.0"," ,N,0213, ","2.29"," ,N,0404, ",,,,,"37.10"," ,N","11.0"," ,N",,,,,,
"US1MOCN0002","PLATTSBURG 5.7 S, MO US","39.4847","-94.4417","296.9","2007",,,,,,,,,,,,,,,,,,,"39.24"," ,N",,,,,,,,
"US1MOFSA203","EMINENCE 0.1 SSE, MO US","37.1454","-91.3578","200.9","2007",,,,,"         2","N",,,,,"1.0"," ,N,1216,+","1.99"," ,N,0909, ",,,,,"36.92"," ,N","2.0"," ,N",,,,,,
"US1MOFSA209","HURLEY 3.5 NNE, MO US","36.9786","-93.4756","399.0","2007",,,,,"         2","N",,,,,"2.0"," ,N,0201, ","4.40"," ,N,0825, ",,,,,"47.81"," ,N","3.0"," ,N",,,,,,
"US1MOTX0006","SUMMERSVILLE 6.1 NNW, MO US","37.256723","-91.709909","395.0","2007",,,,,"         2","N",,,,,"1.1"," ,N,0201, ","3.91"," ,N,0701, ",,,,,"38.24"," ,N","2.9"," ,N",,,,,,
"USC00237397","ST CHARLES ELM POINT, MO US","38.81418","-90.51382","143.9","2007","1620",,,,"         3","0","7","0,0216,+",,,"4.0"," ,0,0121, ","2.40"," ,0,0720, ","103","0,0816, ","4048","9","34.54"," ,0","9.8"," ,0","57.4","0","67.7","0","47.2","0"
"USC00238003","STANBERRY, MO US","40.2199","-94.5444","271.3","2007",,,"       49",,"        15","0",,,"8"," ,0,1228, ","5.2"," ,0,0213, ",,,,,,,,,"43.3"," ,0",,,,,,
"USC00237398","ST CHARLES 7 SSW, MO US","38.6853","-90.52335","137.2","2007","1675",,,,"         4","0","4","0,0216,+",,,"5.0"," ,0,1216, ","1.90"," ,0,0628, ","102","0,0816, ",,,"36.76"," ,0","13.1"," ,0","57.0","0","67.2","0","46.9","0"
"US1MOFSA207","BLOOMFIELD 2.9 S, MO US","36.8464","-89.9391","171.9","2007",,,,,"         0","N",,,,,"0.0"," ,N,1231,+","4.06"," ,N,1018, ",,,,,"48.44"," ,N","0.0"," ,N",,,,,,
"US1MOTX0007","HOUSTON 4.5 ESE, MO US","37.28961","-91.88965","413.9","2007",,,,,"         3","N",,,,,"2.0"," ,N,0121, ","3.03"," ,N,0701, ",,,,,"33.75"," ,N","6.3"," ,N",,,,,,
"USC00235098","LOUISIANA, MO US","39.45158","-91.04643","143.3","2007",,,,,"        11","0",,,,,"6.5"," ,0,1216, ","1.18"," ,0,0629, ",,,,,"22.37"," ,0","39.3"," ,0",,,,,,
"USC00233102","GALLATIN 1 W, MO US","39.908","-93.9698","280.7","2007",,,"       48",,"        14","0",,,"8"," ,0,1223,+","8.0"," ,0,1223, ",,,,,,,,,"41.5"," ,0",,,,,,
"USC00238910","WHITE CHURCH 6 NNE, MO US","36.93577","-91.76333","349.9","2007",,,,,"         1","0",,,,,"1.0"," ,0,1216, ","3.75"," ,0,0701,+",,,,,"44.87"," ,0","1.0"," ,0",,,,,,
"USC00236970","QULIN, MO US","36.5927","-90.2319","96.9","2007",,,,,,,,,,,,,,,,,,,,,,,,,,,,
"USC00231600","CLARENCE CANNON DAM, MO US","39.53315","-91.6451","214.0","2007",,,,,,,,,,,,,,,,,,,"37.80"," ,0",,,,,,,,
"USC00236739","PLATTSBURG, MO US","39.5669","-94.4544","275.8","2007","1241",,"       12",,"         6","0","-3","0,0217,+","7"," ,0,1223,+","7.2"," ,0,0213, ","4.04"," ,0,0507, ","101","0,0816,+",,,"41.83"," ,0","24.6"," ,0","53.5","0","64.3","0","42.6","0"
"USC00232809","FARMINGTON, MO US","37.79205","-90.40978","274.3","2007","1578",,"        5",,"         1","0","7","0,0216,+","2"," ,0,1216, ","2.0"," ,0,1216, ","1.62"," ,0,0504, ","104","0,0815,+","4390","1","33.49"," ,0","2.9"," ,0","56.9","0","67.5","0","46.3","0"
"USC00237263","ROLLA MISSOURI S AND T, MO US","37.9567","-91.7762","357.5","2007","1810",,"       10",,"         5","0","4","0,0117,+","2"," ,0,1217,+","2.0"," ,0,0121, ","2.77"," ,0,0908, ","105","0,0813, ","4448","0","42.54"," ,0","12.2"," ,0","57.7","0","67.7","0","47.7","0"
"USC00234544","KIRKSVILLE, MO US","40.2057","-92.5748","295.7","2007",,,,,,,,,,,,,,,"99","0,0816,+",,,,,,,,,"62.7","0",,
"USC00231037","BRUNSWICK, MO US","39.4248","-93.133","201.8","2007","1465",,"       57",,"         7","0","-1","0,0216,+","5"," ,0,0218,+","4.6"," ,0,0121, ","3.76"," ,0,0531, ","102","0,0816, ",,,"41.88"," ,0","22.9"," ,0","54.4","0","64.9","0","43.8","0"
"USC00232240","DIAMOND 2 W, MO US","36.98596","-94.35518","326.1","2007",,,,,"         0","0",,,,,"0.0"," ,0,1231,+",,,,,,,"51.42"," ,0","0.0"," ,0",,,,,,
"USC00232482","EDINA, MO US","40.16353","-92.16586","246.3","2007",,,"       57",,"        12","0",,,"5"," ,0,0218,+","4.0"," ,0,1223, ","2.07"," ,0,1018, ",,,,,"39.82"," ,0","28.1"," ,0",,,,,,
"US1MOTX0009","FORT LEONARD WOOD 9.3 S, MO US","37.571749","-92.141466","415.4","2007",,,,,"         3","N",,,,,"3.0"," ,N,0201, ","4.28"," ,N,0821, ",,,,,"41.80"," ,N","7.7"," ,N",,,,,,
"USC00234660","LAKE WAPPAPELLO STATE PARK, MO US","36.9381","-90.3223","177.4","2007",,,"        0",,"         0","0",,,"0"," ,0,1231,+","0.3"," ,0,1216, ","3.02"," ,0,0213, ",,,,,"41.49"," ,0","0.3"," ,0",,,,,,
"USC00230980","BROOKFIELD, MO US","39.765","-93.0594","233.8","2007","1367",,"       50",,"        15","0","-12","0,0216, ","6"," ,0,0217,+","5.0"," ,0,0213,+","3.60"," ,0,1018, ","99","0,0816,+","5396","0","43.79"," ,0","30.2"," ,0","53.5","0","64.1","0","42.9","0"
"USC00231275","CANTON L AND D 20, MO US","40.14394","-91.51593","149.4","2007","1251",,,,"         5","0","-6","0,0217,+",,,"5.0"," ,0,0214, ",,,"101","0,0816, ","5399","5",,,"16.2"," ,0","53.3","0","63.7","0","43.0","0"
"USC00238466","TRUMAN DAM AND RESERVOIR, MO US","38.25974","-93.41358","229.8","2007",,,,,"         0","0",,,,,"0.0"," ,0,1231,+",,,,,,,"40.02"," ,0","0.0"," ,0",,,,,,
"USC00231837","CONCORDIA, MO US","38.9783","-93.5702","233.2","2007",,,"       45",,"        10","0",,,"5"," ,0,0121, ","5.0"," ,0,0121, ","3.62"," ,0,0629, ",,,,,"38.03"," ,0","20.8"," ,0",,,,,,
"USC00231711","CLINTON, MO US","38.395","-93.7711","234.7","2007",,,,,,,,,,,,,,,,,,,,,,,,,,,,
"USC00238223","SWEET SPRINGS, MO US","38.9663","-93.4195","205.7","2007","1562",,"       52",,"         9","0","-3","0,0216, ","7"," ,0,0217, ","5.8"," ,0,0213, ","3.10"," ,0,1018, ","101","0,0817,+","4808","4","40.64"," ,0","22.5"," ,0","55.5","0","65.7","0","45.3","0"
"USC00236045","NEW MADRID, MO US","36.5869","-89.5325","92.0","2007",,,,,"         2","0",,,,,"1.5"," ,0,0205,+",,,,,,,,,"3.0"," ,0",,,,,,
"USC00238583","VANZANT 5 E, MO US","36.9858","-92.2058","342.3","2007",,,,,"         0","0","2","0,0131, ",,,"0.8"," ,0,1216, ",,,,,,,,,"1.0"," ,0",,,,,"45.9","0"
"USC00231145","BUTLER 4 W, MO US","38.2612","-94.405","240.8","2007","1604",,,,"         6","0","4","0,0117,+",,,"5.3"," ,0,0121, ","3.64"," ,0,0701, ","102","0,0816,+","4747","4","50.84"," ,0","17.8"," ,0","56.1","0","66.5","0","45.7","0"
"USC00235987","NEVADA WATER PLANT, MO US","37.8395","-94.374","265.5","2007","1755",,,,"         2","0","3","0,0117,+",,,"1.0"," ,0,1215,+","2.93"," ,0,0507, ","101","0,0816,+","4294","5","44.28"," ,0","5.3"," ,0","57.5","0","67.4","0","47.6","0"
"USC00230051","ALBANY, MO US","40.2486","-94.3308","266.7","2007","1554",,"       44",,"        12","0","-7","0,0117,+","8"," ,0,1231,+","3.8"," ,0,0121, ","4.50"," ,0,0507, ","101","0,0816, ",,,"37.11"," ,0","30.2"," ,0","53.9","0","65.3","0","42.4","0"
"USC00231383","CASSVILLE, MO US","36.68744","-93.86952","419.4","2007",,,,,"         1","0",,,,,"2.3"," ,0,0201, ",,,,,,,,,"2.3"," ,0",,,,,,
"USC00235862","MOUNT VERNON MU SW CNTR, MO US","37.0733","-93.8789","362.7","2007","1284",,"       12",,"         1","0","4","0,0216,+","2"," ,0,1216,+","1.0"," ,0,0113, ","3.33"," ,0,0602, ","102","0,0816, ",,,"53.61"," ,0","1.0"," ,0","56.3","0","68.2","0","44.4","0"
"USC00238577","VANDALIA, MO US","39.3076","-91.4926","232.9","2007","1401",,,,"        10","0","-4","0,0216, ",,,"5.5"," ,0,0213, ","1.39"," ,0,0628, ","102","0,0813, ","4759","7","28.29"," ,0","25.8"," ,0","54.1","0","64.5","0","43.8","0"
"USC00233568","HAMILTON 2 W, MO US","39.7425","-94.0347","274.3","2007","1173",,,,"         6","0","-5","0,0216, ",,,"5.5"," ,0,1223, ","6.32"," ,0,0507, ","103","0,0816,+","5569","7","39.64"," ,0","14.7"," ,0","51.8","0","63.4","0","40.1","0"
"USC00231822","CONCEPTION, MO US","40.2394","-94.6833","337.7","2007","1035",,,,"        11","0","-10","0,0117, ",,,"5.5"," ,0,0121, ","4.25"," ,0,0808, ","94","0,0817,+","5953","2","41.19"," ,0","34.4"," ,0","50.8","0","60.9","0","40.6","0"
"USC00234417","KENNETT RADIO KBOA, MO US","36.2252","-90.0749","82.3","2007",,,"        2",,"         1","0",,,"3"," ,0,0201, ","2.5"," ,0,0201, ",,,,,,,,,"2.5"," ,0",,,,,,
"USC00238171","SULLIVAN 3 SE, MO US","38.2386","-91.1488","279.2","2007",,,,,"         7","0",,,,,"6.0"," ,0,1216, ","2.27"," ,0,0113, ",,,,,"32.71"," ,0","17.8"," ,0",,,,,,
"USC00232071","DADEVILLE, MO US","37.4481","-93.6779","320.0","2007",,,,,"         2","0",,,,,"2.0"," ,0,0201, ","9.95"," ,0,0820, ",,,,,"50.43"," ,0","5.0"," ,0",,,,,,
"USC00233162","GENTRYVILLE, MO US","36.8658","-92.3605","335.3","2007","1411",,,,"         3","0","2","0,0131, ",,,"2.0"," ,0,0201, ","3.20"," ,0,0909, ","104","0,0816, ","4356","1","39.85"," ,0","5.0"," ,0","56.8","0","68.6","0","45.0","0"
"USC00235340","MARYVILLE 2 E, MO US","40.3458","-94.8341","300.2","2007","1257",,,,"        13","0","-8","0,0117, ",,,"4.5"," ,0,0121, ","3.50"," ,0,0507, ","97","0,0815,+","5760","3","41.98"," ,0","34.8"," ,0","51.8","0","62.8","0","40.7","0"
"US1MOCF0002","STEELVILLE 7.4 ESE, MO US","37.92709","-91.23072","227.1","2007",,,,,"         5","N",,,,,"4.0"," ,N,1216, ","2.48"," ,N,0630, ",,,,,"35.27"," ,N","11.2"," ,N",,,,,,
"USC00238051","STEFFENVILLE, MO US","39.97018","-91.88753","214.9","2007","1572",,,,"         9","0","-6","0,0216, ",,,"3.2"," ,0,0121, ","1.71"," ,0,1018, ","100","0,0815,+","4936","1","34.66"," ,0","19.8"," ,0","55.4","0","65.6","0","45.3","0"
"USC00235578","MILAN, MO US","40.221","-93.1097","256.0","2007",,,"       42",,"        10","0",,,"4"," ,0,1229,+","4.0"," ,0,1222, ","4.00"," ,0,0507, ",,,,,"41.15"," ,0","21.6"," ,0",,,,,,
"USC00238725","WARRENTON 1 N, MO US","38.83463","-91.13888","252.1","2007",,,,,"         2","0",,,,,"4.1"," ,0,0121, ",,,,,,,,,"5.7"," ,0",,,,,,
"US1MOBS0001","RICH HILL 4.9 SE, MO US","38.0565","-94.289","234.1","2007",,,,,"         5","N",,,,,"6.0"," ,N,0121, ","3.34"," ,N,0701, ",,,,,"47.01"," ,N","14.1"," ,N",,,,,,
"USC00231773","COLOMA, MO US","39.5318","-93.529","254.2","2007",,,,,"         8","0",,,,,"4.0"," ,0,0121, ","3.00"," ,0,1018, ",,,,,"36.62"," ,0","19.0"," ,0",,,,,,
"USC00233038","FREDERICKTOWN, MO US","37.5742","-90.3075","231.6","2007","1508",,"        5",,"         2","0","3","0,0205,+","2"," ,0,0201, ","2.0"," ,0,0201, ","2.81"," ,0,0909, ","107","0,0816, ","4733","3","39.11"," ,0","3.5"," ,0","56.3","0","68.7","0","44.0","0"
"USC00238603","VERSAILLES, MO US","38.4326","-92.8398","305.7","2007",,,,,,,,,,,,,,,,,,,,,,,,,,,,
"USC00237514","SALISBURY, MO US","39.4247","-92.8106","222.5","2007","1492",,,,"         8","0","-1","0,0217,+",,,"4.5"," ,0,0122, ","3.42"," ,0,1018, ","103","0,0816, ","4973","8","38.76"," ,0","20.4"," ,0","54.6","0","65.6","0","43.6","0"
"USC00237632","SEDALIA WATER PLANT, MO US","38.6752","-93.2227","237.7","2007",,,,,"         9","0","-3","0,0204, ",,,"4.0"," ,0,0121, ","2.64"," ,0,0628, ","100","0,0816,+",,,"35.37"," ,0","15.6"," ,0","54.6","0","65.4","0","43.9","0"
"US1MOFSA091","WEST PLAINS 2.2 NNW, MO US","36.7688","-91.8828","342.0","2007",,,,,"         1","N",,,,,"3.5"," ,N,0204, ","3.63"," ,N,0908, ",,,,,"39.81"," ,N","4.4"," ,N",,,,,,
"US1MOSR0001","LOWRY CITY 3.8 ESE, MO US","38.12803","-93.658675","235.9","2007",,,,,"         6","N",,,,,"5.7"," ,N,0121, ","3.21"," ,N,0701, ",,,,,"42.13"," ,N","16.7"," ,N",,,,,,
"US1MOFSA095","BLUE SPRINGS 0.9 NW, MO US","39.0303","-94.2863","294.1","2007",,,,,"         2","N",,,,,"5.0"," ,N,0213, ","5.86"," ,N,0507, ",,,,,"43.91"," ,N","9.5"," ,N",,,,,,
"USC00230204","APPLETON CITY, MO US","38.1872","-94.0283","264.0","2007","1507",,,,"         2","0","4","0,0117, ",,,"5.5"," ,0,0121, ","5.86"," ,0,0701, ","99","0,0816, ","4734","1","46.46"," ,0","8.7"," ,0","56.0","0","65.9","0","46.1","0"
"US1MOFSA093","IRONDALE 2 NW, MO US","37.85329","-90.69893","249.9","2007",,,,,"         3","N",,,,,"2.0"," ,N,1215,+","1.84"," ,N,0213, ",,,,,"38.81"," ,N","5.0"," ,N",,,,,,
"USC00233838","HIGGINSVILLE, MO US","39.0733","-93.7075","254.8","2007","1433",,,,"        10","0","-1","0,0216, ",,,"5.0"," ,0,0213,+","3.06"," ,0,0629, ","100","0,0816, ","5233","5","36.28"," ,0","23.6"," ,0","54.3","0","64.1","0","44.5","0"
"US1MOFSA099","HILLSBORO 0.5 SSW, MO US","38.2246","-90.5689","256.0","2007",,,,,"         1","N",,,,,"1.0"," ,N,0201, ","4.02"," ,N,0908, ",,,,,"34.39"," ,N","1.0"," ,N",,,,,,
"USC00234008","HORTON, MO US","37.9455","-94.3613","228.6","2007",,,,,"         6","0",,,,,"5.5"," ,0,0121, ","3.75"," ,0,0507, ",,,,,"43.93"," ,0","15.5"," ,0",,,,,,
"USC00232503","ELDON, MO US","38.34853","-92.58108","281.6","2007",,,,,,,,,,,,,,,,,,,"41.56"," ,0",,,,,,,,
"USC00233835","HIGBEE 4 S, MO US","39.2415","-92.5068","257.6","2007",,,,,"        10","0",,,,,"4.5"," ,0,0113, ","3.30"," ,0,0628, ",,,,,"40.15"," ,0","21.5"," ,0",,,,,,
"US1MOFSA097","CARTHAGE 1.5 S, MO US","37.1469","-94.3084","328.9","2007",,,,,"         1","N",,,,,"1.8"," ,N,0201, ","5.38"," ,N,0611, ",,,,,"57.53"," ,N","1.8"," ,N",,,,,,
"US1MOFSA089","FAYETTE 2.3 S, MO US","39.1148","-92.6891","195.1","2007",,,,,"         0","N",,,,,"0.0"," ,N,1231,+","3.00"," ,N,0628, ",,,,,"36.65"," ,N","0.0"," ,N",,,,,,
"USW00053901","WEST PLAINS MUNICIPAL AIRPORT, MO US","36.87806","-91.9025","372.8","2007","1543",,,,,,"3","W,0204, ",,,,,"2.22"," ,W,0717, ","104","W,0812, ","4246","9","38.30"," ,W",,,"57.7","W","68.4","W","47.0","W"
"USC00232619","EMINENCE 1 N, MO US","37.15605","-91.36015","195.1","2007",,,"        0",,"         0","0",,,"0"," ,0,1231,+","0.6"," ,0,0201, ","2.21"," ,0,0908, ",,,,,"39.67"," ,0","1.1"," ,0",,,,,,
"USC00234919","LICKING 4 N, MO US","37.55452","-91.88345","359.7","2007","1581",,,,"         3","0","0","0,0204, ",,,"1.7"," ,0,1216, ","2.26"," ,0,0414, ","106","0,0813, ","4618","4","37.10"," ,0","3.7"," ,0","56.6","0","67.7","0","45.5","0"
"USW00053904","ST CHARLES CO AIRPORT, MO US","38.92861","-90.42806","132.9","2007","1701",,,,,,"1","W,0216,+",,,,,"1.23"," ,W,1002, ","103","W,0815,+",,,"24.31"," ,W",,,"56.7","W","67.4","W","45.9","W"
"USR0000MCLI","MDC CLINTON HQTRS MISSOURI, MO US","38.3483","-93.7747","228.6","2007","1758",,,,,,"4","U,0216, ",,,,,,,"102","U,0815,+",,,,,,,"57.3","U","67.3","U","47.4","U"
"USW00014938","KIRKSVILLE REGIONAL AIRPORT, MO US","40.09722","-92.54333","294.4","2007","1125",,,,,,"-8","W,0215, ",,,,,"3.05"," ,W,1017, ","98","W,0807, ","5646","5","34.32"," ,W",,,"52.3","W","62.7","W","41.9","W"
"US1MODK0001","STEWARTSVILLE 2.8 NNE, MO US","39.7918","-94.4804","310.9","2007",,,,,"         8","N",,,,,"5.5"," ,N,1223, ","4.24"," ,N,0824, ",,,,,"39.12"," ,N","29.7"," ,N",,,,,,
"US1MOPT0001","CAMDEN POINT 1.9 SSE, MO US","39.428106","-94.732726","270.1","2007",,,,,"         3","N",,,,,"4.0"," ,N,1223, ","2.24"," ,N,0619, ",,,,,"36.12"," ,N","9.8"," ,N",,,,,,
"USC00231640","CLARKSVILLE LOCK AND DAM 24, MO US","39.37362","-90.90603","140.2","2007","1604",,,,"         7","0","-2","0,0217, ",,,"3.5"," ,0,1215, ","1.72"," ,0,0113, ","104","0,0816, ",,,"29.74"," ,0","17.5"," ,0","55.6","0","65.7","0","45.4","0"
"USC00232850","FESTUS, MO US","38.23247","-90.39811","182.9","2007","1499",,"        8",,"         4","0","4","0,0205,+","4"," ,0,1216, ","4.1"," ,0,1216, ","2.60"," ,0,0908, ","105","0,0816, ",,,"35.96"," ,0","9.4"," ,0","56.2","0","67.3","0","45.1","0"
"USC00236777","POMME DE TERRE DAM, MO US","37.90495","-93.31678","276.5","2007","1488",,,,"         0","0","3","0,0118,+",,,"0.0"," ,0,1231,+","2.10"," ,0,0114, ","104","0,0813, ",,,"33.34"," ,0","0.0"," ,0","56.7","0","67.7","0","45.8","0"
"USC00238712","WARRENSBURG 4 NW, MO US","38.7841","-93.8008","242.6","2007","1430",,,,"         6","0","0","0,0216, ",,,"4.0"," ,0,0121, ","2.23"," ,0,0628, ","102","0,0816, ",,,"36.34"," ,0","12.0"," ,0","55.3","0","66.8","0","43.7","0"
"USC00236775","POLO, MO US","39.547","-94.0328","297.5","2007",,,,,"         6","0",,,,,"6.0"," ,0,0213, ","5.35"," ,0,0507, ",,,,,"31.93"," ,0","15.6"," ,0",,,,,,
"USC00231087","BUFFALO 2 N, MO US","37.66688","-93.10691","326.4","2007",,,,,"         5","0",,,,,"4.0"," ,0,0113, ",,,,,,,,,"11.1"," ,0",,,,,,
"USW00014945","TARKIO, MO US","40.41667","-95.4","317.0","2007","1188",,,,,,"-11","0,0117,+",,,,,"3.16"," ,0,0808, ","96","0,0814, ",,,"47.47"," ,0",,,"51.6","0","62.0","0","41.3","0"
"US1MOFSA083","CLINTON 0.9 NNW, MO US","38.3839","-93.7722","242.9","2007",,,,,"         0","N",,,,,"0.0"," ,N,1231,+","4.00"," ,N,0701, ",,,,,"52.36"," ,N","0.0"," ,N",,,,,,
"US1MOFSA081","BETHANY 1.3 NE, MO US","40.2817","-94.0116","299.9","2007",,,,,"         1","N",,,,,"1.0"," ,N,0115, ","4.30"," ,N,0507, ",,,,,"44.67"," ,N","1.0"," ,N",,,,,,
"US1MOFSA087","MOUND CITY 0.2 WNW, MO US","40.137","-95.2373","280.1","2007",,,,,"         0","N",,,,,"0.0"," ,N,1231,+","3.44"," ,N,0506, ",,,,,"41.44"," ,N","0.0"," ,N",,,,,,
"USC00235207","MALDEN MUNICIPAL AIRPORT, MO US","36.5994","-89.9894","88.4","2007",,,"        1",,"         1","0",,,"2"," ,0,0204, ","2.0"," ,0,0204, ",,,,,"3731","9",,,"2.0"," ,0",,,,,,
"US1MOFSA085","HERMITAGE 0.5 ESE, MO US","37.9407","-93.3149","251.2","2007",,,,,"         0","N",,,,,"0.0"," ,N,1231,+","2.40"," ,N,0115, ",,,,,"36.32"," ,N","0.0"," ,N",,,,,,
"USC00237506","SALEM, MO US","37.63388","-91.53613","367.3","2007","1681",,"        0",,"         0","0","1","0,0216,+","0"," ,0,1231,+","0.0"," ,0,1231,+","2.07"," ,0,0818, ","103","0,0816,+","4058","7","48.56"," ,0","0.0"," ,0","58.6","0","69.3","0","47.9","0"
"US1MOFSA199","MEMPHIS 0.1 S, MO US","40.4594","-92.1694","242.0","2007",,,,,"         4","N",,,,,"3.5"," ,N,1216, ","3.12"," ,N,0824, ",,,,,"37.28"," ,N","10.5"," ,N",,,,,,
"US1MOFSA079","TRENTON 1.2 N, MO US","40.0982","-93.6046","255.1","2007",,,,,"         7","N",,,,,"4.5"," ,N,1223,+","2.65"," ,N,0507, ",,,,,"34.92"," ,N","22.1"," ,N",,,,,,
"US1MOPS0002","GREEN RIDGE 0.3 NNW, MO US","38.62469","-93.41113","276.1","2007",,,,,"         9","N",,,,,"6.0"," ,N,0121, ","2.14"," ,N,1018, ",,,,,"38.28"," ,N","19.5"," ,N",,,,,,
"USC00232729","FAIRFAX, MO US","40.339","-95.391","283.5","2007",,,,,,,,,,,,,,,,,,,,,,,,,,,,
"USW00003935","CAPE GIRARDEAU MUNICIPAL AIRPORT, MO US","37.2252","-89.5705","102.4","2007","1761",,,,,,"-3","0,0204, ",,,,,"2.54"," ,0,1017, ","103","0,0816, ","4221","1","42.03"," ,0",,,"58.4","0","69.7","0","47.1","0"
"USW00053916","CHILLICOTHE AGRI SCIENCE CENTER, MO US","39.82333","-93.57917","234.4","2007","1417",,,,,,"-7","W,0216, ",,,,,"4.56"," ,W,0506, ","103","W,0815, ","5183","4","39.60"," ,W",,,"54.2","W","64.9","W","43.6","W"
"US1MODT0001","SALEM 5.9 ESE, MO US","37.6012","-91.438","378.9","2007",,,,,"         1","N",,,,,"1.5"," ,N,0201, ","2.20"," ,N,0414, ",,,,,"41.27"," ,N","1.5"," ,N",,,,,,
"USC00233262","GOLDEN CITY 6 S, MO US","37.30186","-94.08309","330.1","2007",,,"        0",,"         2","0",,,"0","T,0,1123, ","3.0"," ,0,0203, ",,,,,,,,,"6.1"," ,0",,,,,,
"US1MOBN0002","COLUMBIA 1.4 NNW, MO US","38.971292","-92.341379","230.1","2007",,,,,"        11","N",,,,,"4.6"," ,N,0121, ","2.00"," ,N,0825, ",,,,,"38.72"," ,N","25.9"," ,N",,,,,,
"US1MOBN0001","COLUMBIA 3.4 WNW, MO US","38.979591","-92.379813","226.2","2007",,,,,"        10","N",,,,,"4.2"," ,N,0121, ","2.55"," ,N,0628, ",,,,,"37.79"," ,N","27.4"," ,N",,,,,,
"USC00232289","DONIPHAN, MO US","36.6205","-90.8125","88.1","2007","1625",,"        2",,"         1","0","5","0,0201,+","2"," ,0,0204, ","1.5"," ,0,0204, ","3.85"," ,0,0701, ","103","0,0817,+","4259","0","48.50"," ,0","2.0"," ,0","58.0","0","70.5","0","45.4","0"
"USC00236402","OSCEOLA, MO US","38.0492","-93.70385","226.8","2007",,,,,"         1","0",,,,,"6.0"," ,0,0121, ","2.40"," ,0,0701, ","106","0,0815, ",,,"37.69"," ,0","7.0"," ,0",,,"69.8","0",,
"USC00234226","JACKSON, MO US","37.378","-89.6677","134.1","2007","1941",,"        3",,"         2","0","8","0,0201, ","1"," ,0,0217,+","1.0"," ,0,0204,+","3.79"," ,0,1018, ","105","0,0816, ","4497","6","40.00"," ,0","2.0"," ,0","58.3","0","69.4","0","47.2","0"
"USR0000MFAR","FARMINGTON MISSOURI, MO US","37.7617","-90.0","288.3","2007","1626",,,,,,"4","U,0131, ",,,,,,,"107","U,0815, ","4278","6",,,,,"57.5","U","68.2","U","46.7","U"
"USC00238700","WAPPAPELLO DAM, MO US","36.923","-90.2836","125.0","2007",,,,,,,,,,,,,,,,,,,,,,,,,,,,
"US1MOBN0007","ASHLAND 4.2 E, MO US","38.769594","-92.179676","235.9","2007",,,,,"        11","N",,,,,"4.5"," ,N,0121, ","1.93"," ,N,0425, ",,,,,"32.64"," ,N","22.0"," ,N",,,,,,
"USC00236641","PERRYVILLE WATER PLANT, MO US","37.7341","-89.92","153.0","2007","1412",,,,"         2","0","4","0,0204,+",,,"3.0"," ,0,1217, ","1.87"," ,0,1210, ","103","0,0825,+","4539","5","36.60"," ,0","4.8"," ,0","56.0","0","67.9","0","44.1","0"
"USC00230304","ASH GROVE 4 S, MO US","37.26136","-93.59127","344.1","2007",,,,,,,"8","0,0116, ",,,,,"4.60"," ,0,0819, ","103","0,0815,+",,,"45.32"," ,0",,,"58.4","0","69.1","0","47.7","0"
"USC00234904","LEXINGTON 3 NE, MO US","39.1828","-93.8549","251.5","2007","1409",,"       32",,"         8","0","1","0,0216,+","6"," ,0,0121, ","5.8"," ,0,0121, ","2.44"," ,0,1018, ","102","0,0816, ",,,"36.35"," ,0","20.7"," ,0","55.4","0","65.8","0","44.9","0"
"US1MOFSA073","OWENSVILLE 0.5 S, MO US","38.3407","-91.4984","292.9","2007",,,,,"         0","N",,,,,"0.0"," ,N,1231,+","2.29"," ,N,1003, ",,,,,"32.89"," ,N","0.0"," ,N",,,,,,
"US1MOFSA071","UNION 0.8 NE, MO US","38.4562","-91.0013","164.0","2007",,,,,"         3","N",,,,,"6.0"," ,N,1217, ","1.50"," ,N,0331, ",,,,,"33.61"," ,N","14.0"," ,N",,,,,,
"US1MOFSA197","LANCASTER 0.2 SE, MO US","40.5209","-92.5269","287.1","2007",,,,,"         4","N",,,,,"2.0"," ,N,0214,+","5.75"," ,N,0824, ",,,,,"45.07"," ,N","8.2"," ,N",,,,,,
"US1MOFSA077","BROOKLINE 2.3 NNW, MO US","37.2032","-93.421","395.0","2007",,,,,"         2","N",,,,,"1.0"," ,N,0120,+","2.90"," ,N,0820, ",,,,,"44.06"," ,N","2.4"," ,N",,,,,,
"US1MOFSA195","MARSHALL 1.0 NNW, MO US","39.1282","-93.2083","242.0","2007",,,,,"         1","N",,,,,"5.0"," ,N,0213, ","3.41"," ,N,0507, ",,,,,"41.00"," ,N","5.0"," ,N",,,,,,
"US1MOFSA075","ALBANY 0.7 NE, MO US","40.2569","-94.3262","285.9","2007",,,,,"         9","N",,,,,"5.0"," ,N,1207, ","4.00"," ,N,0506, ",,,,,"39.36"," ,N","24.0"," ,N",,,,,,
"USC00230789","BOLIVAR 1 NE, MO US","37.6164","-93.3914","300.8","2007","1577",,,,,,"4","0,0116, ",,,,,"3.63"," ,0,0820, ","101","0,0817,+","4427","6","46.32"," ,0",,,"56.8","0","67.4","0","46.2","0"
"US1MOFSA069","KENNETT 0.8 N, MO US","36.2518","-90.0488","78.0","2007",,,,,"         1","N",,,,,"1.5"," ,N,0201, ","3.36"," ,N,1018, ",,,,,"42.62"," ,N","2.0"," ,N",,,,,,
"US1MOFSA067","AVA 0.8 NNW, MO US","36.964","-92.6714","401.1","2007",,,,,"         0","N",,,,,"0.0"," ,N,1231,+","1.96"," ,N,0701, ",,,,,"35.23"," ,N","0.0"," ,N",,,,,,
"US1MOFSA189","EDMUNDSON 0.7 NNW, MO US","38.7425","-90.3721","177.1","2007",,,,,"         0","N",,,,,"0.0"," ,N,1231,+","2.13"," ,N,0720, ",,,,,"27.23"," ,N","0.0"," ,N",,,,,,
"USC00236760","POLK 2 NE, MO US","37.7505","-93.2661","292.6","2007",,,,,,,,,,,,,"4.90"," ,0,0820, ",,,,,"44.77"," ,0",,,,,,,,
"US1MOWT0001","HARTVILLE 0.9 WSW, MO US","37.247","-92.52825","421.8","2007",,,,,"         1","N",,,,,"2.0"," ,N,0201, ","2.97"," ,N,0908, ",,,,,"45.71"," ,N","5.2"," ,N",,,,,,
"USC00235671","MOBERLY, MO US","39.4194","-92.4369","262.1","2007","1403",,,,"         7","0","-2","0,0204, ",,,"4.0"," ,0,1215,+","4.72"," ,0,0628, ","102","0,0815, ","4961","2","38.39"," ,0","23.6"," ,0","54.9","0","65.1","0","44.8","0"
"US1MOBN0020","HARRISBURG 5.9 SSE, MO US","39.058862","-92.437028","227.1","2007",,,,,"        13","N",,,,,"4.0"," ,N,1215,+","2.36"," ,N,0507, ",,,,,"37.42"," ,N","27.8"," ,N",,,,,,
"USC00231189","CALIFORNIA, MO US","38.62774","-92.55659","267.9","2007","1424",,,,"         6","0","0","0,0204, ",,,"4.0"," ,0,1216,+","2.45"," ,0,0610, ","102","0,0816,+","4845","8","38.87"," ,0","17.8"," ,0","55.3","0","65.2","0","45.4","0"
"USC00233369","GRANT CITY, MO US","40.486","-94.414","344.4","2007",,,,,,,,,,,,,,,,,"5755","1",,,,,,,,,,
"USC00234694","LAKESIDE, MO US","38.2043","-92.6232","179.8","2007",,,,,"         2","0",,,,,"4.0"," ,0,1216, ","1.74"," ,0,0611, ",,,"4169","1","35.59"," ,0","6.5"," ,0",,,,,,
"USC00235541","MEXICO, MO US","39.17131","-91.87179","231.6","2007",,,"       60",,"        14","0",,,"9"," ,0,0217,+","7.0"," ,0,0214, ","2.75"," ,0,0629, ","103","0,0816,+",,,"34.47"," ,0","35.0"," ,0",,,"65.9","0",,
"USC00237720","SHELBINA, MO US","39.68281","-92.04627","227.7","2007","1199",,"       61",,"        13","0","-7","0,0216, ","7"," ,0,0218,+","4.0"," ,0,1223,+","3.10"," ,0,0825, ","98","0,0812,+","5432","8","42.26"," ,0","29.5"," ,0","52.8","0","63.7","0","41.8","0"
"USC00237963","SPICKARD 7 W, MO US","40.2472","-93.7158","266.7","2007","1271",,,,"         5","0","-6","0,0216,+",,,"3.0"," ,0,1228,+","2.30"," ,0,0808,+","98","0,0808, ","5742","8","38.67"," ,0","12.0"," ,0","52.1","0","62.1","0","42.1","0"
"USC00235784","MORRISVILLE 2 SW, MO US","37.45952","-93.44303","317.0","2007",,,,,,,,,,,,,,,,,,,,,,,,,,,,
"US1MOFSA061","GALLATIN 1.1 WNW, MO US","39.916","-93.9825","268.8","2007",,,,,"         6","N",,,,,"6.0"," ,N,0121, ","3.47"," ,N,0507, ",,,,,"40.47"," ,N","17.5"," ,N",,,,,,
"US1MOFSA183","STATION PETERS 1.3 NNE, MO US","38.7956","-90.5967","160.0","2007",,,,,"         1","N",,,,,"6.8"," ,N,1216, ",,,,,,,,,"6.8"," ,N",,,,,,
"USC00231748","COLE CAMP 3 NW, MO US","38.48452","-93.2556","304.8","2007","1515",,"       37",,"         7","0","0","0,0117,+","8"," ,0,0121, ","6.0"," ,0,0121, ","2.53"," ,0,0628, ","102","0,0815,+",,,"39.84"," ,0","20.6"," ,0","55.9","0","67.1","0","44.7","0"
"US1MOFSA181","DONIPHAN 2.7 NE, MO US","36.6458","-90.782","157.9","2007",,,,,"         0","N",,,,,"0.0"," ,N,1231,+","3.70"," ,N,0213, ",,,,,"49.15"," ,N","0.0"," ,N",,,,,,
"US1MOFSA065","SALEM 1.8 NW, MO US","37.66047","-91.55348","344.1","2007",,,,,"         3","N",,,,,"3.0"," ,N,1216, ","2.49"," ,N,1113, ",,,,,"35.93"," ,N","7.4"," ,N",,,,,,
"US1MOFSA186","STE. GENEVIEVE 0.5 S, MO US","37.9672","-90.0495","129.8","2007",,,,,"         1","N",,,,,"1.5"," ,N,0201, ","3.02"," ,N,0705, ",,,,,"39.09"," ,N","1.5"," ,N",,,,,,
"USC00235307","MARSHFIELD 4 WSW, MO US","37.32342","-92.98286","431.0","2007","1655",,,,"         2","0","5","0,0116, ",,,"1.5"," ,0,0201, ","2.85"," ,0,0821, ","102","0,0815, ","4169","1","44.31"," ,0","4.2"," ,0","58.0","0","67.4","0","48.6","0"
"US1MOFSA187","FARMINGTON 1.5 WSW, MO US","37.76931","-90.4489","271.0","2007",,,,,"         2","N",,,,,"2.0"," ,N,1215, ","2.00"," ,N,0113, ",,,,,"34.33"," ,N","3.5"," ,N",,,,,,
"US1MOFSA063","MAYSVILLE 0.4 SSE, MO US","39.8817","-94.3591","291.1","2007",,,,,"         8","N",,,,,"5.5"," ,N,1223, ","4.60"," ,N,0507, ",,,,,"43.31"," ,N","29.2"," ,N",,,,,,
"US1MOFSA185","OSCEOLA 0.3 SW, MO US","38.0431","-93.7027","248.1","2007",,,,,"         0","N",,,,,"0.0"," ,N,1231,+","4.18"," ,N,0630, ",,,,,"37.76"," ,N","0.0"," ,N",,,,,,
"USC00230657","BILLINGS 1 SW, MO US","37.0538","-93.5756","399.3","2007",,,,,"         3","0","4","0,0131, ",,,"2.0"," ,0,0201,+",,,"104","0,0815,+",,,,,"5.0"," ,0","56.5","0","68.8","0","44.2","0"
