"STATION","NAME","LATITUDE","LONGITUDE","ELEVATION","DATE","CDSD","CDSD_ATTRIBUTES","DSND","DSND_ATTRIBUTES","DSNW","DSNW_ATTRIBUTES","EMNT","EMNT_ATTRIBUTES","EMSD","EMSD_ATTRIBUTES","EMSN","EMSN_ATTRIBUTES","EMXP","EMXP_ATTRIBUTES","EMXT","EMXT_ATTRIBUTES","HDSD","HDSD_ATTRIBUTES","PRCP","PRCP_ATTRIBUTES","SNOW","SNOW_ATTRIBUTES","TAVG","TAVG_ATTRIBUTES","TMAX","TMAX_ATTRIBUTES","TMIN","TMIN_ATTRIBUTES"
"USC00247248","RUDYARD 21 N, MT US","48.8539","-110.5969","914.4","2020","207",,,,,,"-34","7,0116, ",,,,,"0.90"," ,7,0907, ","101","7,0818, ",,,"10.04"," ,7",,,"41.8","7","55.7","7","27.8","7"
"USR0000MFOR","FORT BELKNAP MONTANA, MT US","48.3042","-108.7189","812.3","2020","477",,,,,,"-20","U,0115,+",,,,,,,"99","U,0817, ","7790","6",,,,,"46.1","U","57.4","U","34.8","U"
"USS0010D12S","MONUMENT PEAK, MT US","45.22","-110.24","2697.5","2020","6",,"      244",,,,"-18","T,1025, ","80"," ,T,0331, ",,,"1.20"," ,T,0523, ","85","T,0817, ","11107","7","40.11"," ,T",,,"36.2","T","47.6","T","24.9","T"
"USC00246157","NORRIS MADISON POWER HOUSE, MT US","45.4875","-111.6336","1446.3","2020","528",,"       60",,"        18","7","5","7,0211, ","8"," ,7,0203, ","7.0"," ,7,0412, ","1.25"," ,7,0616, ","97","7,0906,+","6447","9","15.07"," ,7","52.6"," ,7","49.6","7","60.1","7","39.1","7"
"USC00247247","RUDYARD 19 S, MT US","48.2774","-110.6022","877.2","2020","283",,,,,,"-24","7,0115, ",,,,,"0.80"," ,7,0920, ","101","7,0818, ","8877","7","8.40"," ,7",,,"42.6","7","57.0","7","28.2","7"
"USR0000MFOH","FORT HOWES MONTANA, MT US","45.2969","-106.1614","1030.2","2020","641",,,,,,"-13","U,1026, ",,,,,,,"104","U,0722, ","7532","4",,,,,"47.1","U","61.7","U","32.6","U"
"USS0011E38S","BEAVER CREEK, MT US","44.95","-111.36","2392.7","2020","0",,"      229",,,,"-12","T,0219, ","67"," ,T,0331, ",,,"1.10"," ,T,0628,+","82","T,0802, ","11540","4","34.12"," ,T",,,"34.4","T","46.3","T","22.4","T"
"USC00240739","BIDDLE, MT US","45.10074","-105.31856","1009.5","2020",,,,,,,,,,,,,"0.98"," ,7,0729, ",,,,,"8.75"," ,7",,,,,,,,
"USS0012E07S","DIVIDE, MT US","44.79","-112.06","2377.4","2020","18",,"      203",,,,"-5","T,1025, ","52"," ,T,0415, ",,,"2.50"," ,T,0616, ","86","T,0817, ","10576","6","24.12"," ,T",,,"37.4","T","47.8","T","26.9","T"
"USS0010D13S","LICK CREEK, MT US","45.5","-110.97","2090.9","2020",,,"      225",,,,,,"55"," ,T,0401, ",,,"1.00"," ,T,0523,+",,,,,"26.72"," ,T",,,,,,,,
"USR0000MFOU","FOUR MILE MONTANA, MT US","45.3333","-110.2167","1737.4","2020","263",,,,,,"-2","U,1025,+",,,,,,,"97","U,0817, ","7914","7",,,,,"45.3","U","57.5","U","33.0","U"
"US1MTGV0002","RYEGATE 0.3 E, MT US","46.298986","-109.247105","1112.2","2020",,,,,,,,,,,,,"1.73"," ,N,0629, ",,,,,"13.33"," ,N",,,,,,,,
"US1MTGV0008","JUDITH GAP 20.0 E, MT US","46.641699","-109.3367547","1579.5","2020",,,,,,,,,,,,,"0.80"," ,N,0411, ",,,,,"14.69"," ,N",,,,,,,,
"USS0009C01S","CRYSTAL LAKE, MT US","46.79","-109.51","1844.0","2020","45",,"      230",,,,"-5","T,0110, ","61"," ,T,0415, ",,,"2.20"," ,T,0506, ","86","T,0817, ","9673","7","38.34"," ,T",,,"40.0","T","51.4","T","28.6","T"
"USR0000MPAR","PARDEE MONTANA, MT US","47.2697","-114.9161","1414.3","2020","348",,,,,,"4","U,1025, ",,,,,,,"97","U,0816,+","7776","0",,,,,"45.4","U","54.0","U","36.8","U"
"USC00240743","BIDDLE 8 SW, MT US","45.0429","-105.4799","1106.7","2020","781",,,,,,"-9","7,0114, ",,,,,,,"104","7,0905, ","7143","5",,,,,"48.7","7","62.9","7","34.4","7"
"USS0011D28S","ALBRO LAKE, MT US","45.6","-111.96","2529.8","2020","9",,"      248",,,,"-10","T,1025, ","70"," ,T,0415, ",,,"1.40"," ,T,0907, ","80","T,0817, ","10836","2","32.09"," ,T",,,"36.7","T","46.3","T","27.1","T"
"USC00247263","RYEGATE 18 NNW, MT US","46.5333","-109.3441","1353.3","2020","241",,"       76",,"        36","7","-21","7,0116,+","12"," ,7,1019, ","8.5"," ,7,1019, ","1.35"," ,7,0629, ","96","7,0818, ","8509","4","15.67"," ,7","79.3"," ,7","43.5","7","57.5","7","29.5","7"
"USS0010C27S","ELK PEAK, MT US","46.48","-110.71","2316.5","2020","20",,"      229",,,,"-7","T,1025, ","77"," ,T,0411, ",,,"0.80"," ,T,0628, ","80","T,0817, ","10361","2","16.43"," ,T",,,"38.2","T","46.3","T","30.1","T"
"USS0010C15S","DAISY PEAK, MT US","46.67","-110.33","2316.5","2020","16",,"      236",,,,"-8","T,1025, ","56"," ,T,0411, ",,,"1.10"," ,T,0907,+","83","T,0905, ","10551","5","24.23"," ,T",,,"37.7","T","46.2","T","29.2","T"
"USC00245080","LIVINGSTON 12 S, MT US","45.4955","-110.559","1537.4","2020",,,"       79",,"        33","7",,,"11"," ,7,0210, ","9.0"," ,7,0331, ","1.04"," ,7,0523, ","94","7,0817, ","7421","7","14.52"," ,7","82.8"," ,7",,,"57.9","7",,
"USC00247265","SACO 1 NNW, MT US","48.4661","-107.3528","666.0","2020","260",,"      131",,"        10","7","-19","7,0116, ","8"," ,7,1110,+","7.8"," ,7,1109, ","1.09"," ,7,0628, ","97","7,0818, ","9051","4","10.91"," ,7","34.4"," ,7","41.7","7","54.3","7","29.0","7"
"USS0010C03S","PORCUPINE, MT US","46.11","-110.47","1981.2","2020","108",,"      184",,,,"-5","T,1025, ","25"," ,T,0331, ",,,"1.00"," ,T,0628, ","89","T,0817, ","8989","8","21.59"," ,T",,,"42.2","T","51.5","T","32.8","T"
"USS0010D24S","PLACER BASIN, MT US","45.42","-110.09","2691.4","2020","0",,"      244",,,,"-27","T,0204, ","75"," ,T,0415, ",,,"0.90"," ,T,0907, ","78","T,0817, ","12131","5","29.73"," ,T",,,"32.8","T","45.1","T","20.4","T"
"USS0012E08S","BEAGLE SPRINGS, MT US","44.47","-112.98","2697.5","2020","11",,"      198",,,,"-7","T,1025, ","43"," ,T,0416,+",,,"0.70"," ,T,1113, ","82","T,0817, ","10541","0","17.13"," ,T",,,"37.7","T","48.2","T","27.3","T"
"USC00247382","SAVAGE, MT US","47.4535","-104.33786","602.9","2020","673",,"       33",,"        11","7","-22","7,0213, ","6"," ,7,1022, ","5.5"," ,7,1022, ","1.12"," ,7,0630, ","102","7,0820, ","7419","9","10.44"," ,7","25.7"," ,7","47.2","7","61.1","7","33.3","7"
"USC00248239","TIZER GARDENS, MT US","46.3731","-112.0226","1424.0","2020",,,,,,,,,,,,,,,"95","7,0906,+","8610","3",,,,,,,"56.6","7",,
"USS0010D10S","SACAJAWEA, MT US","45.87","-110.93","1996.4","2020","18",,"      220",,,,"-6","T,1025, ","58"," ,T,0224, ",,,"1.70"," ,T,0606, ","86","T,0905,+","9210","9","43.42"," ,T",,,"41.0","T","51.0","T","30.9","T"
"USC00241722","CHINOOK, MT US","48.5884","-109.2266","737.6","2020",,,,,,,,,,,,,,,,,,,,,,,,,,,,
"USS0011E24S","TEPEE CREEK, MT US","44.79","-111.71","2438.4","2020","16",,"      208",,,,"-9","T,1025, ","49"," ,T,0317,+",,,"0.80"," ,T,0616, ","83","T,0802, ","10643","9","21.62"," ,T",,,"37.3","T","47.2","T","27.4","T"
"US1MTRV0007","CORVALLIS 4.2 ENE, MT US","46.320898","-114.025166","1305.2","2020",,,,,,,,,,,,,"1.16"," ,N,0520, ",,,,,"14.34"," ,N",,,,,,,,
"USC00240755","BIGFORK 13 S, MT US","47.87683","-114.03361","908.0","2020","320",,,,,,"9","7,1026, ",,,,,,,"96","7,0818,+","6616","7",,,,,"48.0","7","57.5","7","38.6","7"
"US1MTRV0005","FLORENCE 3.7 SE, MT US","46.60683","-114.0124","1085.1","2020",,,,,,,,,,,,,"1.17"," ,N,0520, ",,,,,"13.06"," ,N",,,,,,,,
"USC00240636","BELLTOWER, MT US","45.6946","-104.3856","985.7","2020",,,"       23",,"         7","7",,,"3"," ,7,0411,+","4.0"," ,7,0403, ","1.23"," ,7,0507, ",,,,,"9.44"," ,7","19.5"," ,7",,,,,,
"USR0000MTHO","THOMPSON FALLS AIRPORT MONTANA, MT US","47.5806","-115.285","749.8","2020","289",,,,,,"1","U,1025, ",,,,,,,"102","U,0816,+","6926","7",,,,,"47.2","U","59.6","U","34.8","U"
"USR0000MTIM","TIMBERCREST MONTANA, MT US","45.1569","-109.3606","1950.7","2020","77",,,,,,"-7","U,1025, ",,,,,,,"90","U,0905, ","9459","9",,,,,"40.7","U","52.5","U","29.0","U"
"US1MTCH0006","GERALDINE 12.0 E, MT US","47.5974478","-110.007517","962.3","2020",,,,,,,,,,,,,"0.81"," ,N,0908, ",,,,,"12.07"," ,N",,,,,,,,
"USR0000MWOL","WOLF MOUNTAIN MONTANA, MT US","45.3131","-107.1719","1590.1","2020","524",,,,,,"-9","U,0114, ",,,,,,,"96","U,0905,+","7414","8",,,,,"47.0","U","56.8","U","37.3","U"
"USC00248363","TRIDENT, MT US","45.9468","-111.4757","1230.2","2020","321",,"       61",,"        13","7","-11","7,1026, ","6"," ,7,1025,+","6.5"," ,7,1024, ","0.90"," ,7,0629, ","100","7,0905, ","7434","3","7.78"," ,7","31.5"," ,7","46.5","7","59.1","7","33.8","7"
"USR0000MRED","RED ROCK MONTANA, MT US","44.6833","-111.8333","2039.1","2020","19",,,,,,"-26","U,0220, ",,,,,,,"91","U,0817, ",,,,,,,"36.5","U","50.9","U","22.2","U"
"USC00247034","RIDGEWAY 1 S, MT US","45.5022","-104.4477","1010.7","2020","499",,"       70",,"        22","7","-19","7,0213,+","4"," ,7,0403,+","4.0"," ,7,0402, ","1.54"," ,7,0729, ","96","7,0723, ","8147","4","10.65"," ,7","34.9"," ,7","45.0","7","58.7","7","31.3","7"
"USS0010D35S","BRACKETT CREEK, MT US","45.89","-110.94","2231.1","2020","52",,"      235",,,,"-3","T,1025, ","71"," ,T,0325,+",,,"1.70"," ,T,0608,+","85","T,0905, ","9541","7","44.33"," ,T",,,"40.3","T","48.8","T","31.7","T"
"USR0000MBEN","BENCHMARK MONTANA, MT US","47.5","-112.9","1630.7","2020",,,,,,,"-16","U,0219, ",,,,,,,"90","U,0802, ","9644","0",,,,,"39.3","U","52.6","U","26.0","U"
"USS0015A12S","POORMAN CREEK, MT US","48.13","-115.62","1554.5","2020","44",,"      242",,,,"-2","T,0315, ","127"," ,T,0403, ",,,"1.90"," ,T,1105, ","87","T,0816, ","9179","3","75.86"," ,T",,,"40.8","T","48.3","T","33.4","T"
"USC00247159","ROGERS PASS 9 NNE, MT US","47.1901","-112.2901","1280.2","2020","191",,,,,,"-22","7,0114, ",,,,,"1.25"," ,7,0628, ","93","7,0816,+","8168","8","15.98"," ,7",,,"44.3","7","56.2","7","32.4","7"
"USC00241974","CONRAD, MT US","48.1737","-111.9502","1082.0","2020","259",,"       76",,"        19","7","-19","7,0115, ","10"," ,7,1024, ","8.0"," ,7,0314, ","1.78"," ,7,0608, ","95","7,0817, ","8226","3","13.57"," ,7","64.0"," ,7","44.5","7","57.4","7","31.5","7"
"USC00241730","CHINOOK 35 SE, MT US","48.1729","-109.0053","1024.1","2020","218",,,,,,"-26","7,0115, ",,,,,,,"95","7,0819,+",,,,,,,"42.8","7","56.0","7","29.5","7"
"USC00243915","HARDIN, MT US","45.7316","-107.6091","877.8","2020","634",,"       28",,"        12","7","-13","7,1027,+","5"," ,7,1025,+","5.0"," ,7,1024,+","1.02"," ,7,0617, ","103","7,0905, ","6731","5","10.54"," ,7","38.3"," ,7","48.7","7","64.6","7","32.8","7"
"USS0011E35S","BLACK BEAR, MT US","44.51","-111.13","2490.2","2020","4",,"      248",,,,"-12","T,0413, ","108"," ,T,0401, ",,,"1.30"," ,T,1113,+","82","T,0817, ","11039","8","49.96"," ,T",,,"36.2","T","46.7","T","25.7","T"
"USC00241737","CHOTEAU, MT US","47.8205","-112.1921","1172.0","2020","162",,"       46",,"        19","7","-19","7,0115, ","20"," ,7,0315, ","13.0"," ,7,0314, ","1.07"," ,7,0608, ","94","7,0817, ","7993","6","12.00"," ,7","78.6"," ,7","44.8","7","58.2","7","31.4","7"
"US1MTPK0005","WILSALL 0.3 NW, MT US","45.997345","-110.662224","1554.5","2020",,,,,,,,,,,,,,,,,,,"13.30"," ,N",,,,,,,,
"USC00241738","CHOTEAU 8 NE, MT US","47.864","-112.0222","1140.3","2020","220",,,,"        19","7","-21","7,0115, ",,,"9.4"," ,7,1017, ","0.98"," ,7,0820, ","97","7,0817, ","8324","6","11.66"," ,7","58.2"," ,7","44.5","7","57.4","7","31.6","7"
"USC00242827","EUREKA RANGER STATION, MT US","48.8978","-115.0644","771.8","2020","420",,"       30",,"        12","7","-3","7,0115, ","4"," ,7,1227,+","4.0"," ,7,1222, ","1.30"," ,7,0630, ","100","7,0802,+","6524","5","13.99"," ,7","23.0"," ,7","48.5","7","60.0","7","37.1","7"
"US1MTPK0007","LIVINGSTON 6.6 ESE, MT US","45.635694","-110.433056","1677.9","2020",,,,,,,,,,,,,"1.57"," ,N,0524, ",,,,,"24.13"," ,N",,,,,,,,
"USC00246236","OPHEIM 10 N, MT US","48.9988","-106.3799","877.2","2020",,,,,"        12","7",,,,,"5.5"," ,7,0224, ","0.80"," ,7,0628, ",,,,,"8.92"," ,7","31.8"," ,7",,,,,,
"USC00246238","OPHEIM 12 SSE, MT US","48.6955","-106.3154","894.9","2020","63",,"      158",,"        17","7","-33","7,0115, ","7"," ,7,1113,+","7.0"," ,7,1108, ","0.76"," ,7,0706, ","94","7,0818,+","11321","6","9.44"," ,7","39.3"," ,7","35.0","7","47.6","7","22.4","7"
"USS0010C23S","STRINGER CREEK, MT US","46.93","-110.9","1996.4","2020","7",,"      223",,,,"-12","T,1025, ","60"," ,T,0211, ",,,"1.30"," ,T,0628,+","87","T,0802, ","10398","6","29.94"," ,T",,,"37.7","T","50.9","T","24.5","T"
"USR0000MBCB","BC BALDY MONTANA, MT US","48.6333","-115.5833","1310.6","2020","320",,,,,,"2","U,1025,+",,,,,,,"100","U,0731, ","8209","5",,,,,"44.1","U","53.3","U","34.9","U"
"USS0011C04S","TIZER BASIN, MT US","46.35","-111.85","2097.0","2020","3",,"      197",,,,"-9","T,1025, ","34"," ,T,0415,+",,,"1.20"," ,T,0617, ","84","T,0905, ","10028","1","23.87"," ,T",,,"38.8","T","51.1","T","26.5","T"
"USS0015A03S","HAWKINS LAKE, MT US","48.97","-115.95","1966.0","2020",,,"      234",,,,,,"90"," ,T,0403, ",,,,,,,"10223","7",,,,,,,,,,
"US1MTPR0002","VOLBORG 18 SW, MT US","45.667811","-105.899022","1087.2","2020",,,,,,,,,,,,,"0.83"," ,N,0524, ",,,,,"14.61"," ,N",,,,,,,,
"USC00241905","COLSTRIP, MT US","45.8944","-106.6336","980.8","2020","614",,"       57",,"        25","7","-11","7,0115, ","6"," ,7,1215,+","4.5"," ,7,1017,+","0.80"," ,7,1020, ","101","7,0723, ","7522","0","11.76"," ,7","48.3"," ,7","46.7","7","59.4","7","34.1","7"
"US1MTPR0003","ASHLAND 11.9 E, MT US","45.60923","-106.068111","1048.5","2020",,,,,,,,,,,,,"0.60"," ,N,1017, ",,,,,"10.93"," ,N",,,,,,,,
"US1MTPR0001","BROADUS 18.8 NNW, MT US","45.66932","-105.62355","1061.9","2020",,,,,,,,,,,,,"0.77"," ,N,0827, ",,,,,"12.18"," ,N",,,,,,,,
"USC00244181","HINSDALE 21 SW, MT US","48.1279","-107.3111","722.1","2020",,,,,"        10","7",,,,,"8.0"," ,7,1109, ","1.10"," ,7,0907, ",,,,,"11.21"," ,7","24.3"," ,7",,,,,,
"USC00244180","HINSDALE 4 SW, MT US","48.34774","-107.15341","855.0","2020",,,,,"        10","7",,,,,"15.0"," ,7,1108, ","1.12"," ,7,0629, ",,,,,"12.03"," ,7","47.1"," ,7",,,,,,
"US1MTMD0003","SHERIDAN 1.4 ENE, MT US","45.46219722","-112.162525","1645.6","2020",,,,,,,,,,,,,"0.86"," ,N,0608, ",,,,,"9.06"," ,N",,,,,,,,
"USC00245153","LOMA, MT US","47.9363","-110.5024","785.8","2020","306",,,,,,"-15","7,0119, ",,,,,"1.22"," ,7,0607, ","101","7,0818, ","8103","6","15.03"," ,7",,,"45.1","7","60.7","7","29.5","7"
"US1MTPK0014","LIVINGSTON 0.9 WSW, MT US","45.658","-110.5817","1403.6","2020",,,,,,,,,,,,,"0.90"," ,N,1024,+",,,,,"12.71"," ,N",,,,,,,,
"USC00243098","FORSYTH, MT US","46.2721","-106.6755","766.6","2020","642",,"       54",,"        20","7","-10","7,0115,+","5"," ,7,0411, ","5.0"," ,7,0411, ","0.81"," ,7,0706, ","101","7,0613, ","7275","6","12.17"," ,7","37.4"," ,7","47.7","7","61.4","7","34.1","7"
"USS0010C22S","ONION PARK, MT US","46.91","-110.85","2258.6","2020","7",,"      235",,,,"-10","T,1025, ","65"," ,T,0211, ",,,"1.10"," ,T,0628, ","82","T,0802, ","10861","0","32.62"," ,T",,,"36.6","T","46.3","T","26.9","T"
"USS0010D31S","BOX CANYON, MT US","45.27","-110.25","2033.0","2020","77",,"      206",,,,"-6","T,1025, ","44"," ,T,0331, ",,,"1.00"," ,T,0523, ","90","T,0905, ","9029","1","24.82"," ,T",,,"41.8","T","53.3","T","30.4","T"
"USR0000MGLE","GLEASON MONTANA, MT US","47.8678","-112.6681","1585.0","2020","74",,,,,,"-17","U,0114,+",,,,,,,"92","U,0816, ","8906","6",,,,,"42.1","U","53.0","U","31.1","U"
"USS0011D11S","LOWER TWIN, MT US","45.51","-111.92","2407.9","2020","1",,"      250",,,,"-9","T,0204, ","70"," ,T,0415, ",,,"1.50"," ,T,0616, ","81","T,0802, ","10696","3","35.90"," ,T",,,"36.9","T","46.8","T","26.9","T"
"USS0011C02S","PICKFOOT CREEK, MT US","46.58","-111.27","2026.9","2020","45",,"      203",,,,"-10","T,0314, ","46"," ,T,0411, ",,,"1.10"," ,T,0629, ","84","T,0905, ","9375","5","30.53"," ,T",,,"40.9","T","49.7","T","32.0","T"
"USS0014A11S","GRAVE CREEK, MT US","48.91","-114.77","1310.6","2020","48",,"      209",,,,"0","T,0314, ","60"," ,T,0403, ",,,"1.90"," ,T,1105,+","92","T,0801, ","8935","8","48.81"," ,T",,,"41.3","T","52.1","T","30.5","T"
"USC00247220","ROUNDUP 15 SW, MT US","46.3254","-108.7402","1032.1","2020",,,,,,,,,,,,,,,,,,,,,,,,,,,,
"USC00247342","SAND CREEK, MT US","47.5775","-108.7283","887.0","2020","479",,,,"        12","7","-25","7,0115, ",,,"8.0"," ,7,1109, ","1.35"," ,7,0608, ","101","7,0818, ","7783","1","11.14"," ,7","28.0"," ,7","46.1","7","58.8","7","33.4","7"
"USC00248430","TWIN BRIDGES, MT US","45.5472","-112.326","1409.7","2020","128",,,,,,"-10","7,0316, ",,,,,"0.76"," ,7,0617, ","98","7,0905, ","8241","3","5.86"," ,7",,,"43.8","7","59.6","7","28.0","7"
"USC00245043","LINDBERGH LAKE, MT US","47.4083","-113.7125","1316.7","2020",,,,,,,,,,,,,,,,,"8659","6",,,,,,,,,,
"USC00245045","LINDSAY, MT US","47.22529","-105.15221","820.8","2020",,,"       54",,"        14","7",,,"4"," ,7,1022, ","4.0"," ,7,1022, ","1.33"," ,7,0907, ",,,,,"10.62"," ,7","27.6"," ,7",,,,,,
"USS0009D21S","BURNT MOUNTAIN, MT US","45.24","-109.46","1792.2","2020","167",,"      204",,,,"-3","T,0114, ","40"," ,T,0415, ",,,"2.10"," ,T,0907, ","92","T,0905, ","7960","2","28.06"," ,T",,,"45.1","T","56.3","T","34.0","T"
"USR0000MDEE","DEER MOUNTAIN WEST MONTANA, MT US","46.0278","-114.0553","2219.6","2020","86",,,,,,"-6","U,1025, ",,,,,,,"84","U,0731, ","10166","6",,,,,"38.4","U","46.1","U","30.6","U"
"USS0015A05S","GARVER CREEK, MT US","48.98","-115.82","1295.4","2020","34",,"      220",,,,"-5","T,1025, ","39"," ,T,0403, ",,,"1.00"," ,T,1105, ","91","T,0801, ","9292","0","26.34"," ,T",,,"40.2","T","51.0","T","29.4","T"
"USS0011C01S","BOULDER MOUNTAIN, MT US","46.56","-111.29","2423.2","2020","11",,"      241",,,,"-9","T,1025, ","77"," ,T,0411, ",,,"1.10"," ,T,0628,+","79","T,0802, ","10924","2","36.14"," ,T",,,"36.5","T","44.3","T","28.7","T"
"USS0011E31S","MADISON PLATEAU, MT US","44.59","-111.12","2362.2","2020","3",,"      231",,,,"-14","T,0219, ","74"," ,T,0403,+",,,"1.00"," ,T,0606,+","83","T,0817, ","10791","9","34.06"," ,T",,,"36.4","T","46.6","T","26.1","T"
"USR0000MBAP","BADGER PEAK MONTANA, MT US","45.6481","-106.5008","1322.8","2020",,,,,,,"-14","U,0114, ",,,,,,,"98","U,0817,+",,,,,,,"48.6","U","58.3","U","38.9","U"
"USR0000MDER","DERBY MOUNTAIN MONTANA, MT US","45.5842","-109.8517","2133.6","2020","255",,,,,,"-3","U,1025, ",,,,,,,"91","U,0817, ","8394","5",,,,,"44.0","U","52.5","U","35.3","U"
"USR0000MFIS","FISHTAIL MONTANA, MT US","45.4581","-109.5714","1386.8","2020","449",,,,,,"-8","U,0114, ",,,,,,,"99","U,0905, ","7311","5",,,,,"47.2","U","58.5","U","35.9","U"
"USS0014A12S","STAHL PEAK, MT US","48.91","-114.86","1837.9","2020",,,,,,,,,,,,,"3.90"," ,T,0521, ",,,,,"66.55"," ,T",,,,,,,,
"USC00244084","HERON 2 NW, MT US","48.08","-116.0014","682.8","2020","164",,"      132",,"        32","H","7","H,1025,+","19"," ,H,0117,+","9.7"," ,H,0106, ","1.48"," ,H,0107, ","96","H,0731, ","7127","6","32.95"," ,H","109.6"," ,H","46.0","H","56.6","H","35.5","H"
"USS0015C10S","HOODOO BASIN, MT US","46.98","-115.03","1844.0","2020","30",,"      266",,,,"0","T,1025, ","121"," ,T,0403, ",,,"1.40"," ,T,1013, ","85","T,0731, ","9813","7","62.07"," ,T",,,"38.9","T","45.6","T","32.3","T"
"USC00241938","COLUMBUS, MT US","45.6444","-109.2675","1097.9","2020","279",,"       90",,"        23","7","-14","7,1027, ","10"," ,7,1025, ","5.9"," ,7,1018, ","1.51"," ,7,0629, ","100","7,0906,+","7820","5","14.64"," ,7","62.5"," ,7","45.4","7","60.7","7","30.2","7"
"USS0011E30S","WHISKEY CREEK, MT US","44.61","-111.15","2072.6","2020","2",,"      224",,,,"-28","T,0220, ","55"," ,T,0403,+",,,"0.90"," ,T,1113,+","87","T,0817, ","10678","3","28.14"," ,T",,,"35.7","T","49.8","T","21.6","T"
"USC00248211","THOMPSON FALLS PH, MT US","47.5932","-115.3595","725.4","2020","400",,,,,,"6","7,1025, ",,,,,"1.23"," ,7,0630, ","101","7,0731, ","6663","7","21.16"," ,7",,,"48.2","7","59.1","7","37.3","7"
"USW00024132","BOZEMAN GALLATIN FIELD AIRPORT, MT US","45.788","-111.1608","1349.3","2020","220",,,,,,"-20","W,1026, ",,,,,"0.53"," ,W,0617, ","100","W,0905, ","8223","3","10.06"," ,W",,,"44.0","W","58.3","W","29.7","W"
"USR0000MROC","ROCKY BOY MONTANA, MT US","48.255","-109.7836","1158.2","2020","190",,,,,,"-21","U,0115, ",,,,,,,"97","U,0817, ","8173","8",,,,,"43.2","U","55.7","U","30.8","U"
"USR0000MBOO","BOORMAN MONTANA, MT US","48.1333","-114.7167","1207.9","2020","66",,,,,,"-13","U,1025, ",,,,,,,"96","U,0731, ","8969","0",,,,,"41.2","U","55.2","U","27.2","U"
"USR0000MEUR","EUREKA MONTANA, MT US","48.9","-115.0167","853.4","2020","355",,,,,,"-3","U,0115, ",,,,,,,"102","U,0731, ","7365","6",,,,,"46.8","U","58.0","U","35.6","U"
"USW00024137","CUT BANK AIRPORT, MT US","48.6033","-112.3752","1169.8","2020","174",,"       56",,,,"-22","W,0115, ","5"," ,W,1019,+",,,"0.87"," ,W,0629, ","97","W,0817, ","8875","6","8.08"," ,W",,,"42.6","W","54.9","W","30.3","W"
"USC00243727","GRASS RANGE, MT US","47.0256","-108.8035","1063.8","2020",,,,,,,,,,,,,,,,,"7575","5",,,,,,,,,,
"USW00024138","DILLON AIRPORT, MT US","45.2575","-112.5544","1585.0","2020","151",,"       40",,,,"-9","W,1026, ","6"," ,W,0101, ",,,"0.59"," ,W,0617, ","95","W,0802, ","8694","3","4.55"," ,W",,,"42.9","W","56.0","W","29.7","W"
"USW00024135","BUTTE BERT MOONEY AIRPORT, MT US","45.9647","-112.5006","1678.2","2020","78",,,,,,"-18","W,1026, ",,,,,"0.85"," ,W,0608, ","94","W,0802, ","9111","8","10.24"," ,W",,,"41.2","W","55.3","W","27.0","W"
"USR0000MTRY","TROY MONTANA, MT US","48.4667","-115.9167","594.4","2020","297",,,,,,"9","U,1025, ",,,,,,,"106","U,0731, ","6837","5",,,,,"47.7","U","59.7","U","35.7","U"
"USR0000MSQU","SHENANGO MONTANA, MT US","45.4511","-111.2189","1636.8","2020","269",,,,,,"-4","U,1025, ",,,,,,,"98","U,0905, ","7945","8",,,,,"45.3","U","58.4","U","32.2","U"
"US1MTDL0001","ANACONDA 7.4 NW, MT US","46.16611111","-113.0852778","1768.1","2020",,,,,"        36","N",,,,,"5.9"," ,N,0415, ","2.23"," ,N,0608, ",,,,,"26.05"," ,N","106.5"," ,N",,,,,,
"USR0000MMED","MEDICINE LAKE MONTANA, MT US","48.49","-104.4761","602.0","2020","398",,,,,,"-26","U,0115, ",,,,,,,"104","U,0819, ","8774","7",,,,,"42.4","U","56.3","U","28.6","U"
"US1MTLK0010","RONAN 4.1 NE, MT US","47.57335698","-114.04362759","1040.0","2020",,,,,,,,,,,,,"1.07"," ,N,1024, ",,,,,"24.43"," ,N",,,,,,,,
"USW00024144","HELENA AIRPORT ASOS, MT US","46.6056","-111.9636","1166.8","2020","489",,"       30",,"        11","W","-7","W,0115, ","11"," ,W,1024, ","8.9"," ,W,1024, ","0.75"," ,W,0519, ","100","W,0817, ","7293","7","9.89"," ,W","52.4"," ,W","47.4","W","59.7","W","35.0","W"
"USW00024143","GREAT FALLS AIRPORT, MT US","47.4733","-111.3822","1116.8","2020","291",,"       49",,"        19","W","-18","W,0115, ","10"," ,W,1019, ","8.2"," ,W,1018, ","2.05"," ,W,0629, ","99","W,0817, ","7903","4","14.46"," ,W","82.3"," ,W","45.5","W","58.4","W","32.5","W"
"USC00244820","LAKEVIEW, MT US","44.5994","-111.8125","2045.2","2020",,,,,,,,,,,,,"1.30"," ,7,0616, ",,,,,"12.32"," ,7",,,,,,,,
"US1MTDW0007","GLENDIVE 2.2 W, MT US","47.105261","-104.755056","641.9","2020",,,,,,,,,,,,,,,,,,,"10.28"," ,N",,,,,,,,
"US1MTSH0005","PLENTYWOOD 0.6 W, MT US","48.774815","-104.566993","623.0","2020",,,,,,,,,,,,,"0.78"," ,N,0718, ",,,,,"11.24"," ,N",,,,,,,,
"US1MTLK0015","BIGFORK 3.5 ESE, MT US","48.051086","-114.002952","933.0","2020",,,"       88",,"        27","N",,,"8"," ,N,1112, ","3.7"," ,N,1231,+","0.94"," ,N,0608, ",,,,,"26.41"," ,N","74.1"," ,N",,,,,,
"US1MTSH0003","OUTLOOK 5.6 WNW, MT US","48.9135","-104.8999","696.2","2020",,,,,,,,,,,,,"2.10"," ,N,0630, ",,,,,"12.74"," ,N",,,,,,,,
"USC00242409","DILLON U OF MONTANA WESTERN, MT US","45.209","-112.639","1563.3","2020",,,,,,,,,,,,,,,,,"8253","9",,,,,,,,,,
"USS0013D19S","DARKHORSE LAKE, MT US","45.17","-113.58","2621.3","2020",,,"      276",,,,,,"99"," ,T,0331, ",,,"1.90"," ,T,0206, ",,,,,"47.90"," ,T",,,,,,,,
"US1MTDW0002","GLENDIVE 16.9 WSW, MT US","46.992616","-105.024788","807.1","2020",,,,,,,,,,,,,"1.29"," ,N,0524, ",,,,,"10.07"," ,N",,,,,,,,
"USR0000MDRY","DRY BLOOD CREEK MONTANA, MT US","47.2442","-108.3575","914.4","2020","744",,,,,,"-15","U,0115, ",,,,,,,"100","U,0722, ","6799","2",,,,,"49.0","U","60.0","U","38.1","U"
"USR0000MSOD","SODA SPRINGS MONTANA, MT US","45.7289","-108.3967","1225.3","2020","754",,,,,,"-7","U,0114, ",,,,,,,"101","U,0905, ","6772","2",,,,,"49.3","U","59.7","U","38.9","U"
"USC00249048","WINNETT 6 NNE, MT US","47.083","-108.3163","873.3","2020",,,"       52",,"        13","7",,,"5"," ,7,1025,+","4.0"," ,7,1024, ","1.12"," ,7,0507, ",,,,,"10.52"," ,7","29.0"," ,7",,,,,,
"USR0000MCON","CONDON WORK CENTER MONTANA, MT US","47.5361","-113.7172","1122.9","2020","126",,,,,,"-7","U,1024, ",,,,,,,"98","U,0731, ","8193","8",,,,,"43.7","U","56.7","U","30.7","U"
"USC00244715","KNOBS 4 SW, MT US","45.8727","-104.1583","940.6","2020",,,,,,,,,,,,,"0.64"," ,7,0607, ",,,,,"10.45"," ,7",,,,,,,,
"USR0000MPIN","PINE HILL MONTANA, MT US","46.7769","-104.5797","807.4","2020","745",,,,,,"-20","U,0213, ",,,,,,,"103","U,0818, ","7483","4",,,,,"47.4","U","60.1","U","34.6","U"
"USW00094017","WOLF POINT INTERNATIONAL AIRPORT, MT US","48.09444","-105.57444","605.3","2020","486",,,,,,"-24","W,0115, ",,,,,"0.99"," ,W,0630, ","103","W,0818, ","8536","4","8.16"," ,W",,,"43.7","W","58.1","W","29.4","W"
"USS0010D07S","NORTHEAST ENTRANCE, MT US","45.01","-110.01","2240.3","2020","0",,"      205",,,,"-21","T,0204, ","38"," ,T,0406,+",,,"0.90"," ,T,1020,+","86","T,0817, ","10236","6","27.02"," ,T",,,"37.4","T","50.6","T","24.3","T"
"USS0009A01S","ROCKY BOY, MT US","48.17","-109.65","1432.6","2020","42",,"      189",,,,"-24","T,0114, ","33"," ,T,0314, ",,,"1.50"," ,T,0920, ","89","T,0824, ","9081","9","27.53"," ,T",,,"41.0","T","52.8","T","29.2","T"
"USW00094010","ST. MARIE, MT US","48.40849","-106.51487","835.5","2020",,,"      147",,"        13","7",,,"8"," ,7,1024,+","6.0"," ,7,1022, ","0.80"," ,7,0907, ",,,"8566","0","9.24"," ,7","29.1"," ,7",,,,,,
"USC00243753","GREAT FALLS WEATHER FORECAST OFFICE, MT US","47.4615","-111.385","1129.3","2020","349",,"       47",,"        19","7","-16","7,0115, ","10"," ,7,1019,+","8.2"," ,7,1018, ","1.90"," ,7,0629, ","97","7,0817, ","7753","4","13.07"," ,7","82.1"," ,7","46.0","7","57.7","7","34.4","7"
"USW00094012","HAVRE AIRPORT ASOS, MT US","48.5428","-109.7633","787.9","2020","414",,"       61",,"        13","W","-28","W,0115, ","9"," ,W,1109, ","8.0"," ,W,1108, ","0.64"," ,W,0920, ","101","W,0817, ","8304","6","9.42"," ,W","50.4"," ,W","44.6","W","57.5","W","31.6","W"
"USS0011E07S","WEST YELLOWSTONE, MT US","44.66","-111.09","2042.2","2020","8",,"      195",,,,"-29","T,0204, ","38"," ,T,0403,+",,,"0.90"," ,T,0606, ","92","T,0817, ","10090","6","23.96"," ,T",,,"37.5","T","53.6","T","21.3","T"
"USR0000MTPT","TEPEE POINT MONTANA, MT US","45.9347","-113.7383","2020.5","2020","144",,,,,,"-4","U,1025, ",,,,,,,"90","U,0731, ","9330","1",,,,,"41.0","U","49.7","U","32.2","U"
"USR0000MPHL","PHILIPSBURG MONTANA, MT US","46.3167","-113.3","1609.3","2020",,,,,,,"-7","U,1026, ",,,,,,,"92","U,0731, ","8624","2",,,,,"42.4","U","55.2","U","29.7","U"
"USC00249067","WISDOM, MT US","45.6177","-113.4513","1847.1","2020",,,,,,,,,,,,,,,,,"11028","5",,,,,,,,,,
"USC00249187","YAAK 9 NNE, MT US","48.9513","-115.6266","940.3","2020","72",,"      150",,,,"-5","7,1025,+","19"," ,7,0223, ",,,"0.72"," ,7,0520, ","96","7,0817,+","8540","6","20.48"," ,7",,,"41.9","7","54.9","7","28.9","7"
"USW00094008","GLASGOW INTERNATIONAL AIRPORT, MT US","48.2138","-106.6214","696.5","2020","606",,"       78",,"        10","W","-21","W,0115, ","6"," ,W,1112,+","6.2"," ,W,1108, ","1.94"," ,W,0520, ","103","W,0818, ","8148","7","12.41"," ,W","34.3"," ,W","45.2","W","57.3","W","33.2","W"
"USS0010C09S","DEADMAN CREEK, MT US","46.79","-110.68","1966.0","2020","0",,"      217",,,,"-17","T,1025, ","43"," ,T,0217,+",,,"1.00"," ,T,0629, ","83","T,0817, ","10661","6","22.73"," ,T",,,"36.8","T","50.0","T","23.5","T"
"USR0000MBLU","BLUFF CREEK MONTANA, MT US","48.8719","-106.9456","777.2","2020","306",,,,,,"-26","U,0114, ",,,,,,,"100","U,0818, ","9544","0",,,,,"40.2","U","53.2","U","27.2","U"
"USC00248498","VALENTINE, MT US","47.3391","-108.4992","885.4","2020","395",,,,,,"-26","7,0116, ",,,,,"0.66"," ,7,0629, ","100","7,0818,+","8408","1","10.68"," ,7",,,"44.5","7","58.8","7","30.2","7"
"USC00249103","WOLF POINT, MT US","48.0999","-105.6484","637.0","2020","702",,"       19",,"         4","7","-17","7,0116, ","5"," ,7,1022, ","5.0"," ,7,1022, ","1.20"," ,7,0630, ","100","7,0822,+","7313","6","9.82"," ,7","16.6"," ,7","47.0","7","59.6","7","34.3","7"
"USC00240775","BIG SKY 2 WNW, MT US","45.2774","-111.3252","2008.6","2020",,,,,,,,,,,,,,,,,,,,,,,,,,,,
"USC00241984","CONTENT 4 NNE, MT US","48.0802","-107.525","708.7","2020","406",,"       55",,"        17","7","-25","7,0113, ","11"," ,7,1110,+","7.0"," ,7,1108, ","1.00"," ,7,0907,+","104","7,0817, ","8720","7","11.02"," ,7","40.0"," ,7","43.5","7","57.8","7","29.2","7"
"USR0000MDPC","DEEP CREEK BFA MONTANA, MT US","48.3556","-113.1139","1627.6","2020","148",,,,,,"-20","U,0114,+",,,,,,,"85","U,0816,+","9238","1",,,,,"40.9","U","48.6","U","33.2","U"
"USC00248021","SUN RIVER 4 S, MT US","47.4773","-111.7375","1097.3","2020","165",,,,,,"-20","7,0115, ",,,,,"1.24"," ,7,0629, ","96","7,0818, ",,,"12.24"," ,7",,,"44.0","7","57.9","7","30.1","7"
"USR0000MMAC","MANNING CORRAL DOGTOWN MONTANA, MT US","47.7028","-108.4786","938.8","2020","591",,,,,,"-20","U,0114, ",,,,,,,"100","U,0817, ","7401","6",,,,,"47.0","U","57.6","U","36.4","U"
"USR0000MSMI","SMITH CREEK MONTANA, MT US","46.4394","-114.2272","1722.1","2020","232",,,,,,"1","U,1025, ",,,,,,,"90","U,0817,+","8321","6",,,,,"44.0","U","52.8","U","35.1","U"
"USS0010C08S","S FORK SHIELDS, MT US","46.09","-110.43","2468.9","2020","14",,"      237",,,,"-8","T,1025, ","48"," ,T,0415,+",,,"1.00"," ,T,0628,+","80","T,0905, ","10641","6","37.42"," ,T",,,"37.2","T","45.1","T","29.2","T"
"USC00240780","BIG TIMBER, MT US","45.8326","-109.9511","1249.7","2020","390",,"       33",,"        15","7","-8","7,0115, ","14"," ,7,1024, ","16.0"," ,7,1024, ","1.06"," ,7,0628, ","98","7,0905,+","6944","0","14.01"," ,7","71.5"," ,7","48.0","7","60.5","7","35.5","7"
"USC00241875","COHAGEN, MT US","47.05643","-106.61638","829.1","2020",,,"       44",,"        13","7",,,"6"," ,7,1109,+","5.8"," ,7,1108, ","1.05"," ,7,0907, ",,,,,"10.10"," ,7","32.2"," ,7",,,,,,
"USS0011D08S","CLOVER MEADOW, MT US","45.02","-111.85","2621.3","2020","3",,"      246",,,,"-11","T,1025, ","67"," ,T,0401,+",,,"1.40"," ,T,0206, ","78","T,0905, ","11528","3","29.89"," ,T",,,"35.1","T","44.3","T","25.8","T"
"USS0011E29S","CARROT BASIN, MT US","44.96","-111.29","2743.2","2020","1",,"      256",,,,"-15","T,1025, ","87"," ,T,0415, ",,,"1.40"," ,T,0521, ","78","T,0817, ","11669","8","42.13"," ,T",,,"34.6","T","44.2","T","25.0","T"
"USC00241758","CIRCLE, MT US","47.4122","-105.59547","755.9","2020",,,,,,,,,,,,,,,,,"7892","5",,,,,,,,,,
"USC00241518","CARLYLE 13 NW, MT US","46.74441","-104.30927","958.6","2020","502",,"       71",,"        25","7","-19","7,0213,+","8"," ,7,0403,+","7.0"," ,7,0401, ","0.98"," ,7,0524, ","100","7,0820, ","8599","2","12.42"," ,7","58.4"," ,7","44.0","7","55.3","7","32.8","7"
"USC00248390","TROY, MT US","48.4806","-115.9062","588.0","2020","367",,"       29",,"         8","7","4","7,1024, ","13"," ,7,0117,+","9.0"," ,7,0113, ",,,"104","7,0731, ","6557","8",,,"28.3"," ,7","48.6","7","61.7","7","35.6","7"
"USS0010D16S","SHOWER FALLS, MT US","45.4","-110.96","2468.9","2020","0",,"      265",,,,"-14","T,1025, ","97"," ,T,0331, ",,,"1.40"," ,T,0523, ","80","T,0905, ","11108","1","45.62"," ,T",,,"35.9","T","46.2","T","25.7","T"
"USC00249240","YELLOWTAIL DAM, MT US","45.3127","-107.9383","1007.4","2020",,,"       10",,"        10","7",,,"8"," ,7,1026,+","8.0"," ,7,1026,+","1.19"," ,7,0629, ",,,,,"12.80"," ,7","48.0"," ,7",,,,,,
"USW00024153","MISSOULA INTERNATIONAL AIRPORT, MT US","46.9208","-114.0925","972.9","2020","309",,"       47",,"        15","W","-7","W,1025, ","13"," ,W,1024, ","8.4"," ,W,1023, ","0.97"," ,W,0629, ","100","W,0817,+","7249","2","14.03"," ,W","44.7"," ,W","46.4","W","58.8","W","34.1","W"
"USW00024033","BILLINGS INTERNATIONAL AIRPORT, MT US","45.8069","-108.5422","1091.5","2020","735",,"       57",,"        20","W","-11","W,0115, ","9"," ,W,1019, ","5.2"," ,W,1017, ","1.10"," ,W,0629, ","102","W,0905, ","6883","8","13.27"," ,W","60.5"," ,W","49.1","W","60.6","W","37.6","W"
"USW00024154","MULLAN PASS VOR DME, ID US","47.45694","-115.645","1837.3","2020","95",,,,,,"0","W,1025, ",,,,,"1.63"," ,W,1105, ","86","W,0731, ","9977","7","49.39"," ,W",,,"38.9","W","45.2","W","32.6","W"
"USC00241883","COHAGEN 22 SE, MT US","46.86294","-106.23902","873.3","2020",,,"       49",,"        16","7",,,"7"," ,7,0318, ","6.0"," ,7,1109, ","1.06"," ,7,0507, ",,,,,"11.15"," ,7","36.0"," ,7",,,,,,
"USW00024150","LIVINGSTON AIRPORT, MT US","45.6983","-110.4408","1415.2","2020","324",,,,,,"-9","W,0115, ",,,,,"0.85"," ,W,0523, ","102","W,0905, ","7319","4","11.13"," ,W",,,"46.8","W","60.2","W","33.5","W"
"USS0011D19S","LONE MOUNTAIN, MT US","45.27","-111.43","2706.6","2020","9",,"      248",,,,"-14","T,1025, ","74"," ,T,0331, ",,,"1.20"," ,T,0707, ","81","T,0817, ","10782","1","33.31"," ,T",,,"36.8","T","46.2","T","27.4","T"
"USR0000MHUN","HUNGRY HORSE MONTANA, MT US","48.3847","-114.0575","983.0","2020",,,,,,,,,,,,,,,,,"7830","0",,,,,,,,,,
"USR0000MBIG","BIGHORN MOUNTAIN MONTANA, MT US","45.0733","-107.8886","2218.9","2020","46",,,,,,"-11","U,1025, ",,,,,,,"81","U,0824,+","10495","5",,,,,"37.4","U","45.0","U","29.9","U"
"USC00243947","HARLOWTON 11 NW, MT US","46.5786","-109.9477","1510.0","2020","169",,"       54",,"        14","7","-15","7,1025,+","11"," ,7,1024, ","8.0"," ,7,1024, ","0.84"," ,7,0522,+","95","7,0905,+","8557","2","11.07"," ,7","49.6"," ,7","42.9","7","55.7","7","30.0","7"
"USC00241525","CARTER 14 W, MT US","47.7921","-111.2204","1051.6","2020","277",,,,,,"-19","7,0115, ",,,,,"1.54"," ,7,0624, ","100","7,0817, ","8231","7","14.45"," ,7",,,"44.7","7","57.4","7","31.9","7"
"USW00024036","LEWISTOWN AIRPORT, MT US","47.0492","-109.4578","1263.4","2020","238",,"       74",,,,"-16","W,0115, ","14"," ,W,1110,+",,,"0.81"," ,W,0629, ","97","W,0905, ","8541","0","14.24"," ,W",,,"43.8","W","56.4","W","31.1","W"
"USC00242857","FAIRFIELD, MT US","47.6151","-111.9861","1214.0","2020","292",,,,,,"-14","7,0115,+",,,,,,,"94","7,0817, ","8096","0",,,,,"45.1","7","55.8","7","34.4","7"
"USW00024037","MILES CITY AIRPORT, MT US","46.4266","-105.8825","799.8","2020","708",,,,,,"-14","W,0114, ",,,,,"0.90"," ,W,0507, ","102","W,0722, ","7594","9","10.80"," ,W",,,"47.1","W","60.1","W","34.1","W"
"USR0000MFRE","FRENCH CREEK MONTANA, MT US","45.33","-112.9128","2262.2","2020","67",,,,,,"-6","U,1025, ",,,,,,,"87","U,0905, ","10012","2",,,,,"39.5","U","50.3","U","28.8","U"
"USC00243707","GRANT 5 SE, MT US","44.96546","-113.00404","1761.7","2020",,,"       96",,"        10","7",,,"9"," ,7,0209,+","5.0"," ,7,1108, ","0.73"," ,7,0617, ",,,,,"6.82"," ,7","31.5"," ,7",,,,,,
"USR0000MWSS","WHITE SULPHUR SPRING MONTANA, MT US","46.5344","-110.8853","1542.3","2020","201",,,,,,"-14","U,1026, ",,,,,,,"93","U,0802, ","7917","2",,,,,"44.1","U","56.0","U","32.2","U"
"USC00248165","TERRY, MT US","46.794","-105.3021","685.8","2020","719",,"       27",,,,"-22","7,0213, ","4"," ,7,0211,+",,,,,"103","7,0723, ","7462","4","9.20"," ,7",,,"46.7","7","60.0","7","33.4","7"
"USS0010C06S","SPUR PARK, MT US","46.78","-110.62","2468.9","2020","5",,"      250",,,,"-13","T,1025, ","81"," ,T,0411, ",,,"1.10"," ,T,0629, ","78","T,0905, ","11488","1","31.53"," ,T",,,"35.0","T","43.6","T","26.3","T"
"USS0010D39S","EAST BOULDER MINE, MT US","45.5","-110.08","1930.9","2020","66",,"      201",,,,"-2","T,0204, ","39"," ,T,0325, ",,,"1.50"," ,T,0523, ","89","T,0817, ","8745","2","26.73"," ,T",,,"42.4","T","53.9","T","30.8","T"
"USR0000MENN","ENNIS MONTANA, MT US","45.35","-111.7344","1505.4","2020","189",,,,,,"-7","U,1025, ",,,,,,,"99","U,0905, ","7918","9",,,,,"44.7","U","58.1","U","31.2","U"
"USS0011E39S","SHORT CREEK, MT US","44.98","-111.95","2133.6","2020","58",,"      184",,,,"-1","T,1025, ","31"," ,T,0331, ",,,"1.60"," ,T,0616, ","88","T,0817, ",,,"16.42"," ,T",,,"41.6","T","52.8","T","30.4","T"
"USS0011E03S","LAKEVIEW RIDGE, MT US","44.59","-111.82","2255.5","2020","22",,"      185",,,,"-6","T,0219,+","35"," ,T,0401,+",,,"1.90"," ,T,0616, ","86","T,0817, ","9884","4","20.93"," ,T",,,"39.3","T","51.4","T","27.2","T"
"USC00242629","EAST GLACIER, MT US","48.4472","-113.2236","1464.9","2020",,,,,,,,,,,,,,,,,"9825","6",,,,,,,,,,
"USS0012D09S","BASIN CREEK, MT US","45.8","-112.52","2188.5","2020","33",,"      208",,,,"0","T,0204, ","35"," ,T,0415, ",,,"1.50"," ,T,0617, ","85","T,0802, ","9789","5","17.93"," ,T",,,"39.6","T","49.7","T","29.4","T"
"USC00247800","SPRINGDALE, MT US","45.73833","-110.2243","1290.8","2020","289",,"       64",,"        19","7","-14","7,0115, ","16"," ,7,1026,+","14.0"," ,7,1024, ","1.23"," ,7,1108, ","98","7,0818, ","7735","2","13.15"," ,7","60.8"," ,7","45.6","7","58.6","7","32.7","7"
"USC00244896","LAURIN 2 NE, MT US","45.3674","-112.0965","1584.4","2020","219",,,,"        10","7","-4","7,1025, ",,,"4.6"," ,7,0415, ","0.60"," ,7,0616, ","93","7,0905, ","8241","2","6.37"," ,7","28.8"," ,7","44.7","7","56.8","7","32.5","7"
"USC00240056","ADEL, MT US","47.0091","-111.6741","1529.2","2020","59",,,,,,"-21","7,0113, ",,,,,,,"89","7,0817,+","9398","1","14.36"," ,7",,,"41.4","7","52.5","7","30.3","7"
"USC00245740","MISSOULA 6 NW WEATHER FORECAST OFFICE, MT US","46.9244","-114.0911","974.4","2020","381",,"       45",,"        15","7","-4","7,1025, ","10"," ,7,1024, ","8.4"," ,7,1023, ","0.99"," ,7,0629, ","102","7,0731, ","7088","6","14.73"," ,7","44.4"," ,7","47.0","7","58.8","7","35.3","7"
"USC00244538","JUDITH GAP, MT US","46.67778","-109.75056","1411.2","2020",,,,,,,,,,,,,,,,,"8942","8",,,,,,,,,,
"USS0013C36S","PETERSON MEADOWS, MT US","46.13","-113.31","2194.6","2020","0",,"      221",,,,"-13","T,0219, ","45"," ,T,0415,+",,,"1.20"," ,T,0617, ","83","T,0904, ","10527","5","25.63"," ,T",,,"37.1","T","49.2","T","25.0","T"
"USS0013A19S","FLATTOP MOUNTAIN, MT US","48.8","-113.86","1920.2","2020","7",,"      275",,,,"-14","T,0315, ","143"," ,T,0403, ",,,"1.90"," ,T,1104, ","84","T,0801, ","11034","1","78.26"," ,T",,,"35.9","T","44.7","T","27.0","T"
"USR0000MGAL","GALENA MONTANA, MT US","46.2222","-112.2292","2090.9","2020","148",,,,,,"-9","U,0314, ",,,,,,,"91","U,0905, ","9301","3",,,,,"41.2","U","51.2","U","31.2","U"
"USR0000MKIN","KING COULEE MONTANA, MT US","47.7981","-107.0233","841.2","2020","695",,,,,,"-16","U,0115, ",,,,,,,"98","U,0818,+","7213","2",,,,,"47.5","U","57.3","U","37.7","U"
"USC00245754","MIZPAH 4 NNW, MT US","46.2858","-105.2919","755.9","2020","670",,"       33",,"         9","7","-23","7,0115, ","3"," ,7,0413,+","4.0"," ,7,0411, ","1.10"," ,7,0630, ","103","7,0722, ","7170","4","10.20"," ,7","22.2"," ,7","46.7","7","62.5","7","31.0","7"
"USC00246601","PLEVNA, MT US","46.4177","-104.5163","847.3","2020","557",,"       68",,"        13","7","-29","7,0213, ","5"," ,7,0225, ","3.2"," ,7,0401,+","1.21"," ,7,0507, ","99","7,0818, ","8111","3","12.48"," ,7","29.7"," ,7","45.2","7","59.2","7","31.1","7"
"USC00244302","HOYT 2 WSW, MT US","46.9191","-104.8966","648.3","2020",,,"       48",,"        10","7",,,"4"," ,7,1024,+","4.0"," ,7,1022, ","0.78"," ,7,0524, ",,,,,"7.89"," ,7","19.4"," ,7",,,,,,
"USC00245870","MOORHEAD 9 NE, MT US","45.1758","-105.7516","981.5","2020","632",,"       36",,"         9","7","-9","7,1025,+","3"," ,7,1026,+","3.0"," ,7,0402, ","0.63"," ,7,0630, ","102","7,0722, ","7518","8","7.54"," ,7","23.5"," ,7","47.2","7","61.9","7","32.4","7"
"USC00242122","CULBERTSON, MT US","48.15018","-104.50889","591.3","2020","473",,"       89",,"        11","7","-24","7,0213,+","5"," ,7,1112,+","3.0"," ,7,0401, ","0.96"," ,7,0705, ","102","7,0818, ","8017","8","8.53"," ,7","20.5"," ,7","44.0","7","58.9","7","29.2","7"
"USC00245872","MOSBY 4 ENE, MT US","47.02195","-107.82244","887.0","2020",,,,,,,,,,,,,,,,,"7075","5",,,,,,,,,,
"USS0013C01S","STUART MOUNTAIN, MT US","47.0","-113.93","2255.5","2020","18",,"      265",,,,"-5","T,1025, ","107"," ,T,0415, ",,,"1.40"," ,T,0411, ","80","T,0731, ","10492","9","50.74"," ,T",,,"37.3","T","44.4","T","30.2","T"
"USS0013D10S","BLOODY DICK, MT US","45.17","-113.5","2316.5","2020","7",,"      220",,,,"-11","T,0204, ","53"," ,T,0331, ",,,"1.50"," ,T,1016, ","85","T,0731, ","10336","5","25.45"," ,T",,,"37.7","T","49.4","T","26.1","T"
"USS0013C13S","BLACK PINE, MT US","46.41","-113.43","2197.6","2020","62",,"      214",,,,"-5","T,1025, ","40"," ,T,0415, ",,,"0.90"," ,T,0616, ","84","T,0904, ",,,"24.82"," ,T",,,"40.0","T","48.6","T","31.5","T"
"USR0000MPRY","PRYOR MOUNTAIN MONTANA, MT US","45.3375","-108.4908","1885.5","2020","327",,,,,,"-4","U,1025, ",,,,,,,"93","U,0722, ","8624","1",,,,,"43.7","U","53.4","U","34.1","U"
"USS0014D02S","NEZ PERCE CAMP, MT US","45.73","-114.48","1722.1","2020","18",,"      214",,,,"-2","T,0115, ","60"," ,T,0208, ",,,"1.10"," ,T,1018,+","88","T,0731, ","9141","4","36.23"," ,T",,,"40.4","T","51.9","T","28.8","T"
"USC00241164","BROCKTON 20 S, MT US","47.8711","-104.9005","722.4","2020",,,"       70",,"         8","7",,,"6"," ,7,1023, ","3.5"," ,7,1022, ","1.19"," ,7,0630, ",,,,,"12.94"," ,7","28.0"," ,7",,,,,,
"USC00240075","ALBERTON, MT US","47.0036","-114.4781","932.7","2020","297",,"      100",,"        21","7","0","7,0116, ","12"," ,7,1024, ","11.6"," ,7,1024, ","1.75"," ,7,0630, ","102","7,0801, ","7428","9","21.17"," ,7","65.0"," ,7","47.3","7","61.4","7","33.2","7"
"USC00243581","GLENDIVE, MT US","47.1059","-104.71759","632.5","2020",,,"       36",,"        13","7",,,"4"," ,7,1022,+","4.0"," ,7,1022, ","1.30"," ,7,0907, ",,,,,"10.15"," ,7","22.9"," ,7",,,,,,
"USC00243346","GALATA 16 SW, MT US","48.2922","-111.5682","1082.0","2020",,,,,"        19","7",,,,,"12.0"," ,7,0314, ","1.39"," ,7,0629, ",,,,,"13.25"," ,7","61.1"," ,7",,,,,,
"USS0012C22S","NEVADA RIDGE, MT US","46.84","-112.51","2139.7","2020","35",,"      232",,,,"-15","T,0315, ","55"," ,T,0403, ",,,"1.40"," ,T,0629, ","82","T,0802, ","10224","1","28.42"," ,T",,,"38.4","T","46.5","T","30.3","T"
"USC00241047","BOZEMAN 6 W EXPERIMENTAL FARM, MT US","45.6729","-111.1547","1455.4","2020","253",,,,,,"-14","7,1026, ",,,,,"0.97"," ,7,0607, ","97","7,0905, ","7719","1","11.45"," ,7",,,"45.5","7","57.8","7","33.2","7"
"USR0000MLIB","LIBBY MONTANA, MT US","48.3833","-115.5667","630.9","2020","365",,,,,,"2","U,1025, ",,,,,,,"104","U,0801,+","6970","0",,,,,"47.5","U","59.9","U","35.0","U"
"USC00241044","BOZEMAN MONTANA STATE UNIVERSITY, MT US","45.6621","-111.0463","1497.5","2020","268",,"      120",,"        31","7","-9","7,1026, ","12"," ,7,0216,+","7.0"," ,7,1024, ","0.65"," ,7,0617, ","93","7,0905, ","7911","8","14.81"," ,7","93.9"," ,7","45.2","7","57.3","7","33.0","7"
"USC00241169","BROCKWAY 3 WSW, MT US","47.2876","-105.8299","801.6","2020","468",,"       26",,"        11","7","-27","7,0213, ","4"," ,7,1112,+","3.5"," ,7,1025, ","1.31"," ,7,0907, ","100","7,0817,+","8062","9","11.73"," ,7","21.3"," ,7","44.9","7","57.6","7","32.2","7"
"USC00244558","KALISPELL GLACIER AIRPORT, MT US","48.3042","-114.2636","901.3","2020","146",,"       75",,"        24","W","-1","W,0114, ","7"," ,W,1231, ","7.2"," ,W,1023, ","0.89"," ,W,0607, ","97","W,0731, ","7705","7","18.13"," ,W","59.4"," ,W","44.5","W","56.6","W","32.3","W"
"USW00004140","LEWISTOWN 42 WSW, MT US","46.8847","-110.2895","1545.3","2020","47",,,,,,"-16","R,0114, ",,,,,"0.94"," ,R,0629, ","92","R,0905, ","9347","8","13.87"," ,R",,,"41.1","R","54.5","R","27.6","R"
"USC00246615","POLEBRIDGE, MT US","48.7647","-114.2842","1072.9","2020","24",,,,,,"-17","H,0316, ",,,,,,,"94","H,0818,+","9436","0",,,,,"38.7","H","54.0","H","23.3","H"
"USS0013C38S","LUBRECHT FLUME, MT US","46.88","-113.32","1426.5","2020","87",,"      173",,,,"-2","T,1025, ","19"," ,T,0215,+",,,"1.40"," ,T,0608, ","92","T,0801, ","8092","5","25.12"," ,T",,,"43.6","T","54.6","T","32.5","T"
"USR0000MJET","JETTE MONTANA, MT US","47.7669","-114.2347","1097.3","2020","412",,,,,,"6","U,1026,+",,,,,,,"98","U,0817, ","7337","9",,,,,"46.8","U","56.4","U","37.1","U"
"USS0013C39S","DALY CREEK, MT US","46.18","-113.85","1761.7","2020","16",,"      194",,,,"-4","T,1025, ","41"," ,T,0217, ",,,"1.20"," ,T,0628, ","89","T,0731, ","9247","3","30.86"," ,T",,,"40.1","T","50.9","T","29.4","T"
"USR0000MLIT","LITTLE BULLWACKER CREEK MONTAN, MT US","47.8139","-109.0167","944.9","2020","670",,,,,,"-18","U,0115, ",,,,,,,"102","U,0817, ","7331","8",,,,,"47.6","U","58.2","U","36.9","U"
"USR0000MLIS","LITTLE SNOWY MONTANA, MT US","46.7511","-109.0233","1516.4","2020",,,,,,,"-16","U,0114, ",,,,,,,"95","U,0817, ","8718","5",,,,,"42.9","U","55.9","U","29.9","U"
"USR0000MLIH","LITTLE BIGHORN MONTANA, MT US","45.5697","-107.4358","1036.3","2020","772",,,,,,"-8","U,0114, ",,,,,,,"104","U,0905, ",,,,,,,"49.2","U","63.0","U","35.5","U"
"USC00243110","FORT ASSINIBOINE, MT US","48.4982","-109.8014","815.3","2020","413",,,,,,"-24","7,0116,+",,,,,"0.94"," ,7,0907, ","99","7,0818, ","8391","8","10.29"," ,7",,,"44.2","7","56.8","7","31.7","7"
"USR0000MPPH","PORPHYRY MONTANA, MT US","46.8353","-110.7175","2509.1","2020",,,,,,,,,,,,,,,,,"11951","5",,,,,,,,,,
"USW00004137","DILLON 18 WSW, MT US","45.158","-113.0057","1820.0","2020","49",,,,,,"-19","R,0220, ",,,,,"0.56"," ,R,0617, ","93","R,0905, ","9993","6","7.60"," ,R",,,"39.0","R","53.8","R","24.2","R"
"USS0012C11S","ROCKER PEAK, MT US","46.36","-112.26","2438.4","2020","4",,"      240",,,,"-8","T,1025, ","58"," ,T,0415, ",,,"1.10"," ,T,0617, ","81","T,0905, ","11155","4","27.61"," ,T",,,"35.8","T","45.0","T","26.7","T"
"USC00241297","BUSBY, MT US","45.5397","-106.9597","1045.5","2020","492",,"       74",,"        20","7","-14","7,1026, ","5"," ,7,1019,+","7.0"," ,7,1019, ","0.72"," ,7,1017, ","103","7,0905, ","7716","9","11.37"," ,7","45.4"," ,7","46.3","7","62.1","7","30.5","7"
"USC00243113","FORT BENTON, MT US","47.8304","-110.6611","807.4","2020","423",,"       48",,"        13","7","-13","7,0118,+","9"," ,7,0315, ","8.1"," ,7,0314, ","1.19"," ,7,0630,+","102","7,0818, ","7740","3","14.40"," ,7","60.2"," ,7","46.4","7","60.6","7","32.2","7"
"USC00246862","RAPELJE, MT US","45.9718","-109.2537","1239.9","2020","368",,"       41",,"        21","7","-14","7,0116,+","14"," ,7,1018, ","12.8"," ,7,1018, ","3.27"," ,7,0629, ","100","7,0906, ","7754","8","19.34"," ,7","84.1"," ,7","45.6","7","58.9","7","32.3","7"
"USC00243118","FORT BELKNAP 2 SW, MT US","48.4627","-108.7791","770.2","2020",,,"       63",,"         8","7",,,"7"," ,7,1116,+","7.0"," ,7,1109, ","1.14"," ,7,0607, ","97","7,0731,+",,,"12.11"," ,7","30.4"," ,7",,,"55.7","7",,
"USC00244328","HUNGRY HORSE DAM, MT US","48.3426","-114.0217","963.2","2020","339",,"      106",,"        48","7","-1","7,0314, ","18"," ,7,0120,+","9.0"," ,7,1110, ","1.50"," ,7,0625, ","95","7,0817, ","7616","2","40.79"," ,7","103.3"," ,7","45.7","7","55.1","7","36.2","7"
"USC00248809","WEST GLACIER, MT US","48.5002","-113.9847","959.5","2020","286",,"      177",,"        49","7","-1","7,0113, ","27"," ,7,0114,+","9.5"," ,7,0113, ","1.10"," ,7,0608, ","92","7,0818,+","7767","3","32.30"," ,7","138.1"," ,7","46.6","7","56.4","7","36.8","7"
"USW00004130","ST. MARY 1 SSW, MT US","48.7412","-113.433","1388.4","2020","32",,,,,,"-24","R,0115, ",,,,,"1.20"," ,R,0629, ","86","R,0817,+","9555","2","29.34"," ,R",,,"40.3","R","49.9","R","30.6","R"
"USS0013C03S","SKALKAHO SUMMIT, MT US","46.24","-113.77","2209.8","2020","8",,"      235",,,,"-8","T,1025, ","69"," ,T,0216, ",,,"1.50"," ,T,0628, ","85","T,0731, ","10399","0","42.16"," ,T",,,"37.5","T","47.9","T","27.0","T"
"USR0000MARM","ARMELLS CREEK MONTANA, MT US","47.5867","-108.8694","867.2","2020","637",,,,,,"-17","U,0115, ",,,,,,,"101","U,0817,+","7134","2",,,,,"47.7","U","60.0","U","35.5","U"
"USS0013B07S","NORTH FORK JOCKO, MT US","47.27","-113.76","1929.4","2020","9",,"      264",,,,"-13","T,1025, ","133"," ,T,0403, ",,,"2.30"," ,T,1018, ","84","T,0731, ","10160","4","75.87"," ,T",,,"37.8","T","48.9","T","26.6","T"
"US1MTGR0006","CUT BANK 0.3 NNW, MT US","48.638756","-112.331396","1143.3","2020",,,,,"        19","N",,,,,"11.0"," ,N,0314, ","1.29"," ,N,0521, ",,,,,"11.98"," ,N","73.4"," ,N",,,,,,
"USC00242550","DUNKIRK 19 NNE, MT US","48.7166","-111.4757","1012.9","2020","238",,"       70",,"        16","7","-31","7,0116,+","10"," ,7,1113,+","7.2"," ,7,1109, ","1.29"," ,7,0630, ","99","7,0818, ","9288","0","10.39"," ,7","42.0"," ,7","41.3","7","55.0","7","27.5","7"
"USC00243885","HAMILTON, MT US","46.24622","-114.16794","1092.7","2020",,,,,,,,,,,,,,,,,"7421","7","17.15"," ,7",,,,,,,,
"USC00241102","BRIDGER 2 N, MT US","45.3261","-108.9091","1092.1","2020","406",,"       55",,"        16","7","-5","7,0116,+","9"," ,7,0215,+","4.0"," ,7,1108, ","1.11"," ,7,0618, ","105","7,0906, ","7621","2","11.29"," ,7","33.5"," ,7","46.1","7","60.8","7","31.5","7"
"USC00242793","ENNIS, MT US","45.3394","-111.7122","1509.7","2020","117",,"       70",,"        13","7","-11","7,1026, ","8"," ,7,0212,+","4.0"," ,7,0315, ","1.63"," ,7,0724, ","96","7,0906, ","8172","9","10.13"," ,7","36.4"," ,7","43.6","7","58.0","7","29.3","7"
"USC00241342","BYNUM 4 SSE, MT US","47.9262","-112.2919","1231.1","2020","215",,"       55",,"        20","7","-20","7,0116, ","15"," ,7,1026,+","12.0"," ,7,0314, ","1.40"," ,7,0630, ","94","7,0818, ","8454","9","14.31"," ,7","85.7"," ,7","43.5","7","55.1","7","31.9","7"
"USC00244978","LEWISTOWN 11 SSE, MT US","46.90573","-109.41135","1513.3","2020","117",,,,"        37","7","-15","7,0114, ",,,"14.0"," ,7,1107,+","1.45"," ,7,0506, ","93","7,0817, ","9027","0","17.72"," ,7","142.2"," ,7","41.9","7","54.9","7","28.8","7"
"USC00246918","RED LODGE, MT US","45.1769","-109.2571","1720.9","2020","245",,"      177",,"        41","7","-6","7,0204, ","41"," ,7,0209, ","20.0"," ,7,1022, ","1.25"," ,7,0523, ","97","7,0905, ","8334","1","22.51"," ,7","209.7"," ,7","44.1","7","57.3","7","31.0","7"
"US1MTBV0002","DILLON 5.3 ENE, MT US","45.243357","-112.533426","1615.1","2020",,,,,,,,,,,,,"0.71"," ,N,0617, ",,,,,"6.51"," ,N",,,,,,,,
"USR0000MBSM","BIG SHEEP MOUNTAIN MONTANA, MT US","47.0167","-105.8167","975.4","2020","570",,,,,,"-17","U,0213, ",,,,,,,"98","U,0722, ","7616","0",,,,,"45.7","U","56.7","U","34.7","U"
"USC00244979","LEWISTOWN 11 ESE, MT US","47.0069","-109.2231","1532.5","2020",,,,,,,,,,,,,,,,,"8975","1",,,,,,,,,,
"USR0000MYAA","YAAK UPPER FORD MONTANA, MT US","48.9167","-115.6567","914.4","2020","83",,,,,,"-5","U,0219,+",,,,,,,"99","U,0731, ","8490","8",,,,,"42.6","U","56.1","U","29.0","U"
"USR0000MMIS","MISSOULA FTS MONTANA, MT US","46.85","-114.05","975.4","2020","287",,,,,,"-1","U,1026, ",,,,,,,"100","U,0731, ","7249","2",,,,,"46.2","U","58.4","U","34.1","U"
"USR0000MPOP","POPLAR MONTANA, MT US","48.1269","-105.0731","738.5","2020","461",,,,,,"-23","U,0115, ",,,,,,,"101","U,0818, ","8482","4",,,,,"44.1","U","56.1","U","32.0","U"
"USR0000MPOL","POLEBRIDGE MONTANA, MT US","48.7825","-114.2803","1066.8","2020","51",,,,,,"-14","U,1025, ",,,,,,,"96","U,0801,+","8959","0",,,,,"41.1","U","54.9","U","27.3","U"
"USR0000MSTI","STINKWATER CREEK MONTANA, MT US","46.8536","-113.3939","1649.0","2020","279",,,,,,"-4","U,0314, ",,,,,,,"94","U,0731, ","8343","9",,,,,"43.6","U","52.7","U","34.4","U"
"USS0012C13S","FROHNER MEADOW, MT US","46.44","-112.19","1975.1","2020","11",,"      198",,,,"-14","T,0314, ","33"," ,T,0411, ",,,"1.00"," ,T,0629,+","84","T,0817,+","9515","9","23.13"," ,T",,,"40.2","T","51.3","T","29.2","T"
"USR0000MSTE","STEVI MONTANA, MT US","46.5131","-114.0911","1025.7","2020","231",,,,,,"-3","U,1026,+",,,,,,,"100","U,0731, ","7110","0",,,,,"46.5","U","60.0","U","33.2","U"
"USC00243530","GILDFORD, MT US","48.5646","-110.3027","859.5","2020","217",,,,"        11","7","-28","7,0115, ",,,"9.0"," ,7,0314, ","0.86"," ,7,0628, ","99","7,0817, ","8999","4","8.20"," ,7","33.1"," ,7","42.2","7","55.6","7","28.9","7"
"USC00242689","EKALAKA, MT US","45.8863","-104.5478","1046.1","2020","577",,"       84",,"        19","7","-21","7,0213, ","6"," ,7,0226,+","3.0"," ,7,0225, ","1.25"," ,7,0507, ","98","7,0818, ","7798","3","13.79"," ,7","47.1"," ,7","46.4","7","60.0","7","32.8","7"
"USR0000MBRO","BROWNING BFA MONTANA, MT US","48.5617","-113.0133","1336.2","2020","109",,,,,,"-26","U,0115, ",,,,,,,"90","U,0817,+","8503","7",,,,,"42.3","U","53.0","U","31.7","U"
"USS0013E23S","LEMHI RIDGE, MT US","44.99","-113.44","2468.9","2020","34",,"      213",,,,"-5","T,1025, ","54"," ,T,0210, ",,,"1.40"," ,T,0206, ","84","T,0731, ","10321","8","23.81"," ,T",,,"38.2","T","48.1","T","28.2","T"
"USS0013D26S","CALVERT CREEK, MT US","45.88","-113.33","1959.9","2020","15",,"      183",,,,"-9","T,1026, ","30"," ,T,0217,+",,,"0.80"," ,T,0616, ","87","T,0905,+","9526","0","22.41"," ,T",,,"39.4","T","51.7","T","27.1","T"
"USC00244506","JOLIET, MT US","45.4732","-109.0105","1169.8","2020","301",,"       59",,"        19","7","-11","7,0116, ","6"," ,7,1026,+","7.0"," ,7,1019, ","1.14"," ,7,0629, ","101","7,0906,+","7968","5","13.35"," ,7","54.6"," ,7","45.0","7","59.8","7","30.2","7"
"USR0000MSTW","STILLWATER MONTANA, MT US","48.5394","-114.5594","949.8","2020","75",,,,,,"-8","U,1025, ",,,,,,,"98","U,0731, ","8575","0",,,,,"42.1","U","55.8","U","28.3","U"
"USR0000MSTR","ST. REGIS MONTANA, MT US","47.3108","-115.1097","816.9","2020","277",,,,,,"-4","U,1025, ",,,,,,,"103","U,0731, ","7121","0",,,,,"46.6","U","59.8","U","33.3","U"
"USR0000MSTM","ST. MARY MONTANA, MT US","48.7375","-113.4305","1389.9","2020","51",,,,,,"-24","U,0115, ",,,,,,,"88","U,0817,+","8913","9",,,,,"41.2","U","51.2","U","31.2","U"
"US1MTBH0006","FORT SMITH 0.5 ENE, MT US","45.31085","-107.916314","1000.7","2020",,,,,"        17","N",,,,,"7.9"," ,N,0203, ","1.12"," ,N,0629, ",,,,,"14.04"," ,N","63.0"," ,N",,,,,,
"USC00245961","MYSTIC LAKE, MT US","45.2436","-109.7311","1994.6","2020","102",,"      134",,"        66","7","-11","7,0402, ","22"," ,7,1024, ","17.0"," ,7,1024, ","1.05"," ,7,0401, ","85","7,0906,+","8860","2","23.59"," ,7","279.9"," ,7","42.5","7","52.0","7","33.1","7"
"US1MTFL0007","PLEVNA 1.6 S, MT US","46.39305556","-104.5197222","848.3","2020",,,,,,,,,,,,,"1.00"," ,N,0814, ",,,,,"13.48"," ,N",,,,,,,,
"USS0012D11S","MULE CREEK, MT US","45.41","-112.96","2529.8","2020","0",,"      246",,,,"-6","T,1025,+","58"," ,T,0331, ",,,"1.50"," ,T,0617, ","80","T,0802,+","10847","0","30.07"," ,T",,,"36.5","T","46.1","T","26.8","T"
"USC00244512","JOPLIN, MT US","48.5595","-110.7719","1012.9","2020","272",,"       90",,"        13","7","-27","7,0115, ","15"," ,7,1111,+","12.0"," ,7,1108, ","0.80"," ,7,1108, ","99","7,0817, ",,,"9.59"," ,7","49.5"," ,7","42.7","7","55.2","7","30.1","7"
"USR0000MSSC","SOUTH SAWMILL CREEK MONTANA, MT US","47.5619","-107.5286","1002.8","2020","671",,,,,,"-16","U,0114, ",,,,,,,"100","U,0817, ","7141","3",,,,,"47.7","U","57.4","U","38.0","U"
"USC00241127","BROADUS, MT US","45.4441","-105.4072","924.2","2020","922",,,,,,"-8","7,0213,+",,,,,"0.51"," ,7,0521, ","103","7,0723,+","6894","0","7.51"," ,7",,,"49.4","7","64.5","7","34.3","7"
"US1MTRT0005","POPLAR 20.4 N, MT US","48.403702","-105.150028","674.8","2020",,,,,,,,,,,,,"1.45"," ,N,0630, ",,,,,"9.79"," ,N",,,,,,,,
"USC00245603","MELVILLE 4 W, MT US","46.1047","-110.05","1635.3","2020","47",,"       87",,"        21","7","-12","7,0114, ","15"," ,7,1025,+","13.0"," ,7,1024, ","1.21"," ,7,0629, ","90","7,0905, ","9136","8","16.26"," ,7","89.4"," ,7","41.6","7","54.1","7","29.0","7"
"USW00094060","WOLF POINT 29 ENE, MT US","48.3082","-105.1018","635.5","2020","313",,,,,,"-30","R,0213, ",,,,,"2.55"," ,R,0630, ","102","R,0818, ","9238","5","11.25"," ,R",,,"41.2","R","56.0","R","26.3","R"
"USR0000MBRE","BRENNER MONTANA, MT US","44.9667","-113.2167","1935.5","2020","121",,,,,,"-2","U,0204, ",,,,,,,"91","U,0802, ","9244","8",,,,,"41.6","U","53.3","U","29.8","U"
"US1MTLC0014","HELENA 2.0 NNW, MT US","46.62177","-112.04198","1179.9","2020",,,,,,,,,,,,,"0.88"," ,N,0629, ",,,,,"11.13"," ,N",,,,,,,,
"US1MTMH0004","ROUNDUP 6.2 ENE, MT US","46.477905","-108.416553","959.5","2020",,,,,"        18","N",,,,,"5.5"," ,N,1024, ","1.76"," ,N,0629, ",,,,,"12.92"," ,N","39.0"," ,N",,,,,,
"USR0000MNIN","NINE MILE MONTANA, MT US","47.0708","-114.4022","1005.8","2020","235",,,,,,"-2","U,1026, ",,,,,,,"98","U,0817, ","7504","0",,,,,"45.7","U","57.9","U","33.4","U"
"USW00094059","WOLF POINT 34 NE, MT US","48.4887","-105.2096","805.6","2020","395",,,,,,"-23","R,0115, ",,,,,"1.57"," ,R,0630, ","98","R,0818, ","9054","3","9.58"," ,R",,,"42.3","R","52.6","R","32.0","R"
"US1MTMH0006","KLEIN 0.6 S, MT US","46.395833","-108.548889","1010.4","2020",,,,,,,,,,,,,"1.73"," ,N,0629, ",,,,,"12.57"," ,N",,,,,,,,
"USR0000MBRA","BRADSHAW CREEK MONTANA, MT US","45.0553","-105.9483","1197.9","2020","815",,,,,,"-8","U,0114, ",,,,,,,"101","U,0905,+","7364","3",,,,,"48.3","U","60.2","U","36.4","U"
"USW00094051","JORDAN AIRPORT, MT US","47.32583","-106.9475","811.4","2020","611",,,,,,"-21","W,0114, ",,,,,"0.90"," ,W,0907, ","103","W,0817,+","7589","0","9.95"," ,W",,,"46.9","W","61.4","W","32.4","W"
"USR0000MANT","ANTELOPE MONTANA, MT US","44.6867","-112.5417","2071.1","2020","131",,,,,,"-4","U,0220, ",,,,,,,"91","U,0905, ","9563","7",,,,,"40.3","U","51.1","U","29.4","U"
"USC00243555","GLASGOW WEATHER FORECAST OFFICE, MT US","48.2063","-106.6255","692.2","2020",,,"       73",,"        10","7",,,"6"," ,7,1112,+","6.2"," ,7,1108, ","1.94"," ,7,0520, ",,,,,"12.41"," ,7","34.3"," ,7",,,,,,
"USW00094055","BAKER MUNICIPAL AIRPORT, MT US","46.3583","-104.25","905.6","2020",,,,,,,,,,,,,"1.10"," ,W,0507, ",,,"8311","5","10.72"," ,W",,,,,,,,
"USC00243554","GLASGOW 14 NW, MT US","48.3531","-106.84242","658.4","2020",,,,,"        13","7",,,,,"8.0"," ,7,1109, ",,,,,,,"9.91"," ,7","38.3"," ,7",,,,,,
"USC00242104","CRESTON, MT US","48.18819","-114.134","894.6","2020","146",,"       51",,"        19","7","-1","7,1025, ","6"," ,7,1231,+","5.0"," ,7,0401, ","1.12"," ,7,0630, ","97","7,0801, ","7849","5","20.10"," ,7","43.1"," ,7","44.1","7","55.6","7","32.7","7"
"USC00243557","GLASGOW NUMBER 2, MT US","48.1924","-106.6383","637.0","2020","434",,,,,,"-20","7,0115,+",,,,,,,"100","7,0818, ","8079","5",,,,,"44.5","7","56.9","7","32.2","7"
"USC00243556","GLASGOW 46 SW, MT US","47.7088","-107.262","898.6","2020",,,"       74",,"        22","7",,,"9"," ,7,1112,+","8.0"," ,7,1109, ","2.90"," ,7,0607, ",,,,,"16.30"," ,7","57.9"," ,7",,,,,,
"USR0000MPLN","PLAINS MONTANA, MT US","47.45","-114.8667","731.5","2020","421",,,,,,"-3","U,1025, ",,,,,,,"103","U,0731, ","6648","1",,,,,"48.5","U","61.3","U","35.6","U"
"US1MTMH0018","ROUNDUP 1.8 NNE, MT US","46.4713527777778","-108.520797222222","1011.6","2020",,,,,,,,,,,,,"1.75"," ,N,0629, ",,,,,"14.38"," ,N",,,,,,,,
"US1MTFG0003","BUFFALO 1.7 E, MT US","46.82009","-109.793465","1301.8","2020",,,,,,,,,,,,,"1.34"," ,N,0629, ",,,,,"16.84"," ,N",,,,,,,,
"USC00244133","HIGHWOOD 7 NE, MT US","47.6415","-110.6677","1097.3","2020","491",,,,,,"-17","7,0115, ",,,,,"1.36"," ,7,0629, ","101","7,0816, ","7209","3","10.99"," ,7",,,"47.5","7","59.0","7","36.0","7"
"USC00246672","PORT OF MORGAN, MT US","48.9977","-107.833","862.6","2020","291",,"       91",,"        13","7","-25","7,0116, ","5"," ,7,1025,+","5.5"," ,7,1022, ","0.95"," ,7,0628, ","97","7,0818, ","9410","0","9.50"," ,7","36.9"," ,7","40.5","7","52.6","7","28.4","7"
"USC00248858","WEST YELLOWSTONE GATEWAY, MT US","44.65654","-111.09019","2035.8","2020",,,,,,,,,,,,,,,,,,,,,,,,,,,,
"US1MTFH0016","BIGFORK 3.2 ENE, MT US","48.07438","-114.012017","929.6","2020",,,"       86",,"        28","N",,,"9"," ,N,1111, ","6.3"," ,N,1111, ","1.21"," ,N,0608, ",,,,,"24.78"," ,N","73.9"," ,N",,,,,,
"USR0000MWIC","WICKED CREEK MONTANA, MT US","45.2706","-110.5433","2317.7","2020","98",,,,,,"-8","U,1025, ",,,,,,,"86","U,0817, ","10118","2",,,,,"39.4","U","47.7","U","31.0","U"
"USR0000MGIR","GIRD POINT MONTANA, MT US","46.1928","-113.9203","2118.4","2020","130",,,,,,"-5","U,1025, ",,,,,,,"87","U,0731, ","9430","1",,,,,"40.5","U","49.8","U","31.1","U"
"USR0000MGIN","GINGER MONTANA, MT US","46.3292","-111.5881","1332.0","2020","401",,,,,,"-4","U,1026,+",,,,,,,"94","U,0731, ","7499","1",,,,,"46.8","U","57.3","U","36.2","U"
"USS0014A14S","HAND CREEK, MT US","48.31","-114.84","1534.7","2020","22",,"      194",,,,"-11","T,1025, ","31"," ,T,0403, ",,,"0.60"," ,T,1105,+","88","T,0801, ","9623","1","22.05"," ,T",,,"39.6","T","51.2","T","28.0","T"
"USC00243176","FORT PECK POWER PLANT, MT US","48.01205","-106.41174","631.2","2020","603",,"       41",,"        11","7","-20","7,0114, ","5"," ,7,1109, ","4.0"," ,7,1108, ","1.02"," ,7,0907, ","98","7,0816,+",,,"11.09"," ,7","23.5"," ,7","46.4","7","58.5","7","34.4","7"
"USC00244386","INGOMAR 9 E, MT US","46.5676","-107.195","853.4","2020","474",,"       41",,"        10","7","-20","7,0115, ","3"," ,7,0121,+","2.5"," ,7,0108, ","0.74"," ,7,0618, ","103","7,0723, ","7988","0","10.90"," ,7","25.9"," ,7","45.0","7","60.9","7","29.1","7"
"USC00245596","MELSTONE, MT US","46.6009","-107.8706","893.7","2020",,,,,,,,,,,,,"1.67"," ,7,0507, ",,,,,"13.32"," ,7",,,,,,,,
"USC00247894","STEVENSVILLE, MT US","46.5137","-114.091","1028.7","2020",,,,,,,,,,,,,,,,,"6871","0",,,,,,,,,,
"USC00246685","POTOMAC, MT US","46.87672","-113.56258","1124.7","2020","83",,"       70",,"        14","7","-21","7,1026, ","18"," ,7,1026,+","18.0"," ,7,1024, ","1.13"," ,7,0520, ","95","7,0801, ","8863","2","15.75"," ,7","44.9"," ,7","41.2","7","56.5","7","25.9","7"
"USS0009D06S","FISHER CREEK, MT US","45.06","-109.94","2773.7","2020","0",,"      258",,,,"-18","T,1025, ","113"," ,T,0406, ",,,"1.70"," ,T,1013, ","77","T,0817, ","11884","1","55.11"," ,T",,,"33.6","T","43.1","T","24.0","T"
"USR0000MLRC","LITTLE ROCK CREEK MONTANA, MT US","46.0378","-114.2625","1678.5","2020","329",,,,,,"0","U,1025, ",,,,,,,"92","U,0731, ","8101","6",,,,,"44.8","U","52.8","U","36.8","U"
"US1MTFH0017","COLUMBIA FALLS 7.7 S, MT US","48.2619","-114.155617","932.1","2020",,,,,,,,,,,,,"1.29"," ,N,0521, ",,,,,"24.15"," ,N",,,,,,,,
"USR0000MWHH","WHITEHALL MONTANA, MT US","45.8833","-112.15","1328.9","2020","371",,,,,,"-6","U,1026, ",,,,,,,"100","U,0817,+","7323","2",,,,,"46.9","U","60.5","U","33.3","U"
"USC00246691","POWDERVILLE 8 NNE, MT US","45.8525","-105.035","853.4","2020","833",,"       57",,"        16","7","-17","7,0213, ","4"," ,7,1026,+","2.0"," ,7,1212,+","0.95"," ,7,0630, ","103","7,0722, ","7229","4","11.37"," ,7","26.4"," ,7","48.4","7","62.8","7","34.1","7"
"USS0012B17S","WOOD CREEK, MT US","47.45","-112.81","1816.6","2020","16",,"      217",,,,"-17","T,0114, ","40"," ,T,0418,+",,,"2.00"," ,T,0629, ","86","T,0802, ","9684","9","30.24"," ,T",,,"40.0","T","50.2","T","29.8","T"
"USC00245123","LOGAN LANDFILL, MT US","45.8756","-111.4106","1293.3","2020",,,,,"         1","7",,,,,"3.0"," ,7,0206, ","0.85"," ,7,0629, ",,,,,"9.44"," ,7","3.0"," ,7",,,,,,
"USC00247425","SCOBEY 4 NW, MT US","48.83549","-105.4748","728.5","2020","274",,"      116",,"         9","7","-31","7,0219, ","7"," ,7,1110,+","3.5"," ,7,1109, ","1.40"," ,7,0720, ","99","7,0819, ",,,"10.95"," ,7","21.3"," ,7","40.7","7","54.0","7","27.3","7"
"USC00244038","HEBGEN DAM, MT US","44.8666","-111.3391","1977.8","2020","17",,,,,,"-26","7,0220, ",,,,,,,"91","7,0905, ",,,,,,,"36.8","7","49.5","7","24.1","7"
"USS0013A24S","EMERY CREEK, MT US","48.43","-113.94","1325.9","2020","30",,"      215",,,,"-8","T,0315, ","56"," ,T,0224,+",,,"1.70"," ,T,0521, ","88","T,0731, ","8994","9","48.14"," ,T",,,"41.1","T","52.0","T","30.1","T"
"USS0012B16S","COPPER BOTTOM, MT US","47.06","-112.6","1585.0","2020",,,"      180",,,,,,"28"," ,T,0224,+",,,"1.60"," ,T,1013, ",,,,,"26.94"," ,T",,,,,,,,
"USC00245011","LIBBY DAM BASE, MT US","48.41","-115.318","643.1","2020",,,,,,,,,,,,,,,,,"6996","6",,,,,,,,,,
"USC00246586","PLENTYWOOD, MT US","48.77475","-104.56732","624.2","2020","278",,"      107",,"         8","7","-28","7,0116, ","6"," ,7,1022, ","3.8"," ,7,0402, ","0.78"," ,7,0718, ","99","7,0820,+","9660","5","10.99"," ,7","21.9"," ,7","39.9","7","53.7","7","26.0","7"
"USS0013C43S","WARM SPRINGS, MT US","46.27","-113.16","2377.4","2020","0",,"      274",,,,"-5","T,1025, ","74"," ,T,0415, ",,,"1.60"," ,T,0608, ","80","T,0801, ","11112","4","43.52"," ,T",,,"35.6","T","45.0","T","26.2","T"
"USS0015A08S","BANFIELD MOUNTAIN, MT US","48.57","-115.45","1706.9","2020","94",,"      230",,,,"-2","T,0314, ","68"," ,T,0403, ",,,"1.00"," ,T,1105,+","85","T,0801, ","9487","5","34.92"," ,T",,,"40.3","T","47.3","T","33.4","T"
"USS0013A25S","NOISY BASIN, MT US","48.16","-113.95","1841.0","2020","34",,"      263",,,,"-5","T,0314, ","121"," ,T,0224, ",,,"1.90"," ,T,0521, ","81","T,0801, ","9999","2","66.35"," ,T",,,"38.7","T","45.6","T","31.8","T"
"USS0013C31S","N FK ELK CREEK, MT US","46.87","-113.28","1905.0","2020","47",,"      218",,,,"-6","T,0314, ","40"," ,T,0415,+",,,"1.30"," ,T,1017, ","85","T,0802, ","9684","3","29.01"," ,T",,,"39.7","T","48.3","T","31.1","T"
"USS0013B22S","KRAFT CREEK, MT US","47.43","-113.78","1447.8","2020","90",,"      196",,,,"-2","T,1025, ","47"," ,T,0217, ",,,"1.20"," ,T,1016, ","90","T,0801, ","8112","5","43.14"," ,T",,,"44.1","T","54.3","T","33.9","T"
"US1MTPR0006","ASHLAND 9.7 ESE, MT US","45.587","-106.121167","972.9","2020",,,,,,,,,,,,,"0.39"," ,N,1017, ",,,,,"9.52"," ,N",,,,,,,,
"USS0009D08S","WHITE MILL, MT US","45.05","-109.91","2651.8","2020","0",,"      257",,,,"-19","T,1025, ","86"," ,T,0406,+",,,"1.60"," ,T,1013, ","78","T,0817, ","11719","4","42.41"," ,T",,,"33.9","T","44.5","T","23.3","T"
"USC00240802","BILLINGS WATER TREATMENT PLANT, MT US","45.7716","-108.4811","944.0","2020",,,"       57",,"        13","7","-7","7,0115, ","8"," ,7,1019, ","5.0"," ,7,1018, ","1.85"," ,7,0629, ",,,,,"13.87"," ,7","31.2"," ,7",,,,,"35.4","7"
"USC00240801","BILLINGS WEATHER FORECAST OFFICE, MT US","45.7502","-108.5696","970.8","2020","799",,"       48",,"        19","7","-6","7,0115, ","7"," ,7,1018, ","5.7"," ,7,1017, ","1.45"," ,7,0629, ","105","7,0905, ","6715","7","12.03"," ,7","49.3"," ,7","49.6","7","63.2","7","36.0","7"
"US1MTFH0004","WHITEFISH 0.8 ESE, MT US","48.410607","-114.329282","928.1","2020",,,,,,,,,,,,,,,,,,,"20.67"," ,N",,,,,,,,
"US1MTFH0002","KALISPELL 10.1 SW, MT US","48.091287","-114.464181","992.1","2020",,,,,"        15","N",,,,,"7.5"," ,N,1024, ","0.80"," ,N,0630, ",,,,,"13.96"," ,N","40.5"," ,N",,,,,,
"USC00247560","SIDNEY, MT US","47.72835","-104.14681","589.2","2020","677",,"       67",,"        13","7","-27","7,0213, ","8"," ,7,1022, ","8.5"," ,7,1022, ",,,"100","7,0819, ","7841","2","8.43"," ,7","34.4"," ,7","46.0","7","60.1","7","32.0","7"
"USC00247562","SIDNEY 2 S, MT US","47.67939","-104.15769","585.2","2020",,,"       52",,"         7","7",,,"5"," ,7,1024,+","3.0"," ,7,1022,+","0.79"," ,7,0628, ",,,,,"8.90"," ,7","20.6"," ,7",,,,,,
"USC00244174","HINGHAM 12 N, MT US","48.7262","-110.456","899.2","2020",,,,,,,,,,,,,,,,,,,,,,,,,,,,
"USC00245020","LIBBY 32 SSE, MT US","47.95785","-115.21447","1048.5","2020","58",,,,,,"-12","7,1024, ",,,,,"1.00"," ,7,1106,+","94","7,0801, ","8886","9","25.07"," ,7",,,"41.0","7","53.5","7","28.4","7"
"USR0000MKNO","KNOWLTON MONTANA, MT US","46.3117","-105.0222","1011.9","2020","690",,,,,,"-14","U,0115,+",,,,,,,"97","U,0822,+","7628","0",,,,,"47.1","U","57.4","U","36.8","U"
"USC00249900","ZORTMAN, MT US","47.9185","-108.5244","1229.9","2020","263",,"       99",,"        27","7","-21","7,0115, ","15"," ,7,0315, ","12.5"," ,7,0314, ","1.07"," ,7,0607, ","94","7,0818, ","8526","5","18.24"," ,7","96.8"," ,7","43.6","7","54.5","7","32.7","7"
"USC00242275","DEER LODGE 3 W, MT US","46.391","-112.7974","1478.3","2020","54",,,,,,"-14","7,1026, ",,,,,,,"91","7,0817,+",,,,,,,"40.7","7","55.4","7","26.1","7"
"US1MTMS0023","BONNER WEST RIVERSIDE 4.0 SE, MT US","46.8371","-113.8279","1014.1","2020",,,,,"        20","N",,,,,"10.8"," ,N,1024, ","1.01"," ,N,0520, ",,,,,"21.68"," ,N","57.1"," ,N",,,,,,
"US1MTSN0004","THOMPSON FALLS 9.3 NW, MT US","47.69389","-115.47674","791.0","2020",,,,,,,,,,,,,"0.99"," ,N,1106, ",,,,,"24.53"," ,N",,,,,,,,
"USC00245303","MACKENZIE, MT US","46.1422","-104.7352","856.5","2020",,,,,,,,,,,,,"1.12"," ,7,0507, ",,,,,"10.85"," ,7",,,,,,,,
"US1MTCB0005","RED LODGE 3.0 SW, MT US","45.16126","-109.29107","1852.0","2020",,,,,,,,,,,,,"1.53"," ,N,1022, ",,,,,"23.07"," ,N",,,,,,,,
"US1MTSN0002","NOXON 4.2 WNW, MT US","48.033017","-115.849973","705.0","2020",,,,,,,,,,,,,"1.48"," ,N,0101, ",,,,,"36.09"," ,N",,,,,,,,
"USC00243486","GIBSON 2 NE, MT US","46.0398","-109.4954","1354.5","2020",,,,,,,,,,,,,,,,,,,,,,,,,,,,
"US1MTSN0005","PLAINS 5.2 N, MT US","47.536","-114.8893","882.1","2020",,,,,,,,,,,,,"1.15"," ,N,0630, ",,,,,"16.13"," ,N",,,,,,,,
"USS0013C44S","BARKER LAKES, MT US","46.1","-113.13","2514.6","2020","1",,"      267",,,,"-9","T,1025, ","60"," ,T,0415, ",,,"1.80"," ,T,0617, ","79","T,0905, ","10925","7","35.89"," ,T",,,"36.2","T","45.6","T","26.8","T"
"USS0013A26S","PIKE CREEK, MT US","48.3","-113.33","1807.5","2020","49",,"      200",,,,"-23","T,0114, ","27"," ,T,0405, ",,,"2.70"," ,T,0629, ","81","T,0727, ","9907","7","52.04"," ,T",,,"39.2","T","46.2","T","32.2","T"
"US1MTSW0002","COLUMBUS 7.2 E, MT US","45.6208","-109.104","1242.1","2020",,,,,,,,,,,,,"1.44"," ,N,0629, ",,,,,"14.60"," ,N",,,,,,,,
"USR0000MWEG","WEST GLACIER MONTANA, MT US","48.5106","-113.9942","975.4","2020","129",,,,,,"-1","U,0113, ",,,,,,,"96","U,0817,+","7890","5",,,,,"44.2","U","55.7","U","32.6","U"
"USR0000MWEF","WEST FORK MONTANA, MT US","45.8181","-114.2631","1585.0","2020","188",,,,,,"3","U,1026,+",,,,,,,"97","U,0905,+","7630","2",,,,,"45.3","U","58.9","U","31.7","U"
"USS0014C12S","TWIN LAKES, MT US","46.14","-114.51","1950.7","2020","16",,"      241",,,,"-5","T,1025, ","112"," ,T,0217, ",,,"1.60"," ,T,0101, ","87","T,0731, ","9416","2","71.64"," ,T",,,"40.2","T","50.3","T","30.1","T"
"US1MTMS0014","MISSOULA 4.4 W, MT US","46.858614","-114.099702","949.1","2020",,,,,,,,,,,,,"1.14"," ,N,0630, ",,,,,"15.61"," ,N",,,,,,,,
"USC00245791","MOLT 6 SW, MT US","45.7846","-108.9663","1216.2","2020",,,,,,,,,,,,,"1.98"," ,7,0629, ",,,,,"13.99"," ,7",,,,,,,,
"USS0012B14S","COPPER CAMP, MT US","47.08","-112.73","2118.4","2020",,,"      229",,,,,,"71"," ,T,0217,+",,,"1.70"," ,T,1013, ",,,"9962","6","43.97"," ,T",,,,,,,,
"US1MTCB0012","FROMBERG 2.7 NE, MT US","45.419618","-108.866794","1072.6","2020",,,,,,,,,,,,,,,,,,,"10.98"," ,N",,,,,,,,
"USC00246640","SKQ DAM, MT US","47.6775","-114.2419","832.1","2020","325",,,,,,"0","7,1026, ",,,,,"1.27"," ,7,0630, ","96","7,0819,+","7039","5","16.23"," ,7",,,"47.1","7","58.0","7","36.3","7"
"USC00244345","HUNTLEY EXPERIMENTAL STATION, MT US","45.9227","-108.2453","924.8","2020","516",,"       61",,"        13","7","-22","7,0118, ","9"," ,7,1019, ","8.6"," ,7,1019, ","1.67"," ,7,0629, ","102","7,0818, ","7519","0","13.39"," ,7","44.6"," ,7","46.4","7","61.4","7","31.4","7"
"US1MTGN0011","BOZEMAN 1.5 SSE, MT US","45.6578","-111.0272","1505.1","2020",,,"      132",,"        27","N",,,"17"," ,N,0210, ","7.6"," ,N,1022, ","0.77"," ,N,0804, ",,,,,"16.90"," ,N","98.8"," ,N",,,,,,
"USC00243013","FLATWILLOW 4 ENE, MT US","46.82169","-108.37239","1002.8","2020","500",,"       54",,"        22","7","-17","7,0115, ","8"," ,7,1024, ","8.0"," ,7,1024, ","1.59"," ,7,0629, ","100","7,0722, ",,,"12.02"," ,7","53.9"," ,7","47.5","7","61.3","7","33.8","7"
"USR0000MLNC","LINCOLN MONTANA, MT US","46.9681","-112.6353","1401.2","2020",,,,,,,,,,,,,,,,,"8837","3",,,,,,,,,,
"USS0013B24S","MOSS PEAK, MT US","47.68","-113.96","2066.5","2020","14",,"      269",,,,"-5","T,1025, ","108"," ,T,0423,+",,,"2.50"," ,T,0608, ","81","T,0801, ","10516","0","67.36"," ,T",,,"37.3","T","44.8","T","29.8","T"
"US1MTSW0010","COLUMBUS 8.2 ESE, MT US","45.600136","-109.089853","1094.8","2020",,,,,,,,,,,,,"1.39"," ,N,0629, ",,,,,"14.90"," ,N",,,,,,,,
"USS0013C33S","COMBINATION, MT US","46.47","-113.39","1706.9","2020","20",,"      183",,,,"-9","T,1025, ","18"," ,T,0227,+",,,"0.70"," ,T,0608,+","88","T,0802, ","8849","2","18.36"," ,T",,,"41.7","T","53.3","T","30.1","T"
"US1MTSW0012","PARK CITY 6.0 WSW, MT US","45.603569","-109.03386","1052.5","2020",,,,,,,,,,,,,"1.58"," ,N,0629, ",,,,,"15.04"," ,N",,,,,,,,
"USS0013A15S","BADGER PASS, MT US","48.13","-113.02","2103.1","2020","27",,"      249",,,,"-16","T,0113, ","94"," ,T,0415, ",,,"2.00"," ,T,0629, ","80","T,0817,+","10684","4","53.74"," ,T",,,"37.2","T","45.2","T","29.2","T"
"US1MTSW0013","COLUMBUS 6.0 SSE, MT US","45.55321","-109.21877","1396.0","2020",,,,,,,,,,,,,"1.20"," ,N,0629, ",,,,,"12.53"," ,N",,,,,,,,
"USS0013A27S","MANY GLACIER, MT US","48.8","-113.67","1493.5","2020","38",,"      202",,,,"-20","T,0115, ","51"," ,T,0331, ",,,"2.00"," ,T,1105, ","86","T,0817, ","9015","6","44.24"," ,T",,,"41.4","T","50.3","T","32.6","T"
"US1MTCT0003","RIDGE 3.8 NE, MT US","45.091688","-104.976266","1250.0","2020",,,,,,,,,,,,,"0.60"," ,N,0804, ",,,,,"12.17"," ,N",,,,,,,,
"USS0014B04S","BLACKTAIL MOUNTAIN, MT US","47.98","-114.35","1722.1","2020","119",,"      202",,,,"1","T,1025, ","33"," ,T,0405,+",,,"1.20"," ,T,0520, ","87","T,0731, ","9190","7","25.13"," ,T",,,"41.4","T","48.6","T","34.3","T"
"USS0014C13S","TWELVEMILE CREEK, MT US","46.14","-114.45","1706.9","2020","20",,"      196",,,,"-4","T,0115, ","71"," ,T,0216, ",,,"1.40"," ,T,0101, ","91","T,0731, ","8918","3","55.93"," ,T",,,"41.1","T","53.1","T","29.0","T"
"US1MTMS0026","SEELEY LAKE 1.2 E, MT US","47.177859","-113.459935","1280.2","2020",,,"      162",,"        51","N",,,"28"," ,N,0217, ","14.4"," ,N,0107, ","1.12"," ,N,0107, ",,,,,"21.56"," ,N","140.6"," ,N",,,,,,
"USS0012B13S","WALDRON, MT US","47.92","-112.79","1706.9","2020","11",,"      222",,,,"-16","T,0114, ","50"," ,T,0415, ",,,"1.70"," ,T,0608, ","86","T,0817, ","9699","1","29.85"," ,T",,,"39.7","T","50.0","T","29.4","T"
"USC00241081","BRADY 27 ENE THE KNEES, MT US","48.075","-111.2603","1013.5","2020","324",,"       40",,"        15","7","-18","7,0115, ","10"," ,7,1112,+","5.1"," ,7,1109,+","1.48"," ,7,0630, ","98","7,0818, ",,,"12.64"," ,7","37.4"," ,7","44.4","7","55.8","7","33.0","7"
"USC00247864","STANFORD, MT US","47.155","-110.2238","1481.3","2020","267",,,,,,"-20","7,0115, ",,,,,"1.74"," ,7,0629, ","95","7,0905, ","8129","3","13.18"," ,7",,,"44.5","7","56.6","7","32.4","7"
"USC00241084","BRANDENBERG, MT US","45.8162","-106.2329","844.3","2020","601",,"       34",,"        12","7","-14","7,0118,+","4"," ,7,0210,+","4.0"," ,7,1017, ","0.63"," ,7,0907, ","104","7,0722, ","7357","3","8.83"," ,7","32.6"," ,7","47.2","7","62.4","7","32.1","7"
"USC00244358","HYSHAM, MT US","46.28973","-107.23052","813.5","2020","600",,,,,,"-11","7,0119,+",,,,,"0.95"," ,7,0618, ","101","7,0723, ","7187","9","13.22"," ,7",,,"47.7","7","61.6","7","33.8","7"
"USC00247740","SONNETTE 7 SW, MT US","45.3242","-105.9137","1193.0","2020","455",,"       57",,"        22","7","-12","7,0115, ","7"," ,7,0210, ","4.1"," ,7,1024, ","0.79"," ,7,0628, ","100","7,0817, ","7838","5","12.82"," ,7","58.1"," ,7","45.6","7","61.2","7","29.9","7"
"USR0000MHEB","HEBGEN LAKE MONTANA, MT US","44.6678","-111.1006","2032.1","2020","16",,,,,,"-26","U,0220,+",,,,,,,"92","U,0817, ","10605","6",,,,,"36.3","U","51.0","U","21.6","U"
"USC00241088","BREDETTE, MT US","48.5155","-105.2991","705.0","2020","317",,"      100",,"         6","7","-29","7,0115, ","5"," ,7,1022, ","4.0"," ,7,1108, ","1.13"," ,7,0630, ","101","7,0819, ","9240","3","9.43"," ,7","19.0"," ,7","41.4","7","54.6","7","28.1","7"
"USC00247620","SIMPSON 6 N WILDHORSE, MT US","48.998","-110.2157","858.0","2020","306",,,,,,"-36","7,0115, ",,,,,"1.90"," ,7,0521, ","98","7,0817, ","9048","8","10.76"," ,7",,,"41.8","7","54.9","7","28.7","7"
"USC00247500","SHELBY, MT US","48.5133","-111.8551","1013.5","2020","284",,,,,,"-23","7,0115, ",,,,,"1.10"," ,7,0521, ","97","7,0818, ","8529","5","12.63"," ,7",,,"43.9","7","55.7","7","32.0","7"
"USC00248957","WIBAUX 2 E, MT US","46.9878","-104.1567","821.7","2020","376",,"       70",,"        19","7","-31","7,0213, ","5"," ,7,0403,+","5.0"," ,7,0402, ","1.31"," ,7,0504, ","99","7,0820,+",,,"13.39"," ,7","45.2"," ,7","42.6","7","56.3","7","28.8","7"
"USS0013B25S","BISSON CREEK, MT US","47.68","-114.0","1499.6","2020","87",,"      197",,,,"2","T,1025, ","32"," ,T,0405,+",,,"1.50"," ,T,0608, ","88","T,0802, ","8448","1","32.63"," ,T",,,"42.8","T","51.3","T","34.2","T"
"USS0014B05S","SLEEPING WOMAN, MT US","47.18","-114.33","1874.5","2020","54",,"      228",,,,"-2","T,1025, ","57"," ,T,0403, ",,,"1.80"," ,T,0629, ","85","T,0731, ","9251","4","40.53"," ,T",,,"41.0","T","48.8","T","33.1","T"
"USR0000MHEL","HELENA MONTANA, MT US","46.7186","-112.0017","1170.4","2020","334",,,,,,"-11","U,0115, ",,,,,,,"99","U,0802, ","7618","2",,,,,"45.8","U","58.9","U","32.8","U"
"USS0012B12S","MOUNT LOCKHART, MT US","47.92","-112.82","1950.7","2020","4",,"      243",,,,"-16","T,0114, ","73"," ,T,0415, ",,,"1.80"," ,T,0629, ","83","T,0817, ","10491","6","47.12"," ,T",,,"37.7","T","46.7","T","28.7","T"
"USC00244364","HYSHAM 25 SSE, MT US","45.9352","-107.1375","944.9","2020",,,"       32",,"        16","7",,,"6"," ,7,1019, ","4.0"," ,7,1019, ","0.71"," ,7,0607, ",,,,,"9.52"," ,7","25.9"," ,7",,,,,,
"US1MTYS0014","BILLINGS 4.5 NE, MT US","45.83233","-108.44399","963.8","2020",,,"       64",,"        17","N",,,"8"," ,N,1019, ","7.9"," ,N,1019, ","1.56"," ,N,0629, ",,,,,"12.98"," ,N","50.7"," ,N",,,,,,
"USC00244241","HOLTER DAM, MT US","46.9907","-112.0116","1062.8","2020","309",,,,,,"-14","7,0115, ",,,,,"2.34"," ,7,0629, ","97","7,0803, ","6616","8","12.31"," ,7",,,"47.9","7","61.0","7","34.8","7"
"USC00245572","MEDICINE LAKE 3 SE, MT US","48.4829","-104.4515","591.9","2020",,,,,,,,,,,,,"0.78"," ,7,0705, ",,,,,"7.71"," ,7",,,,,,,,
"US1MTYS0011","BILLINGS 7.4 SW, MT US","45.71478","-108.6473","983.0","2020",,,,,"        20","N",,,,,"4.0"," ,N,1019,+","1.85"," ,N,0629, ",,,,,"11.33"," ,N","41.1"," ,N",,,,,,
"USC00244248","HOMESTEAD 5 E, MT US","48.4188","-104.4558","636.4","2020",,,,,"        10","7",,,,,"1.8"," ,7,0122, ",,,,,,,,,"16.7"," ,7",,,,,,
"US1MTYS0012","BILLINGS 7.1 W, MT US","45.7995","-108.686","1040.0","2020",,,,,,,,,,,,,"1.63"," ,N,0629, ",,,,,"13.79"," ,N",,,,,,,,
"US1MTVL0004","NASHUA 8.3 SSW, MT US","48.032182","-106.449319","618.1","2020",,,,,,,,,,,,,"1.00"," ,N,0907, ",,,,,"11.80"," ,N",,,,,,,,
"USC00245334","MALTA, MT US","48.3589","-107.8714","689.5","2020",,,"       45",,"        11","7",,,"9"," ,7,1109, ","7.0"," ,7,1109, ","1.03"," ,7,0907, ",,,"7761","8","10.47"," ,7","29.8"," ,7",,,,,,
"USS0009D16S","COLE CREEK, MT US","45.19","-109.35","2392.7","2020","39",,"      249",,,,"-7","T,1025, ","81"," ,T,0416, ",,,"1.90"," ,T,0202, ","82","T,0905, ","9672","6","24.25"," ,T",,,"40.1","T","48.5","T","31.7","T"
"USR0000MYEL","YELLOW MULE MONTANA, MT US","45.1672","-111.3508","2804.2","2020","3",,,,,,"-15","U,1025, ",,,,,,,"76","U,0905, ","12376","7",,,,,"32.2","U","39.8","U","24.5","U"
"USC00245338","MALTA 7 E, MT US","48.3939","-107.7285","680.0","2020","480",,"       60",,"        11","7","-20","7,0114, ","8"," ,7,1109,+","8.0"," ,7,1108, ","1.21"," ,7,0906, ","102","7,0817, ","8472","7","9.01"," ,7","31.0"," ,7","44.0","7","57.4","7","30.6","7"
"USC00248607","VOLBORG, MT US","45.8436","-105.6808","908.3","2020",,,,,,,,,,,,,"0.60"," ,7,1014, ",,,,,"7.41"," ,7",,,,,,,,
"USS0012A02S","DUPUYER CREEK, MT US","48.06","-112.76","1752.6","2020","78",,"      225",,,,"-19","T,0113, ","51"," ,T,0415,+",,,"3.40"," ,T,0629, ","85","T,0817, ","9285","6","30.63"," ,T",,,"41.3","T","48.9","T","33.7","T"
"USC00245340","MALTA 35 S, MT US","47.84177","-107.95563","797.1","2020","396",,"       71",,"        14","7","-22","7,0115, ","9"," ,7,1109, ","7.0"," ,7,1109, ","0.94"," ,7,0907, ","101","7,0818, ",,,"9.16"," ,7","41.5"," ,7","44.4","7","57.9","7","30.8","7"
