"STATION","NAME","LATITUDE","LONGITUDE","ELEVATION","DATE","CDSD","CDSD_ATTRIBUTES","DSND","DSND_ATTRIBUTES","DSNW","DSNW_ATTRIBUTES","EMNT","EMNT_ATTRIBUTES","EMSD","EMSD_ATTRIBUTES","EMSN","EMSN_ATTRIBUTES","EMXP","EMXP_ATTRIBUTES","EMXT","EMXT_ATTRIBUTES","HDSD","HDSD_ATTRIBUTES","PRCP","PRCP_ATTRIBUTES","SNOW","SNOW_ATTRIBUTES","TAVG","TAVG_ATTRIBUTES","TMAX","TMAX_ATTRIBUTES","TMIN","TMIN_ATTRIBUTES"
"US10knox007","VERDIGRE 12.1 WNW, NE US","42.6575","-98.2502","509.9","2008",,,,,,,,,,,,,"2.40"," ,N,0812, ",,,,,"26.20"," ,N",,,,,,,,
"USC00259475","WYMORE, NE US","40.1269","-96.6711","382.5","2008",,,"       30",,"         5","0",,,"4"," ,0,1217,+","4.0"," ,0,0117, ","4.10"," ,0,0425, ",,,,,"35.84"," ,0","13.1"," ,0",,,,,,
"US10knox004","CROFTON 0.7 NNW, NE US","42.7382","-97.4985","430.1","2008",,,,,"        10","N",,,,,"7.4"," ,N,0121, ","2.56"," ,N,1007, ",,,,,"28.43"," ,N","34.9"," ,N",,,,,,
"USC00257055","RAYMOND 2 E, NE US","40.9536","-96.7442","391.1","2008",,,"       39",,"         4","0",,,"5"," ,0,0207,+","4.8"," ,0,0206, ","2.74"," ,0,1022, ",,,,,"37.20"," ,0","18.4"," ,0",,,,,,
"US10hitc018","CULBERTSON 14.5 S, NE US","40.0195","-100.8266","887.0","2008",,,,,,,,,,,,,"2.78"," ,N,0524, ",,,,,"17.19"," ,N",,,,,,,,
"US10fran009","UPLAND 5.4 SSE, NE US","40.2478","-98.8561","648.0","2008",,,,,"         7","N",,,,,"2.0"," ,N,1224,+","2.47"," ,N,0523, ",,,,,"29.47"," ,N","14.1"," ,N",,,,,,
"US10knox006","CROFTON 13.1 WNW, NE US","42.8198","-97.7152","437.1","2008",,,,,,,,,,,,,"1.98"," ,N,1007, ",,,,,"20.05"," ,N",,,,,,,,
"US10thay014","HEBRON 6.6 ESE, NE US","40.1034","-97.4907","469.1","2008",,,,,,,,,,,,,"2.84"," ,N,0718, ",,,,,"32.22"," ,N",,,,,,,,
"USC00258255","STRATTON, NE US","40.1519","-101.2286","861.7","2008",,,,,"         7","0",,,,,"3.5"," ,0,0206, ","2.10"," ,0,0523, ",,,,,"20.96"," ,0","15.5"," ,0",,,,,,
"US10thay018","HEBRON 0.6 ENE, NE US","40.171","-97.5764","473.0","2008",,,,,,,,,,,,,"2.41"," ,N,1022, ",,,,,"33.41"," ,N",,,,,,,,
"US10thay019","ALEXANDRIA 4.1 WNW, NE US","40.2629","-97.4639","456.9","2008",,,,,,,,,,,,,"3.00"," ,N,0605, ",,,,,"32.91"," ,N",,,,,,,,
"US10burt002","CRAIG 6.2 S, NE US","41.6965","-96.3619","388.9","2008",,,,,,,,,,,,,"2.98"," ,N,0530, ",,,,,"31.10"," ,N",,,,,,,,
"USW00094995","LINCOLN 8 ENE, NE US","40.8484","-96.5651","362.4","2008","853",,,,,,"-13","R,0124, ",,,,,"2.44"," ,R,0611, ","98","R,0803, ","6575","8","36.92"," ,R",,,"49.1","R","60.9","R","37.2","R"
"USW00094996","LINCOLN 11 SW, NE US","40.6954","-96.8541","418.2","2008",,,,,,,,,,,,,"2.64"," ,R,0611, ",,,,,"34.54"," ,R",,,,,,,,
"US10thay011","CHESTER 3.4 NE, NE US","40.0469","-97.5767","488.9","2008",,,,,,,,,,,,,"3.14"," ,N,0718, ",,,,,"37.77"," ,N",,,,,,,,
"USC00252715","EMERSON, NE US","42.27972","-96.72444","443.2","2008",,,,,"        11","0",,,,,"7.0"," ,0,1219, ","2.98"," ,0,1023, ",,,,,"29.88"," ,0","33.1"," ,0",,,,,,
"USW00014971","LINCOLN WASTE WATER TREATMENT PLANT, NE US","40.8389","-96.6869","350.5","2008",,,"       38",,"         5","0",,,"4"," ,0,0207,+","4.6"," ,0,0206, ","3.56"," ,0,0612, ",,,,,"36.27"," ,0","16.5"," ,0",,,,,,
"US10hitc022","STRATTON 7.9 NNW, NE US","40.2556381","-101.2769775","974.1","2008",,,,,,,,,,,,,"2.60"," ,N,1012, ",,,,,"24.70"," ,N",,,,,,,,
"USC00250420","ATKINSON 3 SW, NE US","42.5136","-99.0302","648.6","2008",,,,,,,,,,,,,,,,,,,,,,,,,,,,
"USC00250781","BENNINGTON 3 WSW, NE US","41.3536","-96.2094","379.5","2008",,,"       44",,"         4","0",,,"5"," ,0,0125,+","4.4"," ,0,0206, ","2.56"," ,0,0716, ",,,,,"38.64"," ,0","19.0"," ,0",,,,,,
"USC00258395","SYRACUSE, NE US","40.6661","-96.1891","335.3","2008","959",,"       52",,"         8","0","-12","0,0125, ","5"," ,0,0125,+","3.0"," ,0,1217,+","2.63"," ,0,0605, ","101","0,0804, ","6655","1","39.97"," ,0","18.0"," ,0","49.2","0","61.2","0","37.1","0"
"US10butl008","BRAINARD 1.8 SSE, NE US","41.158","-96.9952","490.1","2008",,,,,,,,,,,,,"2.95"," ,N,0605, ",,,,,"37.08"," ,N",,,,,,,,
"US10holt009","PAGE 0.1 S, NE US","42.3993","-98.4178","597.1","2008",,,,,,,,,,,,,"2.02"," ,N,0605, ",,,,,"27.48"," ,N",,,,,,,,
"USC00259115","WELLFLEET, NE US","40.7558","-100.73","858.3","2008",,,"       34",,"         8","0",,,"5"," ,0,0411,+","5.0"," ,0,0411, ","1.85"," ,0,0524, ",,,,,"27.63"," ,0","20.0"," ,0",,,,,,
"US10holt007","ONEILL 16.9 ESE, NE US","42.3867","-98.339","577.9","2008",,,,,"        30","N",,,,,"13.5"," ,N,0120, ","1.75"," ,N,1023, ",,,,,"32.13"," ,N","76.3"," ,N",,,,,,
"USC00251990","CREIGHTON, NE US","42.4602","-97.9047","506.0","2008","638",,"       88",,"        16","0","-18","0,0124, ","10"," ,0,1225,+","8.0"," ,0,0121, ","2.61"," ,0,0812, ","100","0,0804, ","7202","3","34.61"," ,0","50.6"," ,0","45.7","0","57.6","0","33.8","0"
"USC00252840","FAIRMONT, NE US","40.64222","-97.59278","499.9","2008",,,"       57",,"         7","0",,,"5"," ,0,1225,+","4.0"," ,0,0206, ","2.55"," ,0,0624, ",,,,,"34.70"," ,0","15.2"," ,0",,,,,,
"US10holt001","ONEILL 0.6 WNW, NE US","42.4604","-98.6583","609.9","2008",,,,,,,,,,,,,"3.55"," ,N,0529, ",,,,,"27.84"," ,N",,,,,,,,
"US10thay020","BYRON 0.2 ESE, NE US","40.0027","-97.7648","513.0","2008",,,,,,,,,,,,,"4.20"," ,N,0718, ",,,,,"38.15"," ,N",,,,,,,,
"USC00254900","LODGEPOLE, NE US","41.1488","-102.6361","1168.0","2008","704",,"       48",,"        12","0","-15","0,1216,+","7"," ,0,0103,+","5.0"," ,0,0411, ","2.25"," ,0,0717, ","103","0,0803, ","6921","0","18.91"," ,0","27.0"," ,0","47.8","0","62.1","0","33.4","0"
"USC00253810","HERSHEY 5 SSE, NE US","41.1056","-100.9775","899.8","2008",,,,,,,,,,,,,,,,,,,,,,,,,,,,
"US10holt002","EMMET 0.2 SSW, NE US","42.4727","-98.8074","616.9","2008",,,,,,,,,,,,,"3.27"," ,N,0529, ",,,,,"26.12"," ,N",,,,,,,,
"USC00254903","LODGEPOLE 8 N, NE US","41.2663","-102.6585","1184.5","2008","548",,"       37",,"         8","0","-21","0,1215, ","7"," ,0,0411,+","6.5"," ,0,0411, ","1.70"," ,0,0624, ","103","0,0803, ",,,"20.23"," ,0","26.9"," ,0","46.7","0","61.4","0","31.9","0"
"US10keit018","BRULE 8.6 NNE, NE US","41.2119","-101.8374","1049.1","2008",,,,,,,,,,,,,"1.03"," ,N,1012, ",,,,,"14.30"," ,N",,,,,,,,
"USC00250435","AUBURN 5 ESE, NE US","40.3705","-95.7469","283.5","2008","1019",,"       72",,"        11","0","-14","0,0124, ","8"," ,0,0206, ","6.3"," ,0,0206, ","2.00"," ,0,0912, ","99","0,0803, ","6351","5","32.31"," ,0","35.7"," ,0","50.0","0","61.1","0","39.0","0"
"USC00258040","SPENCER 6 SSE, NE US","42.79814","-98.65081","486.5","2008",,,"       52",,"        15","0",,,"10"," ,0,0123,+","6.0"," ,0,0425,+","3.59"," ,0,0605, ",,,,,"23.52"," ,0","42.3"," ,0",,,,,,
"USC00257070","RED CLOUD, NE US","40.0977","-98.5197","527.9","2008","882",,"       51",,"         5","0","-9","0,1222,+","5"," ,0,0206, ","5.0"," ,0,0206, ","4.00"," ,0,0523, ","102","0,0803, ","6652","4","33.73"," ,0","12.5"," ,0","49.0","0","61.8","0","36.2","0"
"USR0000NSCO","SCOTTS BLUFF NEBRASKA, NE US","41.8167","-103.7","1287.5","2008","738",,,,,,"-14","U,1215, ",,,,,,,"101","U,0705, ","6048","2",,,,,"49.9","U","62.6","U","37.1","U"
"US10butl011","BELLWOOD 5.8 W, NE US","41.3221","-97.3465","451.1","2008",,,,,"         7","N",,,,,"6.0"," ,N,1220, ","1.85"," ,N,1022, ",,,,,"33.15"," ,N","21.0"," ,N",,,,,,
"US10keit013","BRULE 3.4 ENE, NE US","41.1089","-101.8264","997.9","2008",,,,,,,,,,,,,"2.75"," ,N,0716, ",,,,,"18.98"," ,N",,,,,,,,
"USC00253825","HICKMAN, NE US","40.6219","-96.6283","396.2","2008",,,,,,,,,,,,,,,,,,,,,,,,,,,,
"USC00250320","ARCADIA, NE US","41.4266","-99.1272","658.4","2008",,,,,"        12","0",,,,,"5.0"," ,0,1219, ","2.84"," ,0,0524, ",,,,,"33.98"," ,0","24.9"," ,0",,,,,,
"USC00259020","WAUNETA, NE US","40.4121","-101.3611","896.4","2008",,,,,,,,,,,,,,,,,,,,,,,,,,,,
"USC00259382","WOLBACH, NE US","41.3966","-98.3925","570.0","2008",,,"       66",,"         6","0",,,"5"," ,0,1225,+","4.0"," ,0,1219, ","2.41"," ,0,0524, ",,,,,"37.08"," ,0","20.5"," ,0",,,,,,
"US10otoe005","COOK 0.9 N, NE US","40.5233","-96.1657","337.1","2008",,,,,,,,,,,,,"1.72"," ,N,0616, ",,,,,"34.00"," ,N",,,,,,,,
"USC00252980","FORT CALHOUN 4 W, NE US","41.4453","-96.0929","399.3","2008",,,,,,,,,,,,,,,,,,,,,,,,,,,,
"USC00253710","HAY SPRINGS, NE US","42.6828","-102.6928","1175.0","2008",,,,,,,,,,,,,,,,,,,,,,,,,,,,
"US10gard010","LAKESIDE 5.8 SSE, NE US","41.9762","-102.3879","1183.8","2008",,,,,,,,,,,,,"1.25"," ,N,0717, ",,,,,"18.61"," ,N",,,,,,,,
"USC00251415","CAMBRIDGE, NE US","40.2847","-100.1433","682.4","2008","777",,"       57",,"         6","0","-9","0,1221,+","8"," ,0,0206, ","4.7"," ,0,0205, ","2.81"," ,0,0524, ","104","0,0803, ","6525","0","28.05"," ,0","18.7"," ,0","49.0","0","63.1","0","35.0","0"
"USC00251825","COLUMBUS 3 NE, NE US","41.4638","-97.3277","442.0","2008","931",,"       65",,"         9","0","-13","0,1222, ","9"," ,0,1225,+","4.0"," ,0,1216, ","2.59"," ,0,1022, ","99","0,0803, ","6797","9","33.73"," ,0","22.7"," ,0","48.5","0","59.0","0","37.9","0"
"USC00250734","BELGRADE, NE US","41.4636","-98.0738","520.3","2008",,,"       58",,"        10","0",,,"5"," ,0,1223,+","3.0"," ,0,1219,+","3.60"," ,0,0530, ",,,,,"33.78"," ,0","21.3"," ,0",,,,,,
"US10ceda001","HARTINGTON 0.5 NW, NE US","42.628","-97.27","417.0","2008",,,,,,,,,,,,,"3.32"," ,N,1007, ",,,,,"32.85"," ,N",,,,,,,,
"US10ceda003","RANDOLPH 9.0 NNW, NE US","42.4974","-97.4279","530.0","2008",,,,,,,,,,,,,"2.42"," ,N,1007, ",,,,,"30.14"," ,N",,,,,,,,
"US10ceda005","CROFTON 6.2 NNE, NE US","42.8151","-97.4648","406.9","2008",,,,,"        13","N",,,,,"6.3"," ,N,0121, ","2.42"," ,N,1007, ",,,,,"28.98"," ,N","42.4"," ,N",,,,,,
"US10ceda009","COLERIDGE 5.4 NE, NE US","42.5654","-97.1363","474.9","2008",,,,,,,,,,,,,"2.55"," ,N,0529, ",,,,,"28.45"," ,N",,,,,,,,
"US10stan011","STANTON 5.6 WSW, NE US","41.9157","-97.3219","459.9","2008",,,,,,,,,,,,,"1.87"," ,N,0524, ",,,,,"27.84"," ,N",,,,,,,,
"US10ceda008","HARTINGTON 5.9 ENE, NE US","42.6702","-97.1716","384.0","2008",,,,,"        18","N",,,,,"3.0"," ,N,0411,+","2.90"," ,N,1007, ",,,,,"25.12"," ,N","31.4"," ,N",,,,,,
"USC00256040","NORTH LOUP, NE US","41.49703","-98.77136","597.7","2008","521",,"       40",,"         9","0","-16","0,1222, ","9"," ,0,1219, ","8.0"," ,0,1219, ","2.70"," ,0,0524, ","97","0,0804, ","6716","4","31.76"," ,0","25.9"," ,0","46.5","0","59.5","0","33.5","0"
"US10polk006","STROMSBURG 1.6 SE, NE US","41.0972","-97.578","498.0","2008",,,,,"         0","N",,,,,"0.0"," ,N,1231,+","5.91"," ,N,0605, ",,,,,"42.26"," ,N","0.0"," ,N",,,,,,
"USW00094958","ORD EVELYN SHARP FIELD, NE US","41.62333","-98.94833","629.1","2008","789",,,,,,"-17","W,1222, ",,,,,"2.51"," ,W,0523, ","101","W,0803,+","6500","4","28.46"," ,W",,,"48.2","W","60.7","W","35.7","W"
"USC00257002","RAGAN, NE US","40.3119","-99.2902","682.8","2008","877",,"       67",,"         6","0","-9","0,1221, ","6"," ,0,1225,+","3.5"," ,0,1219, ","2.06"," ,0,0524, ","102","0,0803, ","6327","9","29.45"," ,0","14.1"," ,0","49.7","0","61.2","0","38.3","0"
"USC00258215","STOCKVILLE, NE US","40.5323","-100.3855","757.1","2008",,,"       42",,"         4","0",,,"6"," ,0,0206,+","4.0"," ,0,0205, ","5.45"," ,0,0523, ",,,,,"31.71"," ,0","10.6"," ,0",,,,,,
"US10polk001","STROMSBURG 0.9 E, NE US","41.113","-97.5828","506.0","2008",,,,,,,,,,,,,"5.86"," ,N,0605, ",,,,,"42.13"," ,N",,,,,,,,
"USW00094957","FALLS CITY BRENNER FIELD, NE US","40.08028","-95.59194","298.7","2008","1137",,,,,,"-12","X,0124, ",,,,,"2.91"," ,X,0912, ","103","X,0804,+","6113","3","32.50"," ,X",,,"51.0","X","62.1","X","39.8","X"
"USC00252805","EWING, NE US","42.2611","-98.3416","565.1","2008","659",,"       78",,"        11","0","-20","0,0124, ","15"," ,0,0124,+","5.0"," ,0,1219,+","2.00"," ,0,0211, ","100","0,0803, ","6526","5","39.81"," ,0","32.7"," ,0","47.3","0","59.5","0","35.2","0"
"US10ceda012","COLERIDGE 0.2 WSW, NE US","42.5044","-97.2076","488.0","2008",,,,,,,,,,,,,"3.17"," ,N,1007, ",,,,,"35.15"," ,N",,,,,,,,
"USC00250865","BIG SPRINGS, NE US","41.0654","-102.071","1029.9","2008",,,,,,,,,,,,,"1.37"," ,N,0411, ",,,,,"18.64"," ,N",,,,,,,,
"USC00250622","BEATRICE 1 N, NE US","40.2994","-96.75","395.3","2008","960",,"       43",,"         5","0","-11","0,1222, ","4"," ,0,1225,+","3.0"," ,0,1217,+","3.35"," ,0,0718, ","100","0,0804, ","6565","1","30.49"," ,0","12.2"," ,0","49.2","0","61.0","0","37.4","0"
"US10ceda016","HARTINGTON 12.8 E, NE US","42.5973","-97.022","442.9","2008",,,,,,,,,,,,,"1.93"," ,N,0529, ",,,,,"31.17"," ,N",,,,,,,,
"US10keit008","OGALLALA 1.7 W, NE US","41.1234","-101.7512","990.0","2008",,,,,"         7","N",,,,,"5.6"," ,N,0411, ","1.22"," ,N,0425, ",,,,,"17.07"," ,N","20.4"," ,N",,,,,,
"US10keit009","OGALLALA 3.7 ESE, NE US","41.1112","-101.6527","971.1","2008",,,,,"         4","N",,,,,"9.0"," ,N,0411, ","1.22"," ,N,1013, ",,,,,"15.61"," ,N","17.0"," ,N",,,,,,
"US10hall011","CAIRO 0.3 W, NE US","41.0018","-98.6143","598.9","2008",,,,,,,,,,,,,"3.64"," ,N,0524, ",,,,,"38.56"," ,N",,,,,,,,
"USC00255080","MADISON 2 W, NE US","41.8291","-97.45","481.6","2008","654",,"       80",,"         5","0","-19","0,1222, ","8"," ,0,0208,+","3.6"," ,0,1219, ","2.31"," ,0,1007, ","96","0,0804, ","7221","5","31.25"," ,0","15.1"," ,0","46.2","0","57.8","0","34.6","0"
"USC00256290","O NEILL, NE US","42.4594","-98.6563","606.6","2008","715",,"       81",,"        11","0","-14","0,1216,+","14"," ,0,0125,+","12.0"," ,0,0121, ","4.00"," ,0,0529, ","99","0,0804, ","7361","6","28.24"," ,0","29.7"," ,0","46.0","0","57.7","0","34.3","0"
"USC00259200","WEST POINT, NE US","41.845","-96.7141","399.3","2008","759",,"       79",,"         9","0","-19","0,0124, ","9"," ,0,1223,+","6.0"," ,0,1219, ","2.48"," ,0,0530, ","98","0,0804, ","7342","9","27.67"," ,0","24.5"," ,0","46.4","0","57.3","0","35.4","0"
"US10hall018","WOOD RIVER 4.9 WSW, NE US","40.7859","-98.6834","611.1","2008",,,,,,,,,,,,,"2.95"," ,N,0608, ",,,,,"37.64"," ,N",,,,,,,,
"USC00259440","WOOD RIVER 1 NNW, NE US","40.825","-98.6005","594.4","2008",,,"       61",,"         6","0",,,"4"," ,0,1225,+","1.5"," ,0,1219,+","3.60"," ,0,0524, ",,,,,"39.71"," ,0","13.3"," ,0",,,,,,
"USC00256167","OCONTO, NE US","41.1439","-99.7633","786.4","2008",,,,,,,,,,,,,,,,,,,,,,,,,,,,
"USC00258465","TECUMSEH 1 S, NE US","40.3544","-96.1938","338.3","2008","905",,"       51",,"         7","0","-15","0,0125,+","5"," ,0,0207,+","5.0"," ,0,0206, ","3.40"," ,0,0718, ","98","0,0804, ","6602","9","34.62"," ,0","18.0"," ,0","49.2","0","61.2","0","37.1","0"
"US10hall009","DONIPHAN 2.3 W, NE US","40.7734","-98.4137","583.1","2008",,,,,,,,,,,,,"2.73"," ,N,0608, ",,,,,"38.16"," ,N",,,,,,,,
"USW00094949","HASTINGS MUNICIPAL AIRPORT, NE US","40.6005","-98.4258","597.7","2008","883",,,,,,"-8","W,1222, ",,,,,"2.24"," ,W,0716, ","100","W,0802, ","6420","5","34.05"," ,W",,,"49.5","W","60.3","W","38.7","W"
"US10box_003","ALLIANCE 8.6 SW, NE US","42.017","-102.9953","1236.9","2008",,,,,"         7","N",,,,,"3.0"," ,N,0410,+","1.80"," ,N,0811, ",,,,,"18.06"," ,N","17.5"," ,N",,,,,,
"US10box_004","ALLIANCE 7.2 ENE, NE US","42.1486","-102.749","1196.0","2008",,,,,,,,,,,,,"1.27"," ,N,0605, ",,,,,"15.06"," ,N",,,,,,,,
"US10box_006","HEMINGFORD 5.1 ENE, NE US","42.3653","-102.9952","1271.0","2008",,,,,,,,,,,,,"1.20"," ,N,0908, ",,,,,"14.17"," ,N",,,,,,,,
"US10sewa004","GRESHAM 6.2 E, NE US","41.019","-97.2844","483.1","2008",,,,,,,,,,,,,"3.56"," ,N,0716, ",,,,,"39.20"," ,N",,,,,,,,
"US10sewa005","PLEASANT DALE 2.5 NNW, NE US","40.8157","-96.9506","413.0","2008",,,,,"         0","N",,,,,"0.0"," ,N,1231,+","2.90"," ,N,1022, ",,,,,"35.83"," ,N","0.0"," ,N",,,,,,
"US10sewa006","SEWARD 4.7 NE, NE US","40.95964","-97.0415","463.0","2008",,,,,,,,,,,,,"2.87"," ,N,1022, ",,,,,"36.00"," ,N",,,,,,,,
"USW00094946","BROKEN BOW MUNICIPAL AIRPORT, NE US","41.43333","-99.63333","771.1","2008","608",,,,,,"-15","W,1221, ",,,,,"2.77"," ,W,0523, ","102","W,0802, ","6756","5","29.95"," ,W",,,"47.5","W","60.4","W","34.6","W"
"US10gree007","SPALDING 0.2 SW, NE US","41.6869","-98.3657","583.1","2008",,,,,,,,,,,,,"2.05"," ,N,1007, ",,,,,"35.06"," ,N",,,,,,,,
"US10perk017","WALLACE 8.7 WSW, NE US","40.8","-101.3229","999.1","2008",,,,,,,,,,,,,"1.82"," ,N,0606, ",,,,,"26.57"," ,N",,,,,,,,
"US10red_019","MCCOOK 4.6 NNW, NE US","40.265","-100.6531","818.1","2008",,,,,"         6","N",,,,,"4.0"," ,N,0317, ","3.53"," ,N,0809, ",,,,,"29.76"," ,N","15.3"," ,N",,,,,,
"US10perk018","GRANT 7.5 WSW, NE US","40.796","-101.8564","1068.0","2008",,,,,,,,,,,,,"0.97"," ,N,1012, ",,,,,"15.52"," ,N",,,,,,,,
"US10hall002","GRAND ISLAND 2.3 W, NE US","40.9187","-98.3863","574.9","2008",,,,,,,,,,,,,"2.71"," ,N,0605, ",,,,,"37.50"," ,N",,,,,,,,
"US10perk012","ELSIE 9.7 SSE, NE US","40.7121","-101.3412","1000.0","2008",,,,,,,,,,,,,"2.47"," ,N,0805, ",,,,,"27.62"," ,N",,,,,,,,
"USC00258360","SWAN LAKE, NE US","42.1836","-99.0897","710.2","2008","474",,"       86",,"        13","0","-14","0,1216, ","5"," ,0,0212, ","4.0"," ,0,0411, ","2.03"," ,0,0524, ","99","0,0804, ","7019","4","27.04"," ,0","34.6"," ,0","45.8","0","58.3","0","33.3","0"
"US10red_015","CAMBRIDGE 3.5 N, NE US","40.3302","-100.2865","773.0","2008",,,,,,,,,,,,,"4.55"," ,N,0523, ",,,,,"28.26"," ,N",,,,,,,,
"USC00258480","TEKAMAH, NE US","41.7768","-96.2329","347.5","2008","718",,"       72",,"         9","0","-13","0,1223,+","6"," ,0,1224,+","5.5"," ,0,1219, ","2.84"," ,0,0530, ","97","0,0804, ","7426","4","34.21"," ,0","21.6"," ,0","46.3","0","57.0","0","35.7","0"
"US10hall001","GRAND ISLAND 1.8 W, NE US","40.9294","-98.3767","570.9","2008",,,,,,,,,,,,,"3.01"," ,N,0605, ",,,,,"38.01"," ,N",,,,,,,,
"US10red_013","DANBURY 0.5 W, NE US","40.0378","-100.4151","751.9","2008",,,,,,,,,,,,,"3.28"," ,N,0523, ",,,,,"27.83"," ,N",,,,,,,,
"US10hall006","CAIRO 2.5 N, NE US","41.0376","-98.6071","599.8","2008",,,,,,,,,,,,,"4.18"," ,N,0524, ",,,,,"40.34"," ,N",,,,,,,,
"USC00257032","RANDOLPH, NE US","42.2944","-97.3647","541.0","2008",,,"       91",,"        13","0",,,"14"," ,0,1224,+","9.5"," ,0,1219, ","2.21"," ,0,1007, ",,,,,"27.34"," ,0","44.9"," ,0",,,,,,
"US10red_011","MCCOOK 12.8 SSE, NE US","40.023","-100.5626","819.0","2008",,,,,,,,,,,,,"5.19"," ,N,0524, ",,,,,"30.34"," ,N",,,,,,,,
"US10hall004","GRAND ISLAND 5.0 SSW, NE US","40.8585","-98.3781","574.9","2008",,,,,"         5","N",,,,,"4.0"," ,N,1219, ","2.65"," ,N,0716, ",,,,,"36.24"," ,N","12.0"," ,N",,,,,,
"US10perk010","MADRID 6.6 NW, NE US","40.9324","-101.6089","1040.0","2008",,,,,"         8","N",,,,,"6.5"," ,N,0411, ","1.63"," ,N,0729, ",,,,,"25.30"," ,N","26.1"," ,N",,,,,,
"US10hall005","DONIPHAN 3.7 ENE, NE US","40.78738","-98.30295","586.1","2008",,,,,,,,,,,,,"3.52"," ,N,0608, ",,,,,"40.11"," ,N",,,,,,,,
"USC00259325","WILSONVILLE, NE US","40.1119","-100.1047","701.0","2008",,,"       49",,"         6","0",,,"6"," ,0,0206, ","4.0"," ,0,0205, ","3.80"," ,0,0524, ",,,,,"31.65"," ,0","12.5"," ,0",,,,,,
"USC00258117","STANTON 7 NE, NE US","42.0413","-97.1747","481.6","2008",,,,,,,,,,,,,,,,,,,,,,,,,,,,
"US10holt012","AMELIA 14.3 WSW, NE US","42.14762","-99.16153","730.9","2008",,,,,,,,,,,,,"2.14"," ,N,1023, ",,,,,"28.57"," ,N",,,,,,,,
"US10keya003","SPRINGVIEW 14.6 WNW, NE US","42.943","-99.9812","752.9","2008",,,,,,,,,,,,,"2.34"," ,N,0606, ",,,,,"24.31"," ,N",,,,,,,,
"USW00094978","TEKAMAH MUNICIPAL AIRPORT, NE US","41.76361","-96.17778","313.3","2008","873",,,,,,"-20","W,0124, ",,,,,"2.32"," ,W,0529, ","99","W,0803, ","7299","1","30.63"," ,W",,,"47.2","W","58.8","W","35.7","W"
"US10hitc004","CULBERTSON 10.1 SSE, NE US","40.0882","-100.7859","802.8","2008",,,,,"         9","N",,,,,"3.0"," ,N,0205,+","2.65"," ,N,0524, ",,,,,"20.64"," ,N","22.1"," ,N",,,,,,
"USC00250640","BEAVER CITY, NE US","40.1305","-99.8277","654.7","2008","979",,"       52",,"         7","0","-9","0,0125,+","5"," ,0,0206, ","4.0"," ,0,0205, ","4.12"," ,0,0524, ","106","0,0803, ","6057","2","32.65"," ,0","12.0"," ,0","50.4","0","65.2","0","35.6","0"
"USC00250760","BENKELMAN 1 N, NE US","40.06456","-101.54371","939.1","2008","1056",,"       50",,"         8","0","-12","0,1215, ","7"," ,0,0206, ","5.0"," ,0,0411, ","2.27"," ,0,1012, ","108","0,0803, ","6073","7","18.60"," ,0","29.0"," ,0","51.3","0","66.3","0","36.4","0"
"USC00257040","RAVENNA, NE US","41.0319","-98.9213","623.6","2008","586",,,,"         5","0","-14","0,1222, ",,,"6.0"," ,0,1219, ","4.35"," ,0,0524, ","97","0,0804, ","6864","3","39.60"," ,0","11.5"," ,0","46.6","0","59.1","0","34.1","0"
"USC00256075","NORTH PLATTE EXPERIMENTAL FARM, NE US","41.0569","-100.7494","922.0","2008","618",,"       26",,"         9","0","-15","0,1215, ","6"," ,0,0317, ","7.2"," ,0,0411, ","1.68"," ,0,1012, ","105","0,0803, ","6769","4","26.32"," ,0","28.1"," ,0","47.7","0","60.4","0","34.9","0"
"USC00258133","STAPLETON 5 W, NE US","41.45805","-100.59848","921.1","2008","601",,"       50",,"         9","0","-18","0,1221, ","11"," ,0,0411, ","11.2"," ,0,0411, ","2.00"," ,0,1012, ","102","0,0803, ","6933","7","30.70"," ,0","44.9"," ,0","46.9","0","60.9","0","32.9","0"
"US10perk021","ELSIE 3.5 SSW, NE US","40.7981","-101.4038","997.0","2008",,,,,,,,,,,,,"1.90"," ,N,0606, ",,,,,"25.08"," ,N",,,,,,,,
"US10thay003","CARLETON 2.2 E, NE US","40.3056","-97.637","479.1","2008",,,,,,,,,,,,,"2.49"," ,N,1022, ",,,,,"35.34"," ,N",,,,,,,,
"US10thay007","DAVENPORT 6.0 SE, NE US","40.2377","-97.7531","491.0","2008",,,,,,,,,,,,,"2.92"," ,N,1022, ",,,,,"35.53"," ,N",,,,,,,,
"USC00252820","FAIRBURY 5 S, NE US","40.0738","-97.1669","411.5","2008","998",,"       32",,"         6","0","-8","0,1222, ","5"," ,0,1225,+","4.0"," ,0,0206, ","5.00"," ,0,0718, ","100","0,0804,+","6138","2","45.91"," ,0","14.7"," ,0","50.4","0","62.2","0","38.6","0"
"USC00253910","HOLDREGE, NE US","40.4518","-99.3802","707.1","2008","763",,"       54",,"         6","0","-8","0,1222,+","8"," ,0,0206, ","6.0"," ,0,0206, ","2.70"," ,0,0524, ","99","0,0804, ","6526","7","31.91"," ,0","16.0"," ,0","48.5","0","60.1","0","36.9","0"
"US10thay001","DAVENPORT 0.1 W, NE US","40.3128","-97.8135","508.1","2008",,,,,,,,,,,,,"3.15"," ,N,0716, ",,,,,"29.57"," ,N",,,,,,,,
"USR0000NECH","ECHO 01 NEBRASKA, NE US","41.1025","-103.9831","1609.3","2008","382",,,,,,"-17","U,1215, ",,,,,,,"102","U,0802, ","7517","0",,,,,"45.1","U","58.7","U","31.5","U"
"US10adam008","GLENVIL 2.3 WSW, NE US","40.4953","-98.2973","566.9","2008",,,,,,,,,,,,,"2.44"," ,N,0710, ",,,,,"36.93"," ,N",,,,,,,,
"US10doug018","OMAHA 4.3 WNW, NE US","41.2924","-96.0062","373.1","2008",,,,,"         5","N",,,,,"3.9"," ,N,0206, ","2.78"," ,N,0530, ",,,,,"40.30"," ,N","13.1"," ,N",,,,,,
"US10adam006","ROSELAND 2.8 SW, NE US","40.4372","-98.5912","601.1","2008",,,,,,,,,,,,,"1.92"," ,N,0523, ",,,,,"31.22"," ,N",,,,,,,,
"US10howa008","SAINT PAUL 7.6 NNE, NE US","41.3219","-98.428","599.8","2008",,,,,,,,,,,,,"2.45"," ,N,0524, ",,,,,"40.10"," ,N",,,,,,,,
"US10howa009","ELBA 8.0 WNW, NE US","41.323","-98.7126","613.0","2008",,,,,"         0","N",,,,,"0.0","T,N,0503, ","2.83"," ,N,1007, ",,,,,"33.88"," ,N","0.0","T,N",,,,,,
"US10linc036","SUTHERLAND 0.7 N, NE US","41.1666","-101.1259","915.9","2008",,,,,"         8","N",,,,,"8.0"," ,N,0411, ","1.90"," ,N,0606, ",,,,,"23.92"," ,N","21.7"," ,N",,,,,,
"USC00250375","ASHLAND 2, NE US","41.0407","-96.3811","340.8","2008","1035",,"       44",,"         4","0","-10","0,1222, ","4"," ,0,0206,+","4.0"," ,0,0206, ","3.09"," ,0,0611, ","102","0,0804, ","6610","0","36.02"," ,0","11.1"," ,0","49.1","0","61.4","0","36.7","0"
"US10howa007","WOLBACH 6.3 SE, NE US","41.3219","-98.3255","573.9","2008",,,,,,,,,,,,,"2.27"," ,N,0524, ",,,,,"32.31"," ,N",,,,,,,,
"USC00259193","WESTON 3 NW, NE US","41.2211","-96.7775","416.1","2008","755",,"       67",,"         9","0","-14","0,1223, ","6"," ,0,0126,+","4.0"," ,0,0206, ","3.18"," ,0,0605, ","96","0,0804, ","6969","7","37.17"," ,0","19.8"," ,0","47.6","0","58.9","0","36.4","0"
"US10adam004","AYR 3.5 NE, NE US","40.4798","-98.4026","570.0","2008",,,,,"         5","N",,,,,"2.5"," ,N,1219, ","2.47"," ,N,0716, ",,,,,"34.16"," ,N","9.6"," ,N",,,,,,
"USW00024017","CHADRON MUNICIPAL AIRPORT, NE US","42.8374","-103.0981","1004.0","2008",,,,,,,,,,,,,"0.69"," ,W,0907, ",,,,,"12.86"," ,W",,,,,,,,
"US10adam002","JUNIATA 6.0 SSW, NE US","40.5093","-98.5493","601.1","2008",,,,,,,,,,,,,"2.25"," ,N,0716, ",,,,,"31.33"," ,N",,,,,,,,
"US10hook001","MULLEN 0.2 ENE, NE US","42.0437","-101.0391","979.0","2008",,,,,,,,,,,,,"1.95"," ,N,0523, ",,,,,"24.58"," ,N",,,,,,,,
"US10hook002","MULLEN 9.7 SW, NE US","41.9258","-101.146","1011.9","2008",,,,,,,,,,,,,"1.64"," ,N,0725, ",,,,,"25.17"," ,N",,,,,,,,
"USC00252790","EUSTIS 2 NW, NE US","40.6864","-100.0536","833.3","2008","703",,"       58",,"        10","0","-12","0,1216,+","6"," ,0,0105,+","4.8"," ,0,0411, ","5.03"," ,0,0524, ","103","0,0803, ","6597","2","38.56"," ,0","23.4"," ,0","48.3","0","60.3","0","36.4","0"
"USC00251345","BURWELL, NE US","41.7769","-99.1433","663.2","2008","610",,"       57",,"        11","0","-16","0,1222, ","6"," ,0,0411,+","6.0"," ,0,0411, ","2.75"," ,0,0524, ","99","0,0804, ","7111","5","31.00"," ,0","32.9"," ,0","46.6","0","58.5","0","34.6","0"
"USC00255701","MULLEN 15 S, NE US","41.8458","-101.0441","975.4","2008",,,,,,,,,,,,,"1.55"," ,0,0606, ",,,,,"27.73"," ,0",,,,,,,,
"US10doug006","OMAHA 2.9 W, NE US","41.2658","-95.9927","366.1","2008",,,,,"         8","N",,,,,"4.5"," ,N,0206, ","2.30"," ,N,0716, ",,,,,"39.06"," ,N","21.1"," ,N",,,,,,
"US10dund009","PARKS 16.4 N, NE US","40.2787","-101.6933","1022.0","2008",,,,,,,,,,,,,"1.92"," ,N,0816, ",,,,,"18.64"," ,N",,,,,,,,
"US10perk009","GRANT 2.5 S, NE US","40.8064","-101.7277","1036.9","2008",,,,,"         8","N",,,,,"7.5"," ,N,0411, ","1.32"," ,N,0510, ",,,,,"23.67"," ,N","37.1"," ,N",,,,,,
"USW00024023","NORTH PLATTE REGIONAL AIRPORT, NE US","41.1213","-100.6694","846.7","2008","659",,"       21",,"        10","0","-16","0,1221, ","7"," ,0,0317, ","6.6"," ,0,0410, ","2.52"," ,0,0522, ","108","0,0802, ","6820","9","26.67"," ,0","28.5"," ,0","47.9","0","62.2","0","33.5","0"
"USW00024020","HAYES CENTER 1 NW, NE US","40.52315","-101.03456","927.2","2008",,,,,,,,,,,,,,,,,"6574","2",,,,,,,,,,
"US10linc047","WELLFLEET 7.6 NNE, NE US","40.8603","-100.7018","914.1","2008",,,,,,,,,,,,,"1.97"," ,N,0718, ",,,,,"29.29"," ,N",,,,,,,,
"US10linc048","SUTHERLAND 1.4 W, NE US","41.1612","-101.152","922.9","2008",,,,,,,,,,,,,"1.97"," ,N,0606, ",,,,,"24.95"," ,N",,,,,,,,
"US10doug002","OMAHA 13.5 WSW, NE US","41.199","-96.1841","362.1","2008",,,,,,,,,,,,,"2.88"," ,N,0716, ",,,,,"37.56"," ,N",,,,,,,,
"US10john012","STERLING 5.2 ESE, NE US","40.4239","-96.2904","353.0","2008",,,,,"         0","N",,,,,"0.0"," ,N,1231,+","3.72"," ,N,0718, ",,,,,"35.93"," ,N","0.0"," ,N",,,,,,
"USW00024028","SCOTTSBLUFF W B HEILIG FIELD AIRPORT, NE US","41.8705","-103.593","1202.4","2008","614",,"       42",,"        11","0","-14","0,1215, ","10"," ,0,0101, ","4.1"," ,0,0322, ","1.52"," ,0,0815, ","101","0,0802,+","7036","7","14.28"," ,0","26.8"," ,0","47.3","0","62.1","0","32.6","0"
"US10john010","TECUMSEH 1.0 ENE, NE US","40.3726","-96.1795","371.9","2008",,,,,,,,,,,,,"3.46"," ,N,0718, ",,,,,"32.88"," ,N",,,,,,,,
"USC00251590","CHAMBERS, NE US","42.203","-98.7466","648.9","2008",,,,,,,,,,,,,,,,,,,,,,,,,,,,
"USC00252680","ELSMERE 9 ENE, NE US","42.1717","-100.0106","808.9","2008",,,,,"        19","0","-16","0,1222, ",,,"9.0"," ,0,0410, ","2.85"," ,0,0811, ",,,,,"35.83"," ,0","62.6"," ,0",,,,,"34.7","0"
"USC00252560","EDISON, NE US","40.2763","-99.7836","646.2","2008",,,,,"         3","0",,,,,"2.5"," ,0,1219,+","4.29"," ,0,0524, ",,,,,"33.56"," ,0","8.5"," ,0",,,,,,
"USC00255830","NELIGH, NE US","42.1302","-98.0275","536.4","2008",,,"       90",,"        17","0",,,"9"," ,0,1221,+","7.0"," ,0,0411, ","2.16"," ,0,1007, ",,,,,"35.80"," ,0","57.1"," ,0",,,,,,
"USC00253652","CONCORD, NE US","42.3844","-96.9883","440.1","2008",,,,,,,,,,,,,"1.68"," ,0,1023, ","97","0,0804, ",,,"32.23"," ,0",,,,,"57.5","0",,
"US10dund001","BENKELMAN 0.3 NNW, NE US","40.0535","-101.5336","919.0","2008",,,,,,,,,,,,,"2.60"," ,N,0624, ",,,,,"19.61"," ,N",,,,,,,,
"USC00254865","LISCO, NE US","41.4983","-102.6222","1071.4","2008",,,"        0",,"         6","0",,,"0"," ,0,1231,+","4.0"," ,0,0503,+","1.95"," ,0,0815, ",,,,,"17.44"," ,0","14.5"," ,0",,,,,,
"USC00254985","LOUP CITY, NE US","41.2789","-98.9697","630.9","2008","682",,"       34",,"         8","0","-13","0,1222, ","7"," ,0,1220,+","6.0"," ,0,1219, ","3.09"," ,0,0524, ","100","0,0804, ","6825","5","33.41"," ,0","18.9"," ,0","47.6","0","60.1","0","35.0","0"
"USC00252205","DAVID CITY, NE US","41.2491","-97.1327","490.7","2008","774",,"       79",,"        10","0","-13","0,1223,+","9"," ,0,0126,+","4.5"," ,0,0206, ","3.10"," ,0,0605, ","97","0,0804, ","7207","0","37.59"," ,0","27.4"," ,0","47.0","0","58.0","0","36.1","0"
"USC00256922","PRAGUE, NE US","41.3061","-96.8055","410.0","2008",,,"       41",,"         6","0",,,"7"," ,0,1219, ","5.8"," ,0,1219, ","3.12"," ,0,0530, ",,,,,"34.61"," ,0","18.2"," ,0",,,,,,
"US10dund005","MAX 4.4 NNE, NE US","40.1765","-101.39","961.9","2008",,,,,"         9","N",,,,,"6.0"," ,N,0411, ","2.37"," ,N,1012, ",,,,,"22.44"," ,N","27.8"," ,N",,,,,,
"US10dund004","PARKS 8.7 NNE, NE US","40.1626","-101.6806","1015.9","2008",,,,,,,,,,,,,"1.80"," ,N,0807, ",,,,,"22.13"," ,N",,,,,,,,
"US10vall004","ORD 9.0 NW, NE US","41.7187","-99.0065","655.9","2008",,,,,,,,,,,,,"2.60"," ,N,0524, ",,,,,"28.72"," ,N",,,,,,,,
"US10vall002","ORD 6.8 SSE, NE US","41.5105","-98.883","624.8","2008",,,,,"         5","N",,,,,"8.0"," ,N,1219, ","3.84"," ,N,1023, ",,,,,"34.09"," ,N","17.8"," ,N",,,,,,
"US10john002","COOK 4.0 SW, NE US","40.4644","-96.2337","360.0","2008",,,,,,,,,,,,,"2.43"," ,N,0718, ",,,,,"35.73"," ,N",,,,,,,,
"US10john009","STERLING 3.3 WSW, NE US","40.4471","-96.4384","367.0","2008",,,,,"         2","N",,,,,"3.0"," ,N,0117, ","2.50"," ,N,0718, ",,,,,"33.65"," ,N","4.5"," ,N",,,,,,
"US10john008","CRAB ORCHARD 2.2 S, NE US","40.3026","-96.4185","442.0","2008",,,,,,,,,,,,,"3.80"," ,N,0718, ",,,,,"33.81"," ,N",,,,,,,,
"US10vall009","ARCADIA 1.7 W, NE US","41.4239","-99.1593","666.0","2008",,,,,"        10","N",,,,,"8.0"," ,N,1023, ","2.90"," ,N,0524, ",,,,,"33.01"," ,N","39.1"," ,N",,,,,,
"US10sher011","GORDON 13.6 NNW, NE US","42.9809","-102.3209","1124.1","2008",,,,,,,,,,,,,"1.30"," ,N,1106, ",,,,,"19.30"," ,N",,,,,,,,
"USC00259090","WEEPING WATER, NE US","40.86389","-96.14139","335.3","2008","864",,"       29",,"         9","0","-12","0,0124, ","5"," ,0,0207,+","4.0"," ,0,0307, ","4.23"," ,0,0604, ","97","0,0803, ","6463","8","43.51"," ,0","24.1"," ,0","49.2","0","60.0","0","38.2","0"
"US10adam022","HASTINGS 2.2 W, NE US","40.5936","-98.4299","597.1","2008",,,,,"         0","N",,,,,"0.0"," ,N,1231,+","2.42"," ,N,0718, ",,,,,"37.07"," ,N","0.0"," ,N",,,,,,
"US10linc013","NORTH PLATTE 1.5 WNW, NE US","41.1327","-100.7921","861.1","2008",,,,,,,,,,,,,"1.88"," ,N,1012,+",,,,,"28.42"," ,N",,,,,,,,
"US10john001","TECUMSEH 1.7 ENE, NE US","40.3776","-96.1679","371.9","2008",,,,,,,,,,,,,"2.82"," ,N,0718, ",,,,,"33.53"," ,N",,,,,,,,
"USC00250030","AGATE 3 E, NE US","42.4244","-103.7347","1423.4","2008","381",,"       26",,,,"-23","0,0122, ","4"," ,0,0103,+",,,,,"98","0,0802, ","7483","5",,,,,"45.1","0","62.2","0","28.1","0"
"USC00252690","ELWOOD 8 S, NE US","40.4767","-99.8861","731.5","2008",,,"       52",,"         6","0",,,"6"," ,0,0207,+","5.2"," ,0,0205, ","3.49"," ,0,0524, ",,,,,"30.30"," ,0","17.6"," ,0",,,,,,
"USC00253660","HASTINGS 4 N, NE US","40.6471","-98.3835","590.7","2008","776",,"       52",,"         7","0","-11","0,1222,+","8"," ,0,0205, ","7.7"," ,0,0205, ","2.85"," ,0,0717, ","100","0,0803,+","6721","2","38.97"," ,0","21.6"," ,0","48.4","0","59.9","0","36.9","0"
"USC00251240","BRUNING, NE US","40.3325","-97.5652","481.6","2008",,,"       50",,"         7","0",,,"4"," ,0,0206,+","4.0"," ,0,0206, ","2.22"," ,0,1022, ",,,,,"33.77"," ,0","15.8"," ,0",,,,,,
"USC00251361","BUSHNELL 15 S, NE US","41.0102","-103.8769","1575.8","2008","324",,"       67",,"        11","0","-22","0,1215, ","12"," ,0,0101, ","5.8"," ,0,0411, ","1.32"," ,0,0809, ","100","0,0803,+","7619","9","14.76"," ,0","38.2"," ,0","44.2","0","59.3","0","29.0","0"
"US10linc022","NORTH PLATTE 5.4 SSE, NE US","41.0466","-100.747","937.0","2008",,,,,,,,,,,,,"1.72"," ,N,0510, ",,,,,"26.94"," ,N",,,,,,,,
"USC00251365","BUTTE, NE US","42.913","-98.8511","550.5","2008",,,"       26",,"        17","0",,,"7"," ,0,0426,+","7.0"," ,0,0426, ","4.97"," ,0,0812, ","95","0,0715, ",,,"34.16"," ,0","51.4"," ,0",,,"57.1","0",,
"USC00255840","NELSON, NE US","40.20284","-98.06346","514.2","2008",,,"       35",,"         5","0",,,"3"," ,0,1217,+","3.3"," ,0,0206, ","2.72"," ,0,1022, ",,,,,"32.09"," ,0","14.8"," ,0",,,,,,
"US10dund011","MAX 4.6 WNW, NE US","40.1548","-101.4734","929.0","2008",,,,,,,,,,,,,"2.40"," ,N,1012, ",,,,,"23.07"," ,N",,,,,,,,
"US10sher012","ALLIANCE 25.1 ENE, NE US","42.3371","-102.5072","1195.1","2008",,,,,,,,,,,,,"1.14"," ,N,0605, ",,,,,"15.10"," ,N",,,,,,,,
"US10dund010","PARKS 6.0 NW, NE US","40.1177","-101.7821","994.0","2008",,,,,"         7","N",,,,,"5.0"," ,N,0411,+","1.16"," ,N,1012, ",,,,,"15.20"," ,N","23.8"," ,N",,,,,,
"USC00253425","GREELEY, NE US","41.5462","-98.5331","615.7","2008",,,"       42",,"        10","0","-19","0,1222, ","12"," ,0,1225,+","10.0"," ,0,1219, ","2.52"," ,0,0524, ","103","0,0804, ",,,"32.57"," ,0","30.2"," ,0","46.1","0","59.1","0","33.1","0"
"US10sher017","RUSHVILLE 18.9 N, NE US","42.9929","-102.4713","1057.0","2008",,,,,,,,,,,,,"2.40"," ,N,1107, ",,,,,"21.37"," ,N",,,,,,,,
"US10dund015","WAUNETA 6.5 S, NE US","40.3361","-101.4339","1001.0","2008",,,,,,,,,,,,,"1.76"," ,N,1012,+",,,,,"23.17"," ,N",,,,,,,,
"US10madi006","NORFOLK 0.9 E, NE US","42.0261","-97.4007","459.9","2008",,,,,"         1","N",,,,,"2.1"," ,N,0212, ","2.18"," ,N,0608, ",,,,,"27.24"," ,N","2.1"," ,N",,,,,,
"US10hami003","HAMPTON 2.6 ESE, NE US","40.8598","-97.8425","516.9","2008",,,,,,,,,,,,,"2.45"," ,N,1022, ",,,,,"36.32"," ,N",,,,,,,,
"US10madi008","NORFOLK 2.5 E, NE US","42.0224","-97.3712","465.1","2008",,,,,"         0","N",,,,,"0.0"," ,N,1231,+","1.92"," ,N,0608, ",,,,,"31.26"," ,N","0.0"," ,N",,,,,,
"US10hami002","HAMPTON 0.8 ENE, NE US","40.8863","-97.8748","537.1","2008",,,,,"         1","N",,,,,"5.0"," ,N,0206, ","2.02"," ,N,1022, ",,,,,"35.94"," ,N","5.0"," ,N",,,,,,
"US10adam010","JUNIATA 6.9 WSW, NE US","40.5532","-98.6297","622.1","2008",,,,,,,,,,,,,"3.06"," ,N,0524, ",,,,,"31.73"," ,N",,,,,,,,
"US10linc024","NORTH PLATTE 6.2 NNE, NE US","41.2074","-100.7222","908.0","2008",,,,,,,,,,,,,"1.95"," ,N,1006, ",,,,,"26.47"," ,N",,,,,,,,
"USC00255970","NIOBRARA 6 WSW, NE US","42.7655","-98.0772","466.3","2008",,,,,,,,,,,,,,,,,,,,,,,,,,,,
"US10linc033","SUTHERLAND 0.9 NW, NE US","41.1675","-101.1375","940.0","2008",,,,,,,,,,,,,"1.77"," ,N,0606, ",,,,,"23.15"," ,N",,,,,,,,
"USC00252100","CURTIS, NE US","40.6344","-100.5219","794.3","2008",,,,,,,,,,,,,,,,,,,,,,,,,,,,
"US10fill006","TOBIAS 2.1 WSW, NE US","40.4067","-97.3739","479.1","2008",,,,,,,,,,,,,"2.31"," ,N,0507, ",,,,,"36.93"," ,N",,,,,,,,
"US10sher001","GORDON 5.3 E, NE US","42.8153","-102.1032","1079.9","2008",,,,,,,,,,,,,"1.49"," ,N,0523, ",,,,,"18.93"," ,N",,,,,,,,
"US10siou001","MITCHELL 4.7 NNW, NE US","42.0008","-103.848","1253.9","2008",,,,,,,,,,,,,"1.15"," ,N,0724, ",,,,,"11.77"," ,N",,,,,,,,
"US10dund020","WAUNETA 5.8 S, NE US","40.3347","-101.3795","992.1","2008",,,,,,,,,,,,,"2.17"," ,N,1012,+",,,,,"25.06"," ,N",,,,,,,,
"US10fill003","SHICKLEY 2.7 S, NE US","40.3785","-97.73","505.1","2008",,,,,,,,,,,,,"2.80"," ,N,0716, ",,,,,"36.44"," ,N",,,,,,,,
"US10sher005","RUSHVILLE 7.3 SSW, NE US","42.6149","-102.4964","1154.9","2008",,,,,,,,,,,,,"1.10"," ,N,1106, ",,,,,"15.09"," ,N",,,,,,,,
"US10sher007","HAY SPRINGS 9.0 ESE, NE US","42.6001","-102.5571","1156.1","2008",,,,,"        16","N",,,,,"5.0"," ,N,1106, ","1.18"," ,N,1106, ",,,,,"17.55"," ,N","36.3"," ,N",,,,,,
"USC00259150","WESTERN 2 W, NE US","40.3925","-97.2397","457.2","2008",,,"       21",,"         6","0",,,"5"," ,0,1225,+","4.0"," ,0,0206, ","3.60"," ,0,0605, ",,,,,"40.04"," ,0","15.2"," ,0",,,,,,
"US10webs013","RED CLOUD 4.3 E, NE US","40.0891","-98.4366","516.9","2008",,,,,,,,,,,,,"3.50"," ,N,0523, ",,,,,"37.58"," ,N",,,,,,,,
"US10nuck019","NELSON 0.3 SW, NE US","40.1986","-98.134","535.8","2008",,,,,,,,,,,,,"2.48"," ,N,1022, ",,,,,"32.57"," ,N",,,,,,,,
"USR0000NAGA","AGATE NEBRASKA, NE US","42.425","-103.7358","1325.3","2008","409",,,,,,"-21","U,1215, ",,,,,,,"99","U,0802,+","7985","4",,,,,"44.3","U","60.0","U","28.6","U"
"US10chas002","ENDERS 3.0 W, NE US","40.4629","-101.5907","975.1","2008",,,,,,,,,,,,,"1.44"," ,N,0425, ",,,,,"20.15"," ,N",,,,,,,,
"US10clay017","EDGAR 6.5 NE, NE US","40.4517","-97.9066","527.0","2008",,,,,,,,,,,,,"2.09"," ,N,1022, ",,,,,"23.57"," ,N",,,,,,,,
"US10nuck017","HARDY 4.3 E, NE US","40.0167","-97.8457","502.9","2008",,,,,"         5","N",,,,,"3.5"," ,N,0117, ","2.81"," ,N,1022, ",,,,,"35.03"," ,N","10.0"," ,N",,,,,,
"US10chas001","IMPERIAL 0.1 SW, NE US","40.5158","-101.6451","1004.0","2008",,,,,,,,,,,,,"2.13"," ,N,0605, ",,,,,"22.47"," ,N",,,,,,,,
"US10nuck011","LAWRENCE 6.7 SSE, NE US","40.2049","-98.2053","572.1","2008",,,,,,,,,,,,,"2.73"," ,N,0523, ",,,,,"33.35"," ,N",,,,,,,,
"US10garf004","BURWELL 20.4 NNE, NE US","42.058","-98.9925","691.0","2008",,,,,"        17","N",,,,,"6.0"," ,N,0411, ","2.11"," ,N,0524, ",,,,,"28.22"," ,N","46.1"," ,N",,,,,,
"US10nuck016","SUPERIOR 8.4 NW, NE US","40.1094","-98.1801","527.9","2008",,,,,,,,,,,,,"2.80"," ,N,1022, ",,,,,"35.72"," ,N",,,,,,,,
"US10nuck013","HARDY 3.0 NW, NE US","40.0413","-97.9658","488.9","2008",,,,,"         1","N",,,,,"2.5"," ,N,0110, ","2.11"," ,N,1022, ",,,,,"31.30"," ,N","2.5"," ,N",,,,,,
"US10nuck014","GUIDE ROCK 7.7 ESE, NE US","40.0257","-98.1994","490.1","2008",,,,,,,,,,,,,"2.93"," ,N,0708, ",,,,,"36.69"," ,N",,,,,,,,
"USC00253605","HARRISBURG 12 WNW, NE US","41.633","-103.9541","1386.8","2008","459",,"       71",,"        16","0","-20","0,1215, ","11"," ,0,0102,+","3.0"," ,0,0214, ","1.55"," ,0,0815,+","100","0,0723,+","7224","4","15.26"," ,0","28.7"," ,0","46.0","0","61.8","0","30.2","0"
"US10webs008","RED CLOUD 1.1 N, NE US","40.1045","-98.5204","541.0","2008",,,,,,,,,,,,,"4.15"," ,N,0523, ",,,,,"36.84"," ,N",,,,,,,,
"US10rich001","HUMBOLDT 2.2 SW, NE US","40.1399","-95.9726","319.1","2008",,,,,,,,,,,,,"2.68"," ,N,0509, ",,,,,"34.39"," ,N",,,,,,,,
"USC00253618","HARRISON 9 NE, NE US","42.8002","-103.7866","1228.0","2008","518",,"       16",,,,"-19","0,1217,+","6"," ,0,0122, ",,,"2.47"," ,0,0724, ","97","0,0827, ",,,"13.15"," ,0",,,"46.5","0","59.8","0","33.2","0"
"US10linc003","NORTH PLATTE 6.6 SSW, NE US","41.0322","-100.8012","925.1","2008",,,,,,,,,,,,,"1.88"," ,N,1012, ",,,,,"28.19"," ,N",,,,,,,,
"US10linc004","HERSHEY 6.0 NW, NE US","41.221","-101.0835","897.9","2008",,,,,,,,,,,,,"1.50"," ,N,1012, ",,,,,"23.37"," ,N",,,,,,,,
"US10rich007","FALLS CITY 5.5 NE, NE US","40.1164","-95.5256","303.0","2008",,,,,,,,,,,,,"2.98"," ,N,0913, ",,,,,"35.51"," ,N",,,,,,,,
"USC00259045","WAYNE, NE US","42.2361","-97.0108","446.5","2008","639",,,,"        13","0","-19","0,0125,+",,,"10.0"," ,0,1219, ","2.19"," ,0,1023, ","97","0,0804, ","7324","1","30.37"," ,0","36.0"," ,0","45.5","0","56.7","0","34.2","0"
"US10webs002","BLADEN 1.7 ESE, NE US","40.3067","-98.5694","609.9","2008",,,,,,,,,,,,,"2.75"," ,N,0523, ",,,,,"35.43"," ,N",,,,,,,,
"US10chas008","LAMAR 1.7 SSW, NE US","40.5493","-101.9893","1072.0","2008",,,,,,,,,,,,,"1.87"," ,N,0816, ",,,,,"22.53"," ,N",,,,,,,,
"US10rich003","DAWSON 2.5 SE, NE US","40.0997","-95.8073","285.0","2008",,,,,,,,,,,,,"2.60"," ,N,0606, ",,,,,"35.57"," ,N",,,,,,,,
"US10clay004","CLAY CENTER 2.8 W, NE US","40.5318","-98.107","552.9","2008",,,,,,,,,,,,,"2.53"," ,N,1022, ",,,,,"37.24"," ,N",,,,,,,,
"US10nuck008","DEWEESE 3.5 SSE, NE US","40.3049","-98.1234","543.2","2008",,,,,"         5","N",,,,,"6.0"," ,N,0205, ","2.42"," ,N,0523, ",,,,,"33.85"," ,N","15.5"," ,N",,,,,,
"US10chas016","LAMAR 3.4 S, NE US","40.5227","-101.9864","1068.9","2008",,,,,,,,,,,,,"1.57"," ,N,0616, ",,,,,"22.98"," ,N",,,,,,,,
"US10chas012","CHAMPION 8.3 W, NE US","40.4836","-101.9051","1035.1","2008",,,,,,,,,,,,,"1.95"," ,N,0816, ",,,,,"24.43"," ,N",,,,,,,,
"US10chas011","IMPERIAL 5.4 WNW, NE US","40.5667","-101.7244","1014.1","2008",,,,,,,,,,,,,"1.20"," ,N,0816,+",,,,,"21.15"," ,N",,,,,,,,
"US10nuck001","LAWRENCE 0.1 W, NE US","40.2922","-98.2614","574.9","2008",,,,,,,,,,,,,"2.32"," ,N,1022, ",,,,,"35.83"," ,N",,,,,,,,
"USC00252645","ELLSWORTH 2 W, NE US","42.06284","-102.31722","1191.5","2008",,,,,,,,,,,,,,,,,,,,,,,,,,,,
"US10nuck004","LAWRENCE 0.3 SSE, NE US","40.288","-98.2581","570.9","2008",,,,,,,,,,,,,"2.09"," ,N,1022, ",,,,,"35.58"," ,N",,,,,,,,
"USC00253615","HARRISON, NE US","42.6858","-103.8841","1478.3","2008","375",,"       86",,"        19","0","-21","0,1216,+","8"," ,0,0503, ","5.0"," ,0,0411, ","1.75"," ,0,0524, ","97","0,0803, ","8067","5","16.04"," ,0","42.1"," ,0","43.4","0","57.1","0","29.7","0"
"US10clay009","HASTINGS 6.1 ENE, NE US","40.6115","-98.2773","570.9","2008",,,,,,,,,,,,,"2.30"," ,N,1022, ",,,,,"35.06"," ,N",,,,,,,,
"USC00253735","HEBRON, NE US","40.175","-97.5902","451.1","2008","884",,"       41",,"         4","0","-10","0,1222, ","4"," ,0,1217, ","2.9"," ,0,0117, ","2.69"," ,0,1022, ","101","0,0804, ","6158","3","35.72"," ,0","13.7"," ,0","49.7","0","61.6","0","37.8","0"
"USC00254945","LORETTO 7 W, NE US","41.7613","-98.2138","640.1","2008",,,"       71",,"        13","0",,,"10"," ,0,1226,+","6.4"," ,0,0411, ","2.05"," ,0,1007, ",,,,,"35.14"," ,0","37.8"," ,0",,,,,,
"US10nuck002","NORA 1.5 N, NE US","40.1828","-97.9717","524.0","2008",,,,,,,,,,,,,"2.35"," ,N,1022, ",,,,,"33.87"," ,N",,,,,,,,
"USC00253617","HARRISON 4 NW, NE US","42.7433","-103.9219","1546.3","2008",,,,,,,,,,,,,,,,,,,,,,,,,,,,
"US10nuck003","RUSKIN 3.4 W, NE US","40.1383","-97.9337","518.2","2008",,,,,"         4","N",,,,,"3.0"," ,N,0111, ","2.80"," ,N,0530, ",,,,,"31.21"," ,N","10.1"," ,N",,,,,,
"US10whee003","BARTLETT 11.4 E, NE US","41.9032","-98.3348","604.1","2008",,,,,,,,,,,,,"1.90"," ,N,0707, ",,,,,"33.98"," ,N",,,,,,,,
"USW00024032","VALENTINE MILLER FIELD AIRPORT, NE US","42.8783","-100.55","789.4","2008","670",,"       43",,"        12","0","-20","0,0124, ","5"," ,0,0411,+","6.5"," ,0,0410, ","1.84"," ,0,0522, ","101","0,0802, ","7184","1","20.78"," ,0","36.9"," ,0","46.5","0","60.0","0","33.0","0"
"USW00024030","SIDNEY MUNICIPAL AIRPORT, NE US","41.0993","-102.9863","1309.4","2008","539",,,,,,"-16","W,1215, ",,,,,"1.21"," ,W,0815, ","103","W,0802,+","7098","6","15.55"," ,W",,,"47.0","W","61.4","W","32.5","W"
"USC00258088","SPRINGFIELD 7 E, NE US","41.0625","-96.0069","324.6","2008",,,"       41",,"         3","0",,,"5"," ,0,0207,+","4.5"," ,0,0206, ","2.16"," ,0,0627, ",,,,,"39.85"," ,0","16.9"," ,0",,,,,,
"USC00251680","CLAY CENTER 6 ESE, NE US","40.5033","-97.9372","528.5","2008",,,"       58",,"         6","0",,,"6"," ,0,1219, ","4.2"," ,0,0206, ","2.38"," ,0,1022, ",,,,,"32.00"," ,0","14.9"," ,0",,,,,,
"USC00251560","CENTRAL CITY, NE US","41.1222","-98.0283","518.2","2008","926",,"       71",,"         6","0","-9","0,1222,+","5"," ,0,1223,+","4.2"," ,0,1219, ","2.60"," ,0,0716, ","97","0,0803, ","6013","8","41.31"," ,0","21.2"," ,0","50.6","0","61.7","0","39.5","0"
"USC00252770","ERICSON 8 WNW, NE US","41.8037","-98.8239","651.4","2008",,,,,"        10","0",,,,,"5.5"," ,0,0411, ","2.00"," ,0,0524, ",,,,,"29.91"," ,0","25.7"," ,0",,,,,,
"US10plat003","COLUMBUS 3.7 ENE, NE US","41.447","-97.3021","438.9","2008",,,,,"        11","N",,,,,"3.5"," ,N,1209, ","2.11"," ,N,1022, ",,,,,"33.85"," ,N","23.1"," ,N",,,,,,
"USC00251684","CLAY CENTER, NE US","40.5208","-98.0536","545.0","2008",,,"       37",,"         2","0",,,"6"," ,0,0206, ","2.0"," ,0,1219, ",,,,,,,"37.71"," ,0","10.3"," ,0",,,,,,
"US10plat008","MONROE 4.9 NNW, NE US","41.5407","-97.6344","524.9","2008",,,,,,,,,,,,,"5.38"," ,N,0530, ",,,,,"42.58"," ,N",,,,,,,,
"US10fron007","MAYWOOD 0.1 NNW, NE US","40.6595","-100.6237","819.9","2008",,,,,,,,,,,,,"3.68"," ,N,0624, ",,,,,"30.35"," ,N",,,,,,,,
"US10fron002","CURTIS 6.5 SE, NE US","40.5556","-100.4389","808.9","2008",,,,,"         3","N",,,,,"4.0"," ,N,0318, ","4.33"," ,N,0524, ",,,,,"32.86"," ,N","7.5"," ,N",,,,,,
"US10fron004","CURTIS 0.6 W, NE US","40.6295","-100.5277","783.9","2008",,,,,"         0","N",,,,,"0.0"," ,N,1231,+","6.11"," ,N,0524, ",,,,,"36.22"," ,N","0.0"," ,N",,,,,,
"US10fron005","BARTLEY 8.5 NNW, NE US","40.3652","-100.3659","764.1","2008",,,,,"         5","N",,,,,"2.0"," ,N,0317,+","1.08"," ,N,0510, ",,,,,"20.98"," ,N","8.0"," ,N",,,,,,
"USC00255925","NEWPORT, NE US","42.6008","-99.3333","679.7","2008","560",,"       76",,"        16","0","-15","0,1222,+","11"," ,0,0126,+","9.0"," ,0,0121, ","2.65"," ,0,0606, ","96","0,0803,+","7513","2","30.72"," ,0","52.0"," ,0","45.1","0","56.7","0","33.6","0"
"USW00024044","ALLIANCE MUNICIPAL AIRPORT ASOS, NE US","42.0573","-102.8017","1197.6","2008","530",,,,,,"-19","W,1215, ",,,,,"0.90"," ,W,0604, ","106","W,0802, ","7685","7","13.97"," ,W",,,"45.4","W","60.8","W","29.9","W"
"USC00250245","ANSELMO 2 WSW, NE US","41.61079","-99.90442","833.0","2008",,,"       37",,"        19","0",,,"11"," ,0,0411, ","11.0"," ,0,0411, ","2.49"," ,0,0524, ",,,"6888","8","32.56"," ,0","43.7"," ,0",,,,,,
"USC00250365","ARTHUR, NE US","41.5697","-101.6917","1115.6","2008","663",,"       39",,"        17","0","-15","0,1215, ","8"," ,0,0411, ","10.0"," ,0,0411, ","1.75"," ,0,0523, ","103","0,0803, ","6885","3","19.55"," ,0","40.0"," ,0","47.4","0","61.0","0","33.8","0"
"US10fron010","EUSTIS 4.1 WNW, NE US","40.6901","-100.09953","844.9","2008",,,,,,,,,,,,,"3.81"," ,N,0524, ",,,,,"37.14"," ,N",,,,,,,,
"US10fron011","EUSTIS 7.9 SW, NE US","40.57","-100.1177","787.9","2008",,,,,,,,,,,,,"4.74"," ,N,0524, ",,,,,"33.29"," ,N",,,,,,,,
"USC00251450","CANADAY STEAM PLANT, NE US","40.6944","-99.7008","719.9","2008","707",,,,"         3","0","-9","0,1223,+",,,"3.0"," ,0,1218,+","3.10"," ,0,0524, ","101","0,0803, ",,,"32.13"," ,0","7.5"," ,0","48.6","0","60.7","0","36.4","0"
"US10plat014","HUMPHREY 4.4 SE, NE US","41.6411","-97.4321","513.0","2008",,,,,,,,,,,,,"4.55"," ,N,0530, ",,,,,"35.56"," ,N",,,,,,,,
"USC00253630","HARTINGTON, NE US","42.6166","-97.2608","429.2","2008","688",,"       79",,"        17","0","-18","0,0125,+","8"," ,0,1226,+","5.2"," ,0,0121, ","3.64"," ,0,1007, ","98","0,0804, ",,,"33.45"," ,0","41.2"," ,0","45.8","0","56.7","0","34.8","0"
"USC00251575","CHADRON 3 SW, NE US","42.8083","-103.0533","1031.1","2008",,,,,,,,,,,,,,,,,,,,,,,,,,,,
"USC00255810","NEBRASKA CITY 2 NW, NE US","40.6986","-95.8866","321.6","2008","918",,"       43",,"         5","0","-9","0,0125,+","6"," ,0,1225,+","5.6"," ,0,0206, ","2.56"," ,0,0718, ","97","0,0805,+","6073","2","41.13"," ,0","22.2"," ,0","49.2","0","60.1","0","38.3","0"
"US10gosp002","ARAPAHOE 9.8 NNE, NE US","40.4379","-99.8351","741.0","2008",,,,,"         6","N",,,,,"4.5"," ,N,0205, ","3.71"," ,N,0524, ",,,,,"28.79"," ,N","16.3"," ,N",,,,,,
"USC00253755","HEMINGFORD, NE US","42.3208","-103.0733","1301.5","2008",,,,,,,,,,,,,,,,,"7061","9",,,,,,,,,,
"USR0000NBES","BESSY NEBRASKA, NE US","41.8975","-100.3108","897.0","2008","803",,,,,,"-11","U,1221, ",,,,,,,"107","U,0802, ","6148","7",,,,,"49.2","U","61.7","U","36.6","U"
"USC00253515","HAIGLER, NE US","40.0136","-101.9408","998.2","2008","890",,"       47",,"        10","0","-13","0,1216, ","7"," ,0,0102,+","4.4"," ,0,0205, ","1.14"," ,0,0807, ","108","0,0803, ","6307","8","16.07"," ,0","20.2"," ,0","50.0","0","64.8","0","35.2","0"
"US10fron016","EUSTIS 7.8 SSW, NE US","40.5523","-100.0582","776.0","2008",,,,,,,,,,,,,"3.92"," ,N,0524, ",,,,,"28.25"," ,N",,,,,,,,
"US10cust011","ANSELMO 11.5 SW, NE US","41.5008","-100.0225","919.9","2008",,,,,"         0","N",,,,,"0.0"," ,N,1231,+","2.52"," ,N,0524, ",,,,,"28.21"," ,N","0.0"," ,N",,,,,,
"US10cust010","EDDYVILLE 11.4 N, NE US","41.1759","-99.6131","726.0","2008",,,,,,,,,,,,,"2.70"," ,N,0524, ",,,,,"29.41"," ,N",,,,,,,,
"USC00255780","NAPONEE, NE US","40.0783","-99.1386","577.3","2008",,,"       43",,"         4","0",,,"6"," ,0,0206, ","3.2"," ,0,0205, ","3.13"," ,0,0523, ",,,,,"31.22"," ,0","11.4"," ,0",,,,,,
"USC00251065","BRADSHAW, NE US","40.8836","-97.7491","524.3","2008",,,"       78",,"         8","0",,,"9"," ,0,0207,+","3.5"," ,0,1219,+","2.97"," ,0,1022, ",,,,,"38.39"," ,0","25.8"," ,0",,,,,,
"USC00253365","GOTHENBURG, NE US","40.9394","-100.1513","793.4","2008","668",,,,,,"-14","0,1215, ",,,,,"5.33"," ,0,0523, ","102","0,0802, ","6236","6","36.29"," ,0",,,"49.2","0","61.8","0","36.5","0"
"USC00253485","GUIDE ROCK, NE US","40.0691","-98.333","498.3","2008",,,"        4",,"         2","0",,,"2"," ,0,1216,+","2.0"," ,0,1216,+","2.35"," ,0,1022, ",,,,,"32.88"," ,0","4.0"," ,0",,,,,,
"USC00254335","KEARNEY 4 NE, NE US","40.7258","-99.0133","649.2","2008","733",,"       47",,"         4","0","-9","0,1222,+","4"," ,0,1222,+","4.0"," ,0,1219,+","3.27"," ,0,0524, ","99","0,0804,+","6581","9","36.51"," ,0","12.6"," ,0","48.2","0","60.3","0","36.2","0"
"USC00254455","KINGSLEY DAM, NE US","41.2097","-101.6705","1011.3","2008","724",,,,,,"-11","0,1215, ",,,,,"1.24"," ,0,1012, ","105","0,0802, ","6435","8","16.24"," ,0",,,"48.6","0","61.3","0","35.9","0"
"USC00252037","CROFTON, NE US","42.7363","-97.4969","426.7","2008","741",,"       93",,"        16","0","-22","0,0124, ","9"," ,0,1220,+","6.5"," ,0,0121, ","2.63"," ,0,1007, ","99","0,0803, ","7329","7","30.21"," ,0","58.1"," ,0","46.1","0","57.3","0","34.9","0"
"US10cust004","GOTHENBURG 15.0 NNW, NE US","41.14919","-100.19541","900.1","2008",,,,,,,,,,,,,"3.02"," ,N,0524, ",,,,,"31.62"," ,N",,,,,,,,
"US10nanc001","GENOA 2.7 WSW, NE US","41.4246","-97.7717","509.9","2008",,,,,"         0","N",,,,,"0.4"," ,N,0121, ","2.55"," ,N,0530, ",,,,,"36.61"," ,N","0.4"," ,N",,,,,,
"USC00258935","WALTHILL, NE US","42.1505","-96.4755","390.1","2008","805",,"       40",,"        12","0","-17","0,0124, ","11"," ,0,1223,+","11.0"," ,0,1219, ","1.38"," ,0,0411, ","99","0,0804, ","7359","2","27.72"," ,0","37.6"," ,0","46.4","0","57.5","0","35.3","0"
"USW00024091","IMPERIAL MUNICIPAL AIRPORT, NE US","40.51","-101.62","996.1","2008","889",,,,,,"-14","W,1215, ",,,,,"1.59"," ,W,0804, ","111","W,0802, ","6257","2","20.75"," ,W",,,"50.4","W","64.3","W","36.5","W"
"US10cust009","MERNA 5.0 WNW, NE US","41.5285","-99.8369","807.1","2008",,,,,,,,,,,,,"2.92"," ,N,0524, ",,,,,"32.37"," ,N",,,,,,,,
"US10nanc003","PALMER 9.2 NE, NE US","41.3315","-98.1584","566.9","2008",,,,,,,,,,,,,"2.01"," ,N,0523, ",,,,,"34.52"," ,N",,,,,,,,
"US10nanc004","FULLERTON 2.9 SE, NE US","41.3267","-97.9438","499.0","2008",,,,,,,,,,,,,"3.10"," ,N,0809, ",,,,,"35.96"," ,N",,,,,,,,
"US10gage003","BARNESTON 0.3 N, NE US","40.0525","-96.5774","367.0","2008",,,,,"         6","N",,,,,"6.0"," ,N,0117, ","3.28"," ,N,0718, ",,,,,"34.48"," ,N","19.5"," ,N",,,,,,
"US10gage009","WYMORE 8.1 SSW, NE US","40.0086","-96.7029","396.8","2008",,,,,,,,,,,,,"2.52"," ,N,0718, ",,,,,"28.96"," ,N",,,,,,,,
"US10jeff014","DAYKIN 1.2 SW, NE US","40.3073","-97.3119","452.9","2008",,,,,,,,,,,,,"4.42"," ,N,0605, ",,,,,"39.42"," ,N",,,,,,,,
"USW00094077","HARRISON 20 SSE, NE US","42.4247","-103.7363","1342.9","2008","324",,,,,,"-22","R,0122, ",,,,,"0.95"," ,R,0907, ","100","R,0802, ","8208","0","12.24"," ,R",,,"43.4","R","59.4","R","27.3","R"
"USW00094079","WHITMAN 5 ENE, NE US","42.068","-101.445","1140.0","2008","499",,,,,,"-19","R,1215, ",,,,,"1.60"," ,R,0522, ","98","R,0705, ","7075","5","17.16"," ,R",,,"46.4","R","57.9","R","35.0","R"
"USC00256765","PLAINSVIEW RANCH, NE US","42.2613","-103.5188","1426.5","2008","462",,"       72",,"        23","0","-19","0,1215, ","7"," ,0,0218,+","6.0"," ,0,0502, ","1.70"," ,0,0524, ","97","0,0807,+","6886","8","16.33"," ,0","43.9"," ,0","46.5","0","60.0","0","33.1","0"
"USC00252166","DANNEBROG 4 NW, NE US","41.1594","-98.6011","600.2","2008",,,"       63",,"         7","0",,,"7"," ,0,0206, ","4.0"," ,0,0206, ","3.11"," ,0,1007, ",,,,,"32.92"," ,0","15.5"," ,0",,,,,,
"US10boon005","ALBION 3.5 S, NE US","41.6402","-97.9951","573.9","2008",,,,,,,,,,,,,"1.77"," ,N,0809, ",,,,,"30.24"," ,N",,,,,,,,
"USC00253015","FORT ROBINSON, NE US","42.6655","-103.4618","1161.9","2008",,,,,,,,,,,,,,,,,,,,,,,,,,,,
"USC00255311","MC COOK 17 NNW, NE US","40.4388","-100.6961","843.1","2008",,,"       11",,"        11","0",,,"5"," ,0,0206, ","4.0"," ,0,0318, ","2.87"," ,0,0524, ",,,,,"29.27"," ,0","21.5"," ,0",,,,,,
"USC00255312","MC COOK NUMBER 2, NE US","40.2161","-100.6301","787.9","2008",,,"       37",,"         5","0",,,"6"," ,0,0206, ","3.0"," ,0,0317,+","6.13"," ,0,0524, ",,,,,"25.32"," ,0","13.0"," ,0",,,,,,
"US10gage013","FILLEY 0.4 NNW, NE US","40.2911","-96.5367","430.1","2008",,,,,,,,,,,,,"2.55"," ,N,0718, ",,,,,"31.62"," ,N",,,,,,,,
"US10pawn003","BURCHARD 6.3 NNW, NE US","40.2327","-96.3912","444.1","2008",,,,,,,,,,,,,"3.50"," ,N,0425, ",,,,,"34.31"," ,N",,,,,,,,
"US10york025","YORK 3.3 WNW, NE US","40.8831","-97.6515","502.0","2008",,,,,,,,,,,,,"2.52"," ,N,1022, ",,,,,"36.20"," ,N",,,,,,,,
"US10chas027","CHAMPION 0.0 WNW, NE US","40.4702","-101.748","996.1","2008",,,,,"         9","N",,,,,"15.0"," ,N,1111, ","2.17"," ,N,0605, ",,,,,"25.54"," ,N","34.5"," ,N",,,,,,
"US10thur002","WAKEFIELD 4.25 ESE, NE US","42.2032","-96.8233","431.9","2008",,,,,"        14","N",,,,,"3.5"," ,N,0212, ","1.45"," ,N,1023, ",,,,,"25.55"," ,N","28.2"," ,N",,,,,,
"USC00254110","IMPERIAL, NE US","40.50905","-101.65147","1004.0","2008",,,,,"        10","0",,,,,"10.5"," ,0,1111, ",,,,,,,"22.80"," ,0","35.1"," ,0",,,,,,
"USC00254113","INDIANOLA 1 S, NE US","40.22333","-100.41639","725.1","2008",,,,,,,,,,,,,,,,,,,,,,,,,,,,
"USC00256534","PAPILLION, NE US","41.1519","-96.0491","320.0","2008",,,"       52",,"         5","0",,,"5"," ,0,0207,+","4.7"," ,0,0206, ",,,,,,,,,"18.5"," ,0",,,,,,
"US10buff013","ELM CREEK 2.2 WSW, NE US","40.69954","-99.4062","691.9","2008",,,,,,,,,,,,,"4.14"," ,N,0807, ",,,,,"36.62"," ,N",,,,,,,,
"US10york023","STROMSBURG 6.8 SE, NE US","41.0357","-97.5205","502.9","2008",,,,,,,,,,,,,"3.62"," ,N,0705, ",,,,,"41.56"," ,N",,,,,,,,
"USC00255565","MINDEN, NE US","40.5155","-98.9513","658.4","2008",,,"       48",,"         7","0",,,"4"," ,0,1225,+","2.8"," ,0,0206, ","4.75"," ,0,1007, ","99","0,0803, ",,,"38.78"," ,0","15.0"," ,0",,,"60.8","0",,
"US10brow004","JOHNSTOWN 4.0 WSW, NE US","42.5375","-100.1208","794.9","2008",,,,,"        14","N",,,,,"7.0"," ,N,0411, ","1.58"," ,N,0523, ",,,,,"24.59"," ,N","40.9"," ,N",,,,,,
"US10chas028","ENDERS 1.0 NNW, NE US","40.4688","-101.541","972.0","2008",,,,,"         1","N",,,,,"2.0"," ,N,0317, ","2.80"," ,N,0523, ",,,,,"21.84"," ,N","2.0"," ,N",,,,,,
"US10scot027","SCOTTSBLUFF 4.4 NNE, NE US","41.9289","-103.6484","1249.1","2008",,,,,"         6","N",,,,,"3.5"," ,N,0316, ","1.87"," ,N,0723, ",,,,,"15.15"," ,N","13.8"," ,N",,,,,,
"US10scot026","MITCHELL 3.0 ENE, NE US","41.957","-103.7559","1243.9","2008",,,,,"         0","N",,,,,"0.0"," ,N,1231,+","0.93"," ,N,0816, ",,,,,"13.53"," ,N","0.0"," ,N",,,,,,
"USC00257751","SHELBY 3 NE, NE US","41.2183","-97.3883","498.3","2008",,,"       79",,"         9","0",,,"9"," ,0,0207,+","4.2"," ,0,1218, ","3.46"," ,0,0605, ",,,,,"35.90"," ,0","27.0"," ,0",,,,,,
"USC00252065","CULBERTSON, NE US","40.23154","-100.83026","786.7","2008","862",,,,"         9","0","-9","0,1216,+",,,"4.0"," ,0,0206, ","3.02"," ,0,0524, ","106","0,0712, ","6254","6","21.75"," ,0","14.4"," ,0","50.1","0","64.7","0","35.4","0"
"USR0000NBR1","BRAVO 01 NEBRASKA, NE US","41.51","-103.995","1603.2","2008",,,,,,,,,,,,,,,,,"7364","9",,,,,,,,,,
"USC00253037","FRANKLIN NUMBER 2, NE US","40.0952","-98.945","567.2","2008","858",,"       37",,"         4","0","-8","0,1221,+","5"," ,0,0207,+","4.0"," ,0,0206, ","3.58"," ,0,0523, ","104","0,0803, ","6416","6","30.50"," ,0","11.7"," ,0","49.4","0","62.5","0","36.3","0"
"USC00257515","SAINT PAUL, NE US","41.2077","-98.4608","552.3","2008","924",,"       47",,"         7","0","-13","0,1222, ","4"," ,0,1221,+","4.0"," ,0,1219, ","2.83"," ,0,0524, ","100","0,0803, ","6136","8","36.50"," ,0","13.5"," ,0","50.0","0","61.8","0","38.2","0"
"US10nuck021","DEWEESE 3.2 W, NE US","40.3505","-98.1999","545.0","2008",,,,,,,,,,,,,"2.36"," ,N,0716, ",,,,,"33.46"," ,N",,,,,,,,
"US10york019","WACO 3.6 E, NE US","40.8868","-97.3948","490.1","2008",,,,,"         0","N",,,,,"0.0"," ,N,1231,+","3.30"," ,N,0705, ",,,,,"39.89"," ,N","0.0"," ,N",,,,,,
"USW00094040","MCCOOK MUNICIPAL AIRPORT, NE US","40.20639","-100.59139","771.1","2008","956",,,,,,"-10","W,1215, ",,,,,"5.13"," ,W,0523, ","109","W,0802, ","6156","2","22.29"," ,W",,,"50.8","W","64.3","W","37.3","W"
"US10haye002","ELSIE 13.7 SE, NE US","40.6826","-101.2432","1010.1","2008",,,,,,,,,,,,,"2.72"," ,N,0805, ",,,,,"28.52"," ,N",,,,,,,,
"US10haye001","HAYES CENTER 6.2 ESE, NE US","40.4525","-100.9292","912.9","2008",,,,,"         0","N",,,,,"0.0"," ,N,1231,+","3.44"," ,N,0809, ",,,,,"28.03"," ,N","0.0"," ,N",,,,,,
"US10scot018","LYMAN 8.5 SE, NE US","41.8279","-103.927","1300.0","2008",,,,,,,,,,,,,"1.50"," ,N,0217, ",,,,,"13.48"," ,N",,,,,,,,
"USC00250050","AINSWORTH, NE US","42.5522","-99.8555","765.0","2008","684",,,,"        19","0","-15","0,1215, ",,,"5.5"," ,0,0410, ","2.08"," ,0,0605, ","98","0,0802, ","6667","2","27.26"," ,0","45.5"," ,0","47.9","0","59.4","0","36.3","0"
"US10chey002","GURLEY 6.0 SE, NE US","41.2638","-102.8855","1277.1","2008",,,,,"         5","N",,,,,"4.3"," ,N,0411, ","2.02"," ,N,0524, ",,,,,"16.55"," ,N","20.9"," ,N",,,,,,
"US10chey005","SIDNEY 7.2 S, NE US","41.04","-102.96","1307.0","2008",,,,,,,,,,,,,"0.94"," ,N,0524, ",,,,,"15.39"," ,N",,,,,,,,
"US10haye006","HAYES CENTER 5.1 ENE, NE US","40.5296","-100.925","912.0","2008",,,,,"         5","N",,,,,"3.5"," ,N,0205, ","2.07"," ,N,0524, ",,,,,"24.25"," ,N","12.7"," ,N",,,,,,
"USC00257800","SHUBERT 2 SW, NE US","40.2038","-95.7063","332.2","2008",,,"       54",,"         7","0",,,"7"," ,0,0207,+","7.0"," ,0,0206, ","3.37"," ,0,0718, ",,,,,"38.99"," ,0","29.8"," ,0",,,,,,
"US10scot020","SCOTTSBLUFF 6.6 NE, NE US","41.935","-103.5792","1232.9","2008",,,,,"         7","N",,,,,"3.0"," ,N,0323,+","2.90"," ,N,0723, ",,,,,"13.70"," ,N","18.1"," ,N",,,,,,
"USC00252595","ELGIN, NE US","41.9872","-98.0747","589.8","2008","550",,"       66",,"        15","0","-16","0,0202, ","10"," ,0,1224,+","5.5"," ,0,1219, ","1.83"," ,0,1007, ","96","0,0804, ","7111","4","32.84"," ,0","39.1"," ,0","45.9","0","57.0","0","34.8","0"
"US10haye004","WAUNETA 5.1 E, NE US","40.3999","-101.2766","926.9","2008",,,,,,,,,,,,,"2.20"," ,N,1012, ",,,,,"23.84"," ,N",,,,,,,,
"US10haye005","WALLACE 9.9 S, NE US","40.6963","-101.1418","975.1","2008",,,,,,,,,,,,,"2.85"," ,N,0425, ",,,,,"27.77"," ,N",,,,,,,,
"USC00251145","BRIDGEPORT, NE US","41.668","-103.1038","1117.4","2008",,,,,,,,,,,,,,,,,,,,,,,,,,,,
"US10nema009","JOHNSON 1.7 E, NE US","40.4057","-95.9664","381.9","2008",,,,,,,,,,,,,"2.07"," ,N,0509, ",,,,,"34.00"," ,N",,,,,,,,
"USC00251149","BRIDGEPORT 18 WSW, NE US","41.5638","-103.3677","1264.6","2008","682",,"       64",,"        14","0","-16","0,1215, ","12"," ,0,0103,+","3.5"," ,0,0302, ","1.05"," ,0,0816, ","107","0,0803, ",,,"14.15"," ,0","36.3"," ,0","48.4","0","64.2","0","32.6","0"
"US10nema002","BROWNVILLE 0.2 SW, NE US","40.3956","-95.6601","291.1","2008",,,,,"         6","N",,,,,"5.0"," ,N,0117, ","2.48"," ,N,0606, ",,,,,"39.43"," ,N","18.7"," ,N",,,,,,
"USC00256837","POLK, NE US","41.0756","-97.7871","530.4","2008",,,,,,,,,,,,,,,,,,,,,,,,,,,,
"US10york009","MCCOOL JUNCTION 0.2 WNW, NE US","40.745","-97.6008","484.0","2008",,,,,"         7","N",,,,,"3.8"," ,N,0206, ","2.56"," ,N,1022, ",,,,,"36.80"," ,N","18.9"," ,N",,,,,,
"US10merr006","CENTRAL CITY 6.8 NNE, NE US","41.2047","-97.94537","506.9","2008",,,,,,,,,,,,,"3.21"," ,N,0716, ",,,,,"39.35"," ,N",,,,,,,,
"US10merr001","CHAPMAN 1.1 NE, NE US","41.0358","-98.1466","535.8","2008",,,,,,,,,,,,,"3.42"," ,N,0605, ",,,,,"39.76"," ,N",,,,,,,,
"USR0000NCRE","CRESCENT LAKE NEBRASKA, NE US","41.7611","-102.4378","1188.7","2008","663",,,,,,"-15","U,1215, ",,,,,,,"104","U,0802, ","6626","1",,,,,"48.0","U","60.7","U","35.3","U"
"US10scot014","GERING 0.4 E, NE US","41.824","-103.6533","1186.9","2008",,,,,"         5","N",,,,,"6.0"," ,N,0323, ","1.32"," ,N,0811, ",,,,,"13.85"," ,N","19.9"," ,N",,,,,,
"US10buff008","RAVENNA 5.3 SW, NE US","40.9593","-98.9631","626.1","2008",,,,,,,,,,,,,"3.44"," ,N,0524, ",,,,,"38.67"," ,N",,,,,,,,
"US10scot013","SCOTTSBLUFF 2.7 WNW, NE US","41.8841","-103.7149","1191.2","2008",,,,,,,,,,,,,"1.05"," ,N,0816, ",,,,,"12.60"," ,N",,,,,,,,
"US10scot012","GERING 7.3 S, NE US","41.7199","-103.6684","1320.1","2008",,,,,"        16","N",,,,,"4.8"," ,N,0410, ","1.16"," ,N,0816, ",,,,,"14.67"," ,N","34.0"," ,N",,,,,,
"US10buff006","MILLER 0.5 SE, NE US","40.9223","-99.3868","726.9","2008",,,,,,,,,,,,,"5.34"," ,N,0524, ",,,,,"39.60"," ,N",,,,,,,,
"USR0000NFX1","FOX 01 NEBRASKA, NE US","41.3636","-103.4883","1453.0","2008","476",,,,,,"-15","U,1215,+",,,,,,,"102","U,0802, ","7318","7",,,,,"46.1","U","59.4","U","32.7","U"
"US10chey016","DALTON 14.6 E, NE US","41.414","-102.695","1227.1","2008",,,,,"        14","N",,,,,"7.0"," ,N,0411, ","3.55"," ,N,0718, ",,,,,"20.66"," ,N","34.2"," ,N",,,,,,
"US10dawe010","HAY SPRINGS 7.5 WSW, NE US","42.6256","-102.8125","1214.0","2008",,,,,,,,,,,,,"1.31"," ,N,0724, ",,,,,"17.04"," ,N",,,,,,,,
"USC00252000","CRESCENT LAKE NAT WLR, NE US","41.76093","-102.43776","1163.7","2008",,,,,,,,,,,,,,,,,,,,,,,,,,,,
"US10buff004","KEARNEY 0.9 SW, NE US","40.6908","-99.094","662.0","2008",,,,,,,,,,,,,"2.94"," ,N,1007, ",,,,,"37.65"," ,N",,,,,,,,
"US10buff002","KEARNEY 1.8 WNW, NE US","40.7062","-99.1142","694.9","2008",,,,,"         2","N",,,,,"6.0"," ,N,1219, ","2.52"," ,N,0524, ",,,,,"34.58"," ,N","7.0"," ,N",,,,,,
"US10chey017","POTTER 1.1 ESE, NE US","41.2098","-103.2978","1332.0","2008",,,,,"        14","N",,,,,"4.1"," ,N,0316, ","2.17"," ,N,0726, ",,,,,"13.41"," ,N","31.4"," ,N",,,,,,
"US10dawe011","MARSLAND 14.4 ENE, NE US","42.5602","-103.0704","1288.1","2008",,,,,,,,,,,,,"0.89"," ,N,0908, ",,,,,"18.53"," ,N",,,,,,,,
"USC00256720","PIERCE, NE US","42.1957","-97.5206","480.1","2008",,,"       87",,"        13","0",,,"13"," ,0,1223,+","7.8"," ,0,1219, ","2.74"," ,0,1007, ",,,,,"31.92"," ,0","35.6"," ,0",,,,,,
"USC00255997","NORFOLK 4 W, NE US","42.0288","-97.4855","470.9","2008","639",,"       74",,"        13","0","-20","0,1223,+","12"," ,0,1219, ","8.8"," ,0,1219, ","3.00"," ,0,0608, ","95","0,0804, ","7516","4","32.70"," ,0","32.9"," ,0","45.7","0","57.4","0","34.0","0"
"US10dawe015","HEMINGFORD 10.1 NNE, NE US","42.4525","-102.9868","1195.1","2008",,,,,"         8","N",,,,,"3.0"," ,N,0121, ","1.17"," ,N,0605, ",,,,,"18.55"," ,N","21.1"," ,N",,,,,,
"US10dawe018","HEMINGFORD 13.2 N, NE US","42.51161","-103.1096","1268.9","2008",,,,,,,,,,,,,"1.00"," ,N,0908, ",,,,,"16.98"," ,N",,,,,,,,
"US10dawe017","MARSLAND 8.2 E, NE US","42.4672","-103.145","1232.9","2008",,,,,,,,,,,,,"2.03"," ,N,0723, ",,,,,"18.54"," ,N",,,,,,,,
"US10merr015","CENTRAL CITY 1.0 NNE, NE US","41.11457","-97.99519","519.1","2008",,,,,"         0","N",,,,,"0.0"," ,N,1231,+","2.84"," ,N,0716, ",,,,,"40.17"," ,N","0.0"," ,N",,,,,,
"US10jeff003","FAIRBURY 11.4 NW, NE US","40.2669","-97.3169","438.0","2008",,,,,,,,,,,,,"4.31"," ,N,0605, ",,,,,"38.62"," ,N",,,,,,,,
"US10jeff002","FAIRBURY 8.7 WSW, NE US","40.082","-97.3306","451.1","2008",,,,,"         1","N",,,,,"3.0"," ,N,1217, ","5.52"," ,N,0718, ",,,,,"40.45"," ,N","3.0"," ,N",,,,,,
"US10jeff009","STEELE CITY 1.8 NW, NE US","40.0599","-97.0435","406.9","2008",,,,,,,,,,,,,"2.90"," ,N,0718, ",,,,,"38.50"," ,N",,,,,,,,
"US10rock004","NEWPORT 10.6 S, NE US","42.4481","-99.3494","715.1","2008",,,,,"        17","N",,,,,"8.5"," ,N,0121, ","2.19"," ,N,1023, ",,,,,"31.59"," ,N","54.3"," ,N",,,,,,
"US10jeff006","FAIRBURY 8.0 NNW, NE US","40.25","-97.217","455.1","2008",,,,,"         3","N",,,,,"4.8"," ,N,0206, ","2.62"," ,N,1022, ",,,,,"40.02"," ,N","13.5"," ,N",,,,,,
"US10chey019","GURLEY 1.3 W, NE US","41.3264","-102.9948","1310.9","2008",,,,,,,,,,,,,"1.05"," ,N,0726, ",,,,,"13.48"," ,N",,,,,,,,
"US10jeff001","DILLER 5.6 S, NE US","40.0284","-96.9355","438.9","2008",,,,,,,,,,,,,"3.30"," ,N,0718, ",,,,,"35.94"," ,N",,,,,,,,
"USC00252380","DODGE, NE US","41.72333","-96.88278","426.7","2008",,,,,,,,,,,,,,,,,,,,,,,,,,,,
"USC00256970","PURDUM, NE US","42.065","-100.2472","819.9","2008","628",,"       43",,"        11","0","-16","0,1221,+","10"," ,0,0410, ","10.0"," ,0,0410, ","2.30"," ,0,0601, ","103","0,0802, ","6385","2","29.41"," ,0","36.9"," ,0","47.1","0","61.2","0","32.9","0"
"US10scot001","LYMAN 7.9 SE, NE US","41.8262","-103.9472","1288.1","2008",,,,,,,,,,,,,"1.13"," ,N,0815, ",,,,,"12.61"," ,N",,,,,,,,
"US10chey024","DALTON 0.6 S, NE US","41.4188","-102.9737","1296.9","2008",,,,,"        13","N",,,,,"4.0"," ,N,0411, ","2.00"," ,N,0410, ",,,,,"18.00"," ,N","25.2"," ,N",,,,,,
"USC00253461","GRESHAM 3 W, NE US","41.031","-97.4704","495.0","2008",,,"       80",,"        10","0",,,"8"," ,0,0208,+","4.0"," ,0,0206, ","3.56"," ,0,0605, ",,,,,"40.09"," ,0","18.5"," ,0",,,,,,
"US10gage020","DEWITT 1.4 SE, NE US","40.377","-96.9086","395.9","2008",,,,,,,,,,,,,"2.35"," ,N,1022, ",,,,,"32.45"," ,N",,,,,,,,
"USC00254432","KILGORE 1 NE, NE US","42.9502","-100.945","885.4","2008",,,,,,,,,,,,,,,,,,,,,,,,,,,,
"US10chey028","SIDNEY 8.1 SSE, NE US","41.0317","-102.9277","1296.9","2008",,,,,,,,,,,,,"1.32"," ,N,0524, ",,,,,"16.59"," ,N",,,,,,,,
"USC00253589","HARDY, NE US","40.0136","-97.9288","463.3","2008",,,"       42",,"         6","0",,,"5"," ,0,0207,+","5.0"," ,0,0206, ","2.30"," ,0,1022, ",,,,,"33.94"," ,0","16.1"," ,0",,,,,,
"USC00258915","WAKEFIELD 3 NW, NE US","42.30168","-96.90022","432.8","2008","737",,"       83",,"        13","0","-26","0,0124, ","15"," ,0,1220, ","9.5"," ,0,1219, ","1.92"," ,0,1022, ","98","0,0803, ","7134","1","32.38"," ,0","43.2"," ,0","46.8","0","58.7","0","35.0","0"
"USC00253467","GRETNA, NE US","41.12713","-96.24744","390.1","2008","864",,"       51",,"         5","0","-10","0,1222, ","5"," ,0,0125,+","4.5"," ,0,0206, ","3.25"," ,0,0716, ","97","0,0804, ","6791","7","43.36"," ,0","21.9"," ,0","48.4","0","58.9","0","37.9","0"
"US10gage022","DILLER 3.0 E, NE US","40.118","-96.879","410.0","2008",,,,,"         0","N",,,,,"0.0"," ,N,1231,+","5.10"," ,N,0718, ",,,,,"35.44"," ,N","0.0"," ,N",,,,,,
"USC00255525","MILLER, NE US","40.9283","-99.3886","704.1","2008",,,"       16",,"        14","0",,,"6"," ,0,1223,+","6.0"," ,0,1219, ","4.36"," ,0,0524, ",,,,,"38.04"," ,0","29.8"," ,0",,,,,,
"US10dawe006","CRAWFORD 6.8 E, NE US","42.6675","-103.2848","1170.1","2008",,,,,,,,,,,,,"1.21"," ,N,0908, ",,,,,"15.76"," ,N",,,,,,,,
"US10chey021","SIDNEY 0.9 NNW, NE US","41.1554","-102.9844","1282.9","2008",,,,,"         5","N",,,,,"2.0"," ,N,0316, ","0.92"," ,N,0816, ",,,,,"12.57"," ,N","11.3"," ,N",,,,,,
"US10cust022","BERWYN 4.4 NNE, NE US","41.409","-99.4638","761.1","2008",,,,,"         6","N",,,,,"5.5"," ,N,0411, ","3.00"," ,N,0524, ",,,,,"27.43"," ,N","20.6"," ,N",,,,,,
"US10cust021","MERNA 11.4 W, NE US","41.4517","-99.9745","907.1","2008",,,,,"         0","N",,,,,"0.0"," ,N,1231,+","2.59"," ,N,0524, ",,,,,"32.17"," ,N","0.0"," ,N",,,,,,
"US10cust020","GOTHENBURG 24.1 N, NE US","41.2793","-100.1589","918.1","2008",,,,,,,,,,,,,"3.12"," ,N,0524, ",,,,,"35.80"," ,N",,,,,,,,
"US10chey036","SIDNEY 12.9 W, NE US","41.1334","-103.2254","1328.0","2008",,,,,,,,,,,,,"1.40"," ,N,0809, ",,,,,"14.27"," ,N",,,,,,,,
"USC00252020","CRETE 4 ESE, NE US","40.6092","-96.872","445.0","2008",,,"       45",,"         5"," ",,,"5"," ,0,0207,+","5.0"," , ,0206, ","3.20"," ,0,0716, ","98","0,0804, ",,,"37.08"," ,0","11.8"," , ",,,"61.6","0",,
"USC00254440","KIMBALL 2 NE, NE US","41.2452","-103.6344","1435.0","2008","385",,"       27",,"        11","0","-14","0,1216, ","3"," ,0,0102,+","2.5"," ,0,0411, ","1.54"," ,0,0811, ","100","0,0721, ","7499","9","12.31"," ,0","20.0"," ,0","45.4","0","60.1","0","30.6","0"
"US10chey037","SIDNEY 14.1 WSW, NE US","41.06222143","-103.222143","1323.1","2008",,,,,,,,,,,,,"2.33"," ,N,0726, ",,,,,"13.79"," ,N",,,,,,,,
"USC00253595","HARLAN CO LAKE, NE US","40.0892","-99.2133","612.6","2008",,,,,"         5","0",,,,,"2.0"," ,0,1216,+",,,,,,,"31.11"," ,0","8.0"," ,0",,,,,,
"USC00255655","MOOREFIELD, NE US","40.6961","-100.3997","861.4","2008",,,,,,,,,,,,,,,,,,,,,,,,,,,,
"USC00252145","DALTON, NE US","41.4086","-102.9661","1303.9","2008","502",,"       28",,"        18","0","-13","0,1216,+","13"," ,0,0503, ","7.0"," ,0,0503,+","1.10"," ,0,0728, ","99","0,0803, ","7020","8","18.27"," ,0","43.9"," ,0","46.8","0","59.9","0","33.8","0"
"USC00258920","WALLACE 2 W, NE US","40.8433","-101.2094","961.0","2008",,,,,,,,,,,,,,,,,,,,,,,,,,,,
"USC00253355","GORDON 6 N, NE US","42.8966","-102.20298","1142.4","2008","418",,"       75",,"        22","0","-21","0,1216, ","8"," ,0,1110,+","6.0"," ,0,1106, ","1.60"," ,0,1106,+","96","0,0803, ","7614","2","21.87"," ,0","48.5"," ,0","44.2","0","56.6","0","31.8","0"
"USC00255895","NEWCASTLE, NE US","42.653","-96.8775","410.0","2008",,,,,"        17","0",,,,,"7.0"," ,0,1219, ","3.00"," ,0,0529, ",,,,,"31.83"," ,0","53.6"," ,0",,,,,,
"USC00257830","SIDNEY 6 NNW, NE US","41.2294","-103.0214","1316.7","2008",,,,,,,,,,,,,,,,,"6854","7",,,,,,,,,,
"US10cust015","ANSELMO 9.2 NW, NE US","41.7171","-99.9848","823.0","2008",,,,,"        15","N",,,,,"11.0"," ,N,0411, ","2.43"," ,N,0524,+",,,,,"34.44"," ,N","41.9"," ,N",,,,,,
"USC00253478","GROSS 1 E, NE US","42.9436","-98.5538","533.4","2008",,,,,"        12","0",,,,,"12.0"," ,0,0411, ",,,,,,,,,"56.0"," ,0",,,,,,
"USC00257715","SEWARD, NE US","40.89972","-97.09083","440.4","2008",,,,,,,,,,,,,,,,,,,,,,,,,,,,
"US10chey032","LODGEPOLE 5.7 S, NE US","41.0675","-102.6314","1234.1","2008",,,,,,,,,,,,,"1.97"," ,N,0816, ",,,,,"15.15"," ,N",,,,,,,,
"US10cust017","BROKEN BOW 12.3 S, NE US","41.2252","-99.6644","741.0","2008",,,,,,,,,,,,,"3.35"," ,N,0524, ",,,,,"32.29"," ,N",,,,,,,,
"US10harl008","ALMA 0.1 NNW, NE US","40.0983","-99.3626","611.1","2008",,,,,,,,,,,,,"2.84"," ,N,1007, ",,,,,"33.77"," ,N",,,,,,,,
"USC00250810","BERTRAND, NE US","40.5283","-99.6352","768.1","2008",,,,,"         0","0",,,,,"0.0"," ,0,1231,+","3.32"," ,0,0524, ",,,,,"29.82"," ,0","0.0"," ,0",,,,,,
"USC00256480","PALISADE, NE US","40.3502","-101.1047","840.3","2008",,,"       13",,"         5","0",,,"5"," ,0,0206, ","5.3"," ,0,0206, ","1.78"," ,0,1012, ",,,,,"23.50"," ,0","16.8"," ,0",,,,,,
"USC00258410","TABLE ROCK 4 N, NE US","40.2381","-96.0847","344.4","2008","899",,"       27",,"         7","0","-11","0,0124, ","6"," ,0,0208,+","5.0"," ,0,0206, ","4.21"," ,0,0716, ","97","0,0805,+","6467","8","36.39"," ,0","20.4"," ,0","49.2","0","61.1","0","37.4","0"
"USC00255269","MAX 13 N, NE US","40.29766","-101.38063","995.2","2008",,,"       34",,"         9","0",,,"6"," ,0,0411,+","6.0"," ,0,0411, ","2.25"," ,0,1012, ",,,,,"23.74"," ,0","24.2"," ,0",,,,,,
"USC00255388","MEDICINE CREEK DAM, NE US","40.37432","-100.23294","734.3","2008","680",,"       39",,"         7","0","-10","0,1216, ","6"," ,0,0206,+","4.0"," ,0,0205, ","4.60"," ,0,0523, ","106","0,0803, ",,,"28.89"," ,0","17.4"," ,0","49.0","0","63.4","0","34.6","0"
"US10cher016","CODY 0.1 NE, NE US","42.9375","-101.2438","947.0","2008",,,,,,,,,,,,,"2.27"," ,N,0605, ",,,,,"26.71"," ,N",,,,,,,,
"US10cher018","MERRIMAN 5.3 N, NE US","42.9955","-101.7119","1004.9","2008",,,,,,,,,,,,,"2.02"," ,N,0410, ",,,,,"22.63"," ,N",,,,,,,,
"US10red_005","INDIANOLA 2.2 NW, NE US","40.2562","-100.4494","759.0","2008",,,,,,,,,,,,,"4.44"," ,N,0523, ",,,,,"26.07"," ,N",,,,,,,,
"US10red_006","BARTLEY 9.8 SSE, NE US","40.1094","-100.2776","780.9","2008",,,,,,,,,,,,,"1.85"," ,N,0619, ",,,,,"27.65"," ,N",,,,,,,,
"USC00256365","ORLEANS 2 W, NE US","40.13419","-99.48258","606.2","2008",,,"       54",,"         7","0",,,"5"," ,0,0207,+","3.0"," ,0,0205, ","3.90"," ,0,0824, ",,,,,"33.24"," ,0","14.0"," ,0",,,,,,
"USC00259510","YORK, NE US","40.8678","-97.5922","490.7","2008",,,,,,,,,,,,,,,,,"6192","3",,,,,,,,,,
"US10colf001","CLARKSON 3.1 ESE, NE US","41.7014","-97.0731","460.9","2008",,,,,,,,,,,,,"4.47"," ,N,0530, ",,,,,"32.46"," ,N",,,,,,,,
"US10colf002","ROGERS 9.3 NW, NE US","41.5837","-97.0027","438.0","2008",,,,,,,,,,,,,"2.75"," ,N,0530, ",,,,,"29.85"," ,N",,,,,,,,
"US10colf003","CLARKSON 9.3 SSW, NE US","41.596","-97.1614","487.1","2008",,,,,,,,,,,,,"3.11"," ,N,0530, ",,,,,"29.89"," ,N",,,,,,,,
"US10sali002","MILFORD 5.9 SSE, NE US","40.6908","-97.0265","421.8","2008",,,,,,,,,,,,,"3.53"," ,N,0716, ",,,,,"41.35"," ,N",,,,,,,,
"US10sali003","WESTERN 1.2 SE, NE US","40.3779","-97.1876","444.1","2008",,,,,,,,,,,,,"3.88"," ,N,0605, ",,,,,"37.89"," ,N",,,,,,,,
"USC00250945","BLOOMFIELD, NE US","42.5938","-97.6436","530.4","2008",,,"       99",,"        17","0",,,"10"," ,0,1223,+","6.0"," ,0,0121, ","3.36"," ,0,0529, ",,,,,"31.52"," ,0","57.6"," ,0",,,,,,
"US10lanc007","DAVEY 1.2 NNW, NE US","41.0032","-96.6763","387.1","2008",,,,,"         8","N",,,,,"4.0"," ,N,0206, ","2.68"," ,N,1022, ",,,,,"41.19"," ,N","18.3"," ,N",,,,,,
"US10lanc001","LINCOLN 2.7 SSW, NE US","40.7633","-96.6833","367.0","2008",,,,,,,,,,,,,"2.34"," ,N,0612, ",,,,,"35.76"," ,N",,,,,,,,
"USC00257351","ROYAL 2 SE, NE US","42.3202","-98.0933","565.4","2008",,,"      100",,"        21","0",,,"14"," ,0,0123,+","10.1"," ,0,0121, ","3.04"," ,0,0812, ",,,,,"32.67"," ,0","74.6"," ,0",,,,,,
"USC00258320","SUPERIOR, NE US","40.02976","-98.07596","460.9","2008","843",,"       42",,"         6","0","-12","0,1221, ","5"," ,0,0125,+","3.8"," ,0,0206, ","2.35"," ,0,1022, ","100","0,0804,+","6389","6","34.93"," ,0","16.1"," ,0","49.5","0","62.3","0","36.6","0"
"USC00257110","RED WILLOW DAM, NE US","40.3575","-100.6608","780.6","2008","652",,"       38",,"         4","0","-11","0,1215,+","5"," ,0,0206, ","3.0"," ,0,0205, ",,,"105","0,0803, ","6658","1",,,"7.5"," ,0","48.3","0","62.9","0","33.6","0"
"US10shem003","ROCKVILLE 2.2 NW, NE US","41.1426","-98.8593","613.0","2008",,,,,"         7","N",,,,,"6.9"," ,N,1219, ","3.02"," ,N,0524, ",,,,,"35.80"," ,N","22.7"," ,N",,,,,,
"USC00258676","UEHLING, NE US","41.7338","-96.5033","387.1","2008",,,"       80",,"        13","0",,,"9"," ,0,1224,+","5.0"," ,0,1219, ","3.44"," ,0,0530, ",,,,,"30.46"," ,0","30.3"," ,0",,,,,,
"USC00256135","OAKDALE, NE US","42.0644","-97.9666","533.1","2008","558",,"       75",,"        14","0","-20","0,0124, ","9"," ,0,1220,+","6.5"," ,0,1219, ","2.45"," ,0,1007, ","96","0,0804, ","7444","4","37.73"," ,0","40.7"," ,0","45.6","0","57.4","0","33.8","0"
"USC00258795","VALLEY 1 WNW, NE US","41.3197","-96.3672","349.0","2008","913",,"       51",,"         7","0","-12","0,0125, ","6"," ,0,0125,+","4.6"," ,0,0206, ","2.77"," ,0,0716, ","98","0,0804, ","6748","1","39.51"," ,0","20.4"," ,0","48.9","0","59.2","0","38.5","0"
"USC00256375","OSCEOLA, NE US","41.1844","-97.5514","506.6","2008","659",,"       76",,"         9","0","-13","0,1222, ","9"," ,0,0207,+","5.2"," ,0,0206, ","3.80"," ,0,0605, ","94","0,0804, ","7019","4","38.17"," ,0","20.9"," ,0","47.1","0","57.8","0","36.4","0"
"US10cumi002","WEST POINT 2.7 SSE, NE US","41.8049","-96.6907","431.0","2008",,,,,,,,,,,,,"3.40"," ,N,0530, ",,,,,"29.21"," ,N",,,,,,,,
"USC00250961","BLUE HILL 4 SW, NE US","40.3058","-98.5047","601.1","2008",,,"       48",,"         7","0",,,"5"," ,0,0206, ","4.0"," ,0,0206, ","2.04"," ,0,0523, ",,,,,"35.40"," ,0","12.5"," ,0",,,,,,
"US10cumi003","WEST POINT 5.0 WNW, NE US","41.8664","-96.7995","431.0","2008",,,,,,,,,,,,,"1.83"," ,N,0530, ",,,,,"28.70"," ,N",,,,,,,,
"USC00256390","OSHKOSH 8 SW, NE US","41.30363","-102.43739","1167.4","2008",,,,,"        13","0",,,,,"6.0"," ,0,0410, ","1.55"," ,0,0717, ",,,,,"20.43"," ,0","25.4"," ,0",,,,,,
"US10cumi008","BEEMER 0.2 E, NE US","41.9301","-96.8078","417.0","2008",,,,,,,,,,,,,"1.69"," ,N,0605,+",,,,,"28.96"," ,N",,,,,,,,
"US10cumi007","WEST POINT 1.5 S, NE US","41.82","-96.71","406.0","2008",,,,,"         0","N",,,,,"0.1"," ,N,0501, ","3.06"," ,N,0530, ",,,,,"28.68"," ,N","0.1"," ,N",,,,,,
"USC00256395","OSMOND, NE US","42.3569","-97.5969","502.9","2008",,,,,,,,,,,,,,,,,"7134","1",,,,,,,,,,
"USC00256385","OSHKOSH, NE US","41.4014","-102.3465","1033.3","2008","628",,"       58",,"        10","0","-17","0,1216, ","14"," ,0,0104,+","12.0"," ,0,0411, ","1.53"," ,0,0411, ","105","0,0721,+","7111","8","18.40"," ,0","27.6"," ,0","47.0","0","62.1","0","32.0","0"
"USC00258328","SURPRISE, NE US","41.1041","-97.3094","470.9","2008","889",,"       69",,"         9","0","-14","0,1222, ","9"," ,0,0206, ","5.0"," ,0,0206, ","2.76"," ,0,0530, ","97","0,0805,+","6310","5","36.15"," ,0","18.1"," ,0","49.5","0","61.0","0","38.0","0"
"US10furn004","BEAVER CITY 6.0 S, NE US","40.0502","-99.8189","661.1","2008",,,,,,,,,,,,,"4.16"," ,N,1022, ",,,,,"37.37"," ,N",,,,,,,,
"US10wayn002","WAYNE 0.7 ENE, NE US","42.2361","-97.0074","440.1","2008",,,,,,,,,,,,,"1.69"," ,N,1023, ",,,,,"30.91"," ,N",,,,,,,,
"US10daws011","SUMNER 3.7 ESE, NE US","40.9238","-99.4457","748.9","2008",,,,,,,,,,,,,"4.00"," ,N,0624, ",,,,,"30.96"," ,N",,,,,,,,
"US10daws013","ELM CREEK 4.8 WNW, NE US","40.7471","-99.4578","709.9","2008",,,,,,,,,,,,,"3.80"," ,N,0524, ",,,,,"36.53"," ,N",,,,,,,,
"US10daws014","OVERTON 2.2 SE, NE US","40.71349","-99.52132","707.1","2008",,,,,"         5","N",,,,,"6.0"," ,N,1219, ","4.53"," ,N,0524, ",,,,,"38.61"," ,N","18.0"," ,N",,,,,,
"US10sarp016","BELLEVUE 4.2 WSW, NE US","41.1135","-95.9648","346.9","2008",,,,,,,,,,,,,"2.62"," ,N,0716, ",,,,,"40.88"," ,N",,,,,,,,
"US10sarp012","BELLEVUE 1.8 WNW, NE US","41.1493","-95.9217","324.0","2008",,,,,"         7","N",,,,,"3.0"," ,N,0206, ","2.80"," ,N,0530, ",,,,,"41.57"," ,N","15.6"," ,N",,,,,,
"USC00255470","MERRIMAN, NE US","42.91944","-101.70889","986.0","2008",,,,,,,,,,,,,,,,,,,,,,,,,,,,
"US10daws010","SUMNER 2.7 W, NE US","40.9455","-99.5599","738.8","2008",,,,,,,,,,,,,"3.80"," ,N,0624, ",,,,,"31.41"," ,N",,,,,,,,
"USC00253050","FREMONT, NE US","41.43","-96.4669","359.7","2008","906",,"       66",,"         7","0","-14","0,0124, ","6"," ,0,0207,+","4.8"," ,0,0206, ","1.87"," ,0,1022, ","100","0,0804, ","6928","1","29.39"," ,0","19.6"," ,0","48.2","0","59.4","0","37.0","0"
"USC00255590","MITCHELL 5 E, NE US","41.948","-103.7008","1243.6","2008","578",,,,,,"-15","0,1215, ",,,,,,,"98","0,0802,+",,,,,,,"47.1","0","61.3","0","33.0","0"
"USC00256552","PARKS 17 N, NE US","40.32122","-101.67396","1012.9","2008",,,,,"        11","0",,,,,"8.0"," ,0,0411, ","1.80"," ,0,1012, ",,,,,"20.00"," ,0","43.5"," ,0",,,,,,
"USC00257640","SCHUYLER, NE US","41.4424","-97.0655","411.5","2008",,,"       71",,"        15","0",,,"9"," ,0,1223, ","4.0"," ,0,1219, ","2.15"," ,0,0530, ",,,,,"32.60"," ,0","29.8"," ,0",,,,,,
"USC00258735","UPLAND, NE US","40.3436","-98.8664","696.8","2008",,,"       44",,"         5","0",,,"7"," ,0,0207,+","4.0"," ,0,0205, ","3.50"," ,0,1023, ",,,,,"33.64"," ,0","13.0"," ,0",,,,,,
"US10furn014","BEAVER CITY 0.4 SE, NE US","40.133","-99.8238","665.1","2008",,,,,,,,,,,,,"4.22"," ,N,0524, ",,,,,"31.51"," ,N",,,,,,,,
"USC00255105","MALCOLM, NE US","40.908","-96.865","399.3","2008",,,"       44",,"         6","0",,,"5"," ,0,1219,+","4.6"," ,0,0206, ","2.65"," ,0,1022, ",,,,,"39.42"," ,0","19.1"," ,0",,,,,,
"US10furn015","ARAPAHOE 4.8 SW, NE US","40.2463","-99.9516","719.9","2008",,,,,,,,,,,,,"4.00"," ,N,0524, ",,,,,"25.50"," ,N",,,,,,,,
"USC00257401","RULO 2 W, NE US","40.0536","-95.4641","283.5","2008","987",,"       38",,"         6","0","-9","0,0125,+","8"," ,0,0208,+","8.5"," ,0,0206, ","2.78"," ,0,0913, ","99","0,0805, ","6234","1","30.40"," ,0","22.2"," ,0","50.0","0","61.0","0","39.1","0"
"USW00014935","GRAND ISLAND CENTRAL NE REGIONAL AIRPORT, NE US","40.9611","-98.3136","560.8","2008","956",,"       61",,"         5","0","-9","0,1222,+","5"," ,0,0113,+","2.7"," ,0,0205, ","3.59"," ,0,0604, ","103","0,0803, ","6403","1","37.08"," ,0","11.7"," ,0","49.5","0","60.9","0","38.2","0"
"US10daws008","COZAD 4.4 S, NE US","40.7966","-99.99559","762.0","2008",,,,,"        10","N",,,,,"6.0"," ,N,0411, ","2.96"," ,N,0524, ",,,,,"36.36"," ,N","26.7"," ,N",,,,,,
"US10pier008","PIERCE 9.1 W, NE US","42.2214","-97.6994","531.0","2008",,,,,,,,,,,,,"2.12"," ,N,1007,+",,,,,"31.48"," ,N",,,,,,,,
"US10daws009","GOTHENBURG 2.9 S, NE US","40.88756","-100.16447","782.1","2008",,,,,,,,,,,,,"4.09"," ,N,0524, ",,,,,"35.16"," ,N",,,,,,,,
"US10furn010","BEAVER CITY 3.4 W, NE US","40.1478","-99.8943","705.9","2008",,,,,,,,,,,,,"3.83"," ,N,0524, ",,,,,"31.04"," ,N",,,,,,,,
"US10pier007","PIERCE 2.6 NNE, NE US","42.2342","-97.5104","497.1","2008",,,,,"         0","N",,,,,"0.0"," ,N,1231,+","2.15"," ,N,1007, ",,,,,"30.57"," ,N","0.0"," ,N",,,,,,
"US10pier006","PLAINVIEW 6.2 SSE, NE US","42.2646","-97.7561","527.0","2008",,,,,,,,,,,,,"1.94"," ,N,1007, ",,,,,"31.57"," ,N",,,,,,,,
"US10daws001","COZAD 7.2 E, NE US","40.8658","-99.8494","754.1","2008",,,,,,,,,,,,,"4.98"," ,N,0524, ",,,,,"35.96"," ,N",,,,,,,,
"US10daws002","LEXINGTON 1.1 E, NE US","40.78","-99.72","730.0","2008",,,,,"         7","N",,,,,"3.5"," ,N,0206, ","4.40"," ,N,0524, ",,,,,"33.94"," ,N","17.5"," ,N",,,,,,
"USR0000NKIN","KINGS CANYON NEBRASKA, NE US","42.7239","-102.9714","1243.6","2008","727",,,,,,"-16","U,1215, ",,,,,,,"100","U,0802, ","6491","4",,,,,"48.8","U","60.0","U","37.5","U"
"US10daws007","GOTHENBURG 4.9 N, NE US","41.0007","-100.1654","812.9","2008",,,,,,,,,,,,,"2.89"," ,N,0524, ",,,,,"32.55"," ,N",,,,,,,,
"USW00014939","LINCOLN AIRPORT, NE US","40.8508","-96.7475","362.7","2008","1138",,"       38",,"         5","0","-12","0,1222, ","4"," ,0,0207,+","4.5"," ,0,0205, ","3.03"," ,0,0611, ","102","0,0803, ","6375","6","34.93"," ,0","16.7"," ,0","50.3","0","62.0","0","38.6","0"
"US10lanc012","LINCOLN 5.8 WSW, NE US","40.7544","-96.7611","380.1","2008",,,,,"         4","N",,,,,"5.0"," ,N,0206, ","2.53"," ,N,0612, ",,,,,"35.42"," ,N","14.7"," ,N",,,,,,
"USC00256570","PAWNEE CITY, NE US","40.1118","-96.1515","362.4","2008",,,,,,,,,,,,,,,,,,,,,,,,,,,,
"US10lanc013","LINCOLN 8.5 ENE, NE US","40.8416","-96.5141","402.9","2008",,,,,,,,,,,,,"3.60"," ,N,0605, ",,,,,"35.63"," ,N",,,,,,,,
"US10lanc014","ADAMS 6.5 N, NE US","40.5529","-96.5009","410.0","2008",,,,,,,,,,,,,"2.95"," ,N,0605, ",,,,,"42.01"," ,N",,,,,,,,
"USC00256200","OGALLALA, NE US","41.1275","-101.7205","984.5","2008","814",,"       24",,"         6","0","-12","0,1215, ","7"," ,0,0411, ","8.0"," ,0,0411, ","1.95"," ,0,0411, ","107","0,0803, ","6312","6","16.71"," ,0","16.5"," ,0","49.1","0","63.2","0","35.0","0"
"USW00014941","NORFOLK KARL STEFAN MEMORIAL AIRPORT, NE US","41.9855","-97.4352","472.7","2008","790",,"       72",,"        13","0","-18","0,1222, ","12"," ,0,1219, ","6.3"," ,0,1218, ","2.25"," ,0,0527, ","99","0,0803, ","7082","3","28.80"," ,0","35.7"," ,0","47.3","0","58.5","0","36.1","0"
"USC00253175","GENEVA, NE US","40.5313","-97.5963","496.8","2008","952",,,,"        10","0","-9","0,1222, ",,,"3.5"," ,0,0206, ","2.31"," ,0,1022, ","97","0,0803, ","5904","0","33.54"," ,0","19.0"," ,0","50.8","0","61.8","0","39.8","0"
"USW00014942","OMAHA EPPLEY AIRFIELD, NE US","41.3102","-95.8991","299.3","2008","1081",,"       46",,"         7","0","-9","0,1222, ","5"," ,0,0207,+","3.2"," ,0,0205, ","2.25"," ,0,0530, ","101","0,0803, ","6715","7","36.57"," ,0","19.5"," ,0","49.3","0","59.9","0","38.7","0"
"USC00258745","UTICA, NE US","40.8972","-97.3463","487.7","2008",,,"       65",,"         5","0",,,"7"," ,0,0125,+","3.9"," ,0,1219,+","2.67"," ,0,1022, ",,,,,"40.40"," ,0","16.4"," ,0",,,,,,
"USC00258628","TRENTON DAM 1 N, NE US","40.19032","-101.06684","857.4","2008","957",,"       42",,"         9","0","-11","0,1216,+","6"," ,0,0105,+","3.0"," ,0,0317, ","3.40"," ,0,0524, ","108","0,0803, ","6192","2","22.86"," ,0","19.8"," ,0","50.7","0","65.2","0","36.2","0"
"US10kear005","WILCOX 0.3 SW, NE US","40.3622","-99.1735","686.1","2008",,,,,"         8","N",,,,,"4.0"," ,N,0206, ","2.54"," ,N,1007, ",,,,,"32.34"," ,N","18.7"," ,N",,,,,,
"USC00255250","MASON CITY, NE US","41.2211","-99.2938","698.6","2008","637",,,,"         8","0","-16","0,1222, ",,,"4.0"," ,0,0317, ","3.90"," ,0,0524, ","102","0,0803, ","6665","8","38.67"," ,0","19.0"," ,0","47.3","0","60.7","0","33.9","0"
"US10kear009","HILDRETH 1.0 NNW, NE US","40.351028","-99.046944","663.9","2008",,,,,,,,,,,,,"3.91"," ,N,1007, ",,,,,"32.63"," ,N",,,,,,,,
"US10sali011","TOBIAS 4.7 SSW, NE US","40.3504","-97.3542","472.1","2008",,,,,"         5","N",,,,,"4.0"," ,N,0206, ","2.95"," ,N,0605, ",,,,,"38.24"," ,N","13.7"," ,N",,,,,,
"USC00253185","GENOA 2 W, NE US","41.4513","-97.7644","484.6","2008","829",,"       71",,"         6","0","-17","0,1222, ","6"," ,0,0206,+","4.0"," ,0,1219, ","3.97"," ,0,0530, ","98","0,0803, ","6378","1","37.25"," ,0","18.7"," ,0","49.2","0","61.5","0","36.9","0"
"USC00256454","OXFORD 6 NNW, NE US","40.3283","-99.6522","683.4","2008","791",,"       52",,"         3","0","-12","0,1221, ","6"," ,0,0102,+","2.7"," ,0,1219, ","4.93"," ,0,0824, ","106","0,0803, ",,,"34.20"," ,0","10.4"," ,0","48.9","0","61.9","0","35.9","0"
"USC00255362","MEAD 6 S, NE US","41.143","-96.4808","352.0","2008","771",,"       42",,"         7","0","-13","0,0125, ","4"," ,0,1226,+","2.5"," ,0,0206, ","2.50"," ,0,0625, ","98","0,0804, ","6799","5","38.87"," ,0","13.8"," ,0","47.7","0","59.5","0","36.0","0"
"USC00258751","VALENTINE NUMBER 1, NE US","42.8752","-100.5516","789.1","2008",,,"       35",,"        13","0",,,"8"," ,0,0410, ","8.0"," ,0,0410, ","1.69"," ,0,0719, ","102","0,0728, ",,,"19.08"," ,0","32.1"," ,0",,,"60.2","0",,
"USC00253065","FRIEND 3 E, NE US","40.6558","-97.2208","467.9","2008","758",,"       43",,"         6","0","-10","0,1223,+","4"," ,0,0207,+","4.3"," ,0,0206, ","2.35"," ,0,0605, ","96","0,0804, ","6666","2","34.23"," ,0","16.5"," ,0","48.3","0","59.5","0","37.1","0"
"USC00256336","ORD NUMBER 2, NE US","41.6028","-98.9269","624.8","2008",,,"       60",,"        10","0",,,"6"," ,0,1221,+","5.5"," ,0,1219, ","2.53"," ,0,0524, ",,,,,"31.68"," ,0","33.2"," ,0",,,,,,
"USC00254035","HOWELLS, NE US","41.7175","-97.003","463.3","2008","681",,"       77",,"         9","0","-15","0,1222, ","8"," ,0,1223, ","4.1"," ,0,1219, ","4.04"," ,0,0530, ","95","0,0804, ","7388","3","33.81"," ,0","21.6"," ,0","46.2","0","56.6","0","35.8","0"
"USC00257667","SCOTTSBLUFF 1 E, NE US","41.8644","-103.6397","1191.5","2008","660",,"       48",,"        10","0","-12","0,1216, ","7"," ,0,0104,+","4.0"," ,0,0322, ","1.07"," ,0,0816, ","101","0,0803, ","6733","8","12.26"," ,0","23.4"," ,0","48.1","0","62.1","0","34.0","0"
"USC00257545","SALEM 5 SW, NE US","40.0225","-95.7883","320.0","2008",,,"       50",,"        10","0",,,"7"," ,0,0207,+","7.5"," ,0,0206, ","2.19"," ,0,0913, ",,,,,"34.14"," ,0","34.9"," ,0",,,,,,
"USC00258875","VIRGINIA, NE US","40.2444","-96.4983","470.9","2008",,,,,,,,,,,,,,,,,,,,,,,,,,,,
"US10morr005","BAYARD 5.4 ESE, NE US","41.7116","-103.2331","1132.9","2008",,,,,"         8","N",,,,,"5.5"," ,N,0331, ","1.65"," ,N,0811, ",,,,,"17.26"," ,N","19.3"," ,N",,,,,,
"US10morr007","BROADWATER 8.4 S, NE US","41.4759","-102.8713","1221.0","2008",,,,,"         5","N",,,,,"7.0"," ,N,0503, ","1.37"," ,N,0524, ",,,,,"16.56"," ,N","15.0"," ,N",,,,,,
"US10sali016","DORCHESTER 2.1 NW, NE US","40.6261","-97.1392","449.0","2008",,,,,"         0","N",,,,,"0.0"," ,N,1231,+","3.81"," ,N,0716, ",,,,,"38.32"," ,N","0.0"," ,N",,,,,,
"US10morr004","DALTON 10.4 ENE, NE US","41.4538","-102.7852","1253.9","2008",,,,,"         0","N",,,,,"0.6"," ,N,0323, ","1.15"," ,N,0523, ",,,,,"16.63"," ,N","1.5"," ,N",,,,,,
"US10morr003","BAYARD 13.5 NNE, NE US","41.9386","-103.2463","1323.1","2008",,,,,"         9","N",,,,,"3.5"," ,N,0410, ","0.96"," ,N,0816, ",,,,,"13.34"," ,N","19.9"," ,N",,,,,,
"US10sarp022","PAPILLION 1.4 WSW, NE US","41.1469","-96.0668","327.1","2008",,,,,"         6","N",,,,,"4.5"," ,N,0206, ","2.94"," ,N,0716, ",,,,,"42.31"," ,N","15.2"," ,N",,,,,,
"US10sarp020","OMAHA 12.3 WSW, NE US","41.164003","-96.195876","323.1","2008",,,,,"         2","N",,,,,"1.8"," ,N,1219, ","2.55"," ,N,1007, ",,,,,"42.98"," ,N","3.3"," ,N",,,,,,
"USC00253075","FULLERTON, NE US","41.3594","-97.9761","502.9","2008",,,"       52",,"         8","0",,,"5"," ,0,1226,+","4.0"," ,0,1219, ","3.15"," ,0,0809, ",,,,,"38.13"," ,0","16.0"," ,0",,,,,,
"US10fran007","WILCOX 6.1 S, NE US","40.2776","-99.1562","677.9","2008",,,,,,,,,,,,,"2.30"," ,N,1007, ",,,,,"33.63"," ,N",,,,,,,,
"US10fran002","HILDRETH 4.5 SSE, NE US","40.2732","-99.0295","666.0","2008",,,,,"         7","N",,,,,"3.0"," ,N,1219,+","3.74"," ,N,1007, ",,,,,"34.67"," ,N","18.2"," ,N",,,,,,
"US10fran003","UPLAND 2.3 SSW, NE US","40.288","-98.9208","647.1","2008",,,,,"         7","N",,,,,"4.5"," ,N,0205, ","2.68"," ,N,1007, ",,,,,"35.25"," ,N","14.9"," ,N",,,,,,
"USC00257798","SHICKLEY 4 S, NE US","40.3619","-97.7331","501.4","2008",,,"       33",,"         3","0",,,"4"," ,0,1217,+","4.0"," ,0,0117, ","2.92"," ,0,0716, ",,,,,"34.49"," ,0","8.0"," ,0",,,,,,
