"STATION","NAME","LATITUDE","LONGITUDE","ELEVATION","DATE","CDSD","CDSD_ATTRIBUTES","DSND","DSND_ATTRIBUTES","DSNW","DSNW_ATTRIBUTES","EMNT","EMNT_ATTRIBUTES","EMSD","EMSD_ATTRIBUTES","EMSN","EMSN_ATTRIBUTES","EMXP","EMXP_ATTRIBUTES","EMXT","EMXT_ATTRIBUTES","HDSD","HDSD_ATTRIBUTES","PRCP","PRCP_ATTRIBUTES","SNOW","SNOW_ATTRIBUTES","TAVG","TAVG_ATTRIBUTES","TMAX","TMAX_ATTRIBUTES","TMIN","TMIN_ATTRIBUTES"
"USC00265352","MONTELLO 2 NE, NV US","41.278","-114.1705","1472.2","2009","334",,,,"        11","0","-21","0,1211,+",,,"4.0"," ,0,0106, ","0.98"," ,0,0824, ","103","0,0724,+","7321","1","10.16"," ,0","21.6"," ,0","44.7","0","62.7","0","26.6","0"
"USR0000NBUF","BUFFALO CREEK NEVADA, NV US","40.5819","-119.79","851.6","2009","1209",,,,,,"-10","U,1209, ",,,,,,,"104","U,0820, ","4971","9",,,,,"53.7","U","67.5","U","39.8","U"
"USC00264935","MCDERMITT, NV US","41.9954","-117.7201","1350.3","2009","430",,"       23",,"        13","0","-14","0,1209, ","4"," ,0,1214,+","4.0"," ,0,1212, ","1.01"," ,0,0615, ","101","0,0719, ","6805","7","9.05"," ,0","24.4"," ,0","46.6","0","63.1","0","30.0","0"
"USC00263964","INDIAN CREEK RANCH DUCKWATER 29 WNW, NV US","39.1039","-116.2037","2273.8","2009","166",,,,"        21","0","-5","0,1208,+",,,"12.0"," ,0,0416, ",,,"92","0,0821,+",,,,,"73.2"," ,0","45.6","0","60.1","0","31.1","0"
"USC00261660","CHARLESTON JARBIDGE 17 SSW, NV US","41.6814","-115.5289","1819.0","2009",,,,,,,"-23","0,1210,+",,,,,,,"94","0,0821, ",,,,,,,"37.2","0","56.3","0","18.1","0"
"USS0019K04S","MARLETTE LAKE, NV US","39.16","-119.9","2401.8","2009","7",,"      183",,,,"-10","T,0210, ","60"," ,T,0304, ",,,"1.80"," ,T,1212,+","80","T,0728, ","8093","1","26.65"," ,T",,,"42.0","T","52.0","T","31.9","T"
"USS0015N09S","BRISTLECONE TRAIL, NV US","36.32","-115.7","2736.8","2009","0",,"      155",,,,"2","T,0214, ","41"," ,T,0213, ",,,"1.10"," ,T,1212,+","78","T,0728, ","7742","9","18.07"," ,T",,,"43.3","T","53.7","T","33.0","T"
"US1NVCH0005","FALLON 0.8 WSW, NV US","39.47118","-118.79148","1213.1","2009",,,,,"         3","N",,,,,"6.3"," ,N,1207, ","0.54"," ,N,1207, ",,,,,"5.19"," ,N","12.7"," ,N",,,,,,
"USC00266791","RENO WEATHER FORECAST OFFICE, NV US","39.5683","-119.7956","1520.0","2009","1037",,"       30",,"         8","0","-1","0,1208, ","16"," ,0,1212, ","8.3"," ,0,1212, ","0.95"," ,0,1013, ","101","0,0718, ","4872","7","7.57"," ,0","37.1"," ,0","53.4","0","65.6","0","41.1","0"
"USC00264391","LAMOILLE 2 N, NV US","40.7441","-115.4856","1752.6","2009","58",,"       93",,"        26","0","-21","0,1210, ","15"," ,0,0210, ","15.0"," ,0,0210, ","1.12"," ,0,0416, ","91","0,0822,+",,,"16.86"," ,0","106.0"," ,0","41.0","0","57.3","0","24.6","0"
"USR0000NCUR","CURRANT CREEK NEVADA, NV US","38.7586","-115.4128","1700.8","2009","968",,,,,,"3","U,1209,+",,,,,,,"100","U,0718,+","5180","0",,,,,"52.6","U","65.2","U","39.9","U"
"USR0000NCED","CEDAR PASS NEVADA, NV US","39.7569","-114.1658","2190.0","2009","489",,,,,,"-2","U,1206, ",,,,,,,"97","U,0821, ","6399","9",,,,,"47.7","U","60.8","U","34.5","U"
"USC00268186","TOPAZ LAKE, NV US","38.7395","-119.518","1613.0","2009","605",,"       12",,"         4","0","-14","0,1209, ","6"," ,0,1208,+","4.0"," ,0,1207, ","0.53"," ,0,1013, ","100","0,0726, ","5556","9","1.24"," ,0","9.0"," ,0","50.4","0","66.3","0","34.5","0"
"USC00268761","VIRGINIA CITY, NV US","39.3128","-119.6483","1932.4","2009",,,"       18",,"         7","0",,,"6"," ,0,0304, ","4.0"," ,0,0303, ","1.21"," ,0,0303, ",,,,,"7.17"," ,0","16.1"," ,0",,,,,,
"USC00265132","MIDDLEGATE LOWERY, NV US","39.293","-118.0196","1402.1","2009",,,"        0",,"         0","0",,,"0"," ,0,1231,+","0.0"," ,0,1231,+",,,,,,,,,"0.0"," ,0",,,,,,
"USC00265818","OROVADA 3 W, NV US","41.5684","-117.8388","1280.2","2009","464",,"       34",,"        10","0","-10","0,1210, ","8"," ,0,0415, ","15.5"," ,0,0415, ","0.80"," ,0,0606, ","104","0,0718, ","6100","1","11.17"," ,0","35.6"," ,0","48.6","0","65.5","0","31.7","0"
"USR0000NSTA","STAG MOUNTAIN NEVADA, NV US","41.5178","-115.3928","2069.6","2009","315",,,,,,"-5","U,1209, ",,,,,,,"94","U,0820, ","7398","1",,,,,"44.1","U","55.2","U","33.0","U"
"USC00261684","CHERRY CREEK, NV US","39.90056","-114.88611","1863.5","2009",,,,,,,,,,,,,"0.84"," ,0,0425, ",,,"5707","6","11.26"," ,0",,,,,,,,
"USC00264039","JARBIDGE 7 N, NV US","41.9797","-115.4327","1844.0","2009","192",,,,"        27","0","-7","0,1210, ",,,"12.0"," ,0,0217, ","1.10"," ,0,0602, ","93","0,0822, ","7270","0","16.41"," ,0","94.0"," ,0","44.1","0","57.1","0","31.2","0"
"USW00003170","EUREKA AIRPORT, NV US","39.6013","-116.0055","1809.3","2009","307",,,,,,"-18","0,0104, ",,,,,"0.66"," ,0,0614, ","98","0,0821,+","7137","0","10.76"," ,0",,,"45.0","0","61.8","0","28.3","0"
"USC00264950","MCGILL, NV US","39.4136","-114.7734","1911.1","2009","397",,"       56",,"        14","0","-13","0,1211,+","9"," ,0,1231,+","5.5"," ,0,1213, ","1.00"," ,0,1020, ","101","0,0718, ","6388","9","13.04"," ,0","43.1"," ,0","46.7","0","62.4","0","30.9","0"
"USR0000NTEX","TEXAS SPRINGS NEVADA, NV US","41.8017","-118.4508","1755.6","2009","652",,,,,,"1","U,1208, ",,,,,,,"95","U,0718, ","6233","7",,,,,"47.7","U","56.5","U","38.9","U"
"USC00269168","WINNEMUCCA 3 SSW, NV US","40.9386","-117.7513","1327.4","2009","684",,"       36",,"         9","0","-14","0,1209, ","5"," ,0,1214,+","5.4"," ,0,1212, ","0.62"," ,0,0124, ","103","0,0719, ","5990","8","7.19"," ,0","25.4"," ,0","49.6","0","65.2","0","33.9","0"
"USW00004139","DENIO 52 WSW, NV US","41.8484","-119.6357","1981.2","2009","103",,,,,,"-9","R,1208, ",,,,,"1.43"," ,R,0408, ","91","R,0820, ","8052","1","15.32"," ,R",,,"42.0","R","53.1","R","30.9","R"
"USR0000NCCP","CATTLE CAMP NEVADA, NV US","38.9036","-114.8142","2225.0","2009","183",,,,,,"-18","U,0104, ",,,,,,,"96","U,0821,+","7405","2",,,,,"44.1","U","61.3","U","27.0","U"
"USR0000NFIS","FISH SPRINGS NEVADA, NV US","38.9361","-119.6519","1560.6","2009","748",,,,,,"-1","U,1208, ",,,,,,,"98","U,0717, ","5014","6",,,,,"52.5","U","65.9","U","39.0","U"
"USR0000NBRA","BRAWLEY PEAKS NEVADA, NV US","38.2611","-118.8803","2462.8","2009",,,,,,,"0","U,1208, ",,,,,,,,,,,,,,,,,,,"34.0","U"
"USR0000NDES","DESATOYA MOUNTAIN NEVADA, NV US","39.3011","-117.5844","1889.8","2009","279",,,,,,"-24","U,1209, ",,,,,,,"100","U,0717, ","6823","5",,,,,"46.0","U","63.1","U","29.0","U"
"US1NVCK0010","EAST LAS VEGAS 1.3 NNW, NV US","36.11281204","-115.05428314","516.9","2009",,,,,,,,,,,,,"0.65"," ,N,0208, ",,,,,"1.34"," ,N",,,,,,,,
"USS0017H02S","BUCKSKIN LOWER, NV US","41.75","-117.53","2107.7","2009","148",,"      187",,,,"-6","T,0127,+","36"," ,T,0306, ",,,"0.90"," ,T,0415,+","102","T,0820, ","7517","9","23.93"," ,T",,,"43.6","T","54.7","T","32.6","T"
"US1NVCK0016","LAS VEGAS 6.3 WSW, NV US","36.161579","-115.321193","899.2","2009",,,,,,,,,,,,,"0.89"," ,N,0208, ",,,,,"2.74"," ,N",,,,,,,,
"USC00260800","BEOWAWE 49 S U OF N RANCH, NV US","39.9004","-116.5876","1749.6","2009","200",,,,"        13","0","-18","0,1210, ",,,"4.0"," ,0,1213, ","0.83"," ,0,0611, ","99","0,0718, ",,,"10.17"," ,0","36.7"," ,0","45.5","0","63.8","0","27.3","0"
"USS0015K03S","DIAMOND PEAK, NV US","39.56","-115.84","2448.5","2009","113",,"      168",,,,"-1","T,1208, ","35"," ,T,0416, ",,,"1.80"," ,T,0415, ","84","T,0821,+","7173","2","24.46"," ,T",,,"44.4","T","54.4","T","34.4","T"
"USR0000NDEA","DEAD CAMEL MOUNTAIN NEVADA, NV US","39.2636","-118.9433","1368.6","2009","1090",,,,,,"-11","U,1209, ",,,,,,,"103","U,0820,+","4971","6",,,,,"53.3","U","67.7","U","39.0","U"
"USC00263512","HAWTHORNE, NV US","38.5155","-118.6208","1341.1","2009","1223",,,,"         0","0","6","0,1209, ",,,"0.5"," ,0,0126, ","0.84"," ,0,0823, ","102","0,0722,+",,,"4.65"," ,0","0.5"," ,0","55.2","0","68.6","0","41.8","0"
"USC00260125","ALAN BIBLE VISITOR CENTER, NV US","36.01","-114.7963","500.2","2009","4097",,,,,,"30","0,1210,+",,,,,"0.52"," ,0,1208, ","117","0,0729, ",,,"2.05"," ,0",,,"71.4","0","83.5","0","59.4","0"
"USW00003160","MERCURY DESERT ROCK AIRPORT, NV US","36.6206","-116.0278","984.5","2009","2380",,"        0",,,,"12","0,1209, ","0","T,0,1208, ",,,"0.48"," ,0,0207, ","109","0,0718, ","2775","8","1.88"," ,0",,,"63.3","0","77.1","0","49.5","0"
"US1NVCK0020","LAS VEGAS 6.0 SSW, NV US","36.126864","-115.268005","773.9","2009",,,,,,,,,,,,,"0.76"," ,N,0208, ",,,,,"2.33"," ,N",,,,,,,,
"USS0015J06S","LAMOILLE NUMBER 3, NV US","40.65","-115.38","2347.0","2009","35",,"      190",,,,"-8","T,1208, ","45"," ,T,0416, ",,,"1.10"," ,T,0322,+","83","T,0821, ","7986","7","31.54"," ,T",,,"41.8","T","52.1","T","31.6","T"
"USR0000NBAR","BARREL SPRINGS NEVADA, NV US","41.9111","-119.9389","1778.5","2009","241",,,,,,"-6","U,0127,+",,,,,,,"95","U,0820, ","7003","6",,,,,"45.4","U","57.3","U","33.4","U"
"USC00262780","FALLON EXPERIMENT STATION, NV US","39.4572","-118.7811","1208.5","2009",,,,,"         8","0",,,,,"8.0"," ,0,1208, ","0.43"," ,0,0124, ",,,"5062","2","3.89"," ,0","16.6"," ,0",,,,,,
"USC00265371","MOORMAN RANCH RUTH 16 WNW, NV US","39.35836","-115.32959","1993.1","2009",,,"       82",,"        20","0",,,"12"," ,0,0106, ","6.5"," ,0,0207, ","0.69"," ,0,0207, ",,,"7642","7","10.02"," ,0","56.4"," ,0",,,,,,
"USR0000NBAK","BAKER FLAT NEVADA, NV US","39.0019","-114.2175","2084.8","2009","500",,,,,,"-3","U,1206, ",,,,,,,"92","U,0821,+","6559","0",,,,,"46.9","U","58.3","U","35.5","U"
"USR0000NANT","ANTELOPE LAKE NEVADA, NV US","41.6847","-116.7644","1664.2","2009","535",,,,,,"-3","U,0127,+",,,,,,,"99","U,0820,+","6576","5",,,,,"47.2","U","60.5","U","34.0","U"
"USC00267612","SMITH 6 N, NV US","38.8822","-119.3511","1524.0","2009","559",,,,"         0","0","-15","0,1209, ",,,"0.0"," ,0,1231,+","1.56"," ,0,1013, ","100","0,0820,+","5705","7","6.61"," ,0","0.0"," ,0","49.5","0","66.6","0","32.5","0"
"USC00268822","WABUSKA 6 SE, NV US","39.0747","-119.1189","1310.6","2009",,,"       26",,"         0","0",,,"4"," ,0,1214,+","0.0"," ,0,1231,+","1.06"," ,0,1013, ","103","0,0725,+","5535","2","6.27"," ,0","0.0"," ,0",,,"69.2","0",,
"USS0017H08S","GRANITE PEAK, NV US","41.67","-117.57","2603.9","2009","25",,"      197",,,,"-4","T,1208, ","52"," ,T,0416, ",,,"1.10"," ,T,1013, ","80","T,0718, ","8876","1","24.84"," ,T",,,"39.6","T","47.1","T","32.2","T"
"USC00264698","LOVELOCK, NV US","40.17","-118.4776","1211.0","2009",,,"       26",,"         9","0",,,"6"," ,0,1213,+","6.0"," ,0,1207, ","0.71"," ,0,0613, ",,,,,"5.37"," ,0","21.4"," ,0",,,,,,
"USS0015J09S","GREEN MOUNTAIN, NV US","40.38","-115.53","2438.4","2009","28",,"      164",,,,"-1","T,1208,+","53"," ,T,0209, ",,,"1.60"," ,T,0415, ","82","T,0821, ","7899","6","31.22"," ,T",,,"42.2","T","50.9","T","33.4","T"
"USS0016H02S","JACK CREEK UPPER, NV US","41.55","-116.01","2209.8","2009","96",,"      208",,,,"-5","T,0127, ","59"," ,T,0408, ",,,"1.50"," ,T,0106, ","85","T,0821,+","7746","1","29.24"," ,T",,,"42.7","T","51.9","T","33.5","T"
"USS0014K02S","BERRY CREEK, NV US","39.32","-114.62","2773.7","2009","0",,"      228",,,,"-10","T,1209, ","75"," ,T,0209, ",,,"1.50"," ,T,0124, ","76","T,0821,+","9607","2","33.06"," ,T",,,"37.6","T","47.6","T","27.6","T"
"USS0019K08S","BIG MEADOW, NV US","39.46","-119.94","2514.3","2009","10",,"      185",,,,"-4","T,1207, ","68"," ,T,0304, ",,,"2.80"," ,T,1013, ","80","T,0727, ","8073","2","28.25"," ,T",,,"42.0","T","51.2","T","32.7","T"
"USC00269229","YERINGTON, NV US","38.9991","-119.1575","1335.0","2009",,,"       16",,"         4","0","-13","0,1210,+","5"," ,0,1213,+","4.5"," ,0,1208, ","0.70"," ,0,1014, ","103","0,0722,+",,,"4.74"," ,0","12.5"," ,0","53.3","0","69.1","0","37.6","0"
"USR0000NCRA","CRANE SPRINGS NEVADA, NV US","40.4597","-115.85","1950.7","2009","505",,,,,,"-1","U,1209, ",,,,,,,"96","U,0821,+","6536","9",,,,,"47.1","U","58.7","U","35.5","U"
"USC00266514","RACHEL, NV US","37.6467","-115.746","1469.1","2009",,,"        6",,"         5","0",,,"2"," ,0,1223,+","2.0"," ,0,0415,+","0.55"," ,0,0905, ",,,"5382","8","3.65"," ,0","11.3"," ,0",,,,,,
"USR0000NCAT","CATNIP MOUNTAIN NEVADA, NV US","41.92","-119.495","1749.6","2009","329",,,,,,"-6","U,0126, ",,,,,,,"95","U,0820,+","6895","8",,,,,"46.1","U","58.6","U","33.5","U"
"USR0000NKAN","KANE SPRINGS NEVADA, NV US","37.2506","-114.7075","1399.0","2009","2360",,,,,,"20","U,1206, ",,,,,,,"105","U,0717, ","2936","2",,,,,"62.8","U","71.4","U","54.2","U"
"US1NVWH0019","RENO 9.0 W, NV US","39.518429","-119.9935","1493.5","2009",,,,,,,,,,,,,"2.46"," ,N,1014, ",,,,,"15.67"," ,N",,,,,,,,
"US1NVNY0002","PAHRUMP 6.3 SSE, NV US","36.1656061","-115.984384","805.0","2009",,,,,,,,,,,,,"0.82"," ,N,0208, ",,,,,"2.85"," ,N",,,,,,,,
"US1NVWH0012","SPANISH SPRINGS 11.5 NE, NV US","39.783694","-119.606425","1351.8","2009",,,,,,,,,,,,,"1.05"," ,N,1014, ",,,,,"7.10"," ,N",,,,,,,,
"US1NVWH0011","RENO 2.4 SSW, NV US","39.508411","-119.844181","1393.9","2009",,,,,,,,,,,,,"1.25"," ,N,1014, ",,,,,"8.30"," ,N",,,,,,,,
"USR0000NDSS","DESERT SPRINGS NEVADA, NV US","39.6725","-119.77","1609.3","2009","977",,,,,,"2","U,1209,+",,,,,,,"98","U,0726, ","5013","3",,,,,"52.9","U","64.3","U","41.5","U"
"USR0000NROC","ROCK SPRING CREEK NEVADA, NV US","41.6431","-114.4375","1645.9","2009",,,,,,,,,,,,,,,,,"7257","9",,,,,,,,,,
"USS0019K07S","MOUNT ROSE SKI AREA, NV US","39.32","-119.89","2682.5","2009","9",,"      222",,,,"-3","T,1207, ","117"," ,T,0304,+",,,"5.30"," ,T,1013, ","77","T,0717, ","8433","8","48.17"," ,T",,,"40.9","T","49.1","T","32.7","T"
"USC00264341","LAGES, NV US","40.0634","-114.6148","1816.6","2009","337",,,,"        13","0","-14","0,1209, ",,,"6.0"," ,0,0425, ","1.06"," ,0,0703, ","97","0,0821, ","6475","1","9.74"," ,0","43.3"," ,0","46.2","0","62.1","0","30.4","0"
"USR0000NIMM","IMMIGRATION WASH NEVADA, NV US","37.9214","-114.1597","1898.9","2009","746",,,,,,"1","U,1209, ",,,,,,,"98","U,0718,+","4740","5",,,,,"52.4","U","65.6","U","39.1","U"
"USC00267175","RUTH, NV US","39.2763","-114.9911","2090.3","2009","72",,"       83",,"        26","0","-22","0,0104, ","14"," ,0,1231, ","11.0"," ,0,1213, ","0.94"," ,0,0425, ","94","0,0822,+",,,"15.06"," ,0","85.1"," ,0","41.5","0","57.9","0","25.2","0"
"USC00264480","LAUGHLIN, NV US","35.1691","-114.5805","184.4","2009","4374",,"        0",,"         0","0","32","0,1206, ","0"," ,0,1231,+","0.0"," ,0,1231,+","1.01"," ,0,0905, ","119","0,0718, ","1063","7","3.88"," ,0","0.0"," ,0","74.0","0","87.4","0","60.7","0"
"USC00267750","SPRING VALLEY STATE PARK, NV US","38.0405","-114.18","1813.6","2009",,,,,"        14","0",,,,,"8.0"," ,0,1213, ",,,,,,,"8.07"," ,0","40.9"," ,0",,,,,,
"USR0000NSPM","SPRUCE MOUNTAIN NEVADA, NV US","40.4403","-114.8111","1859.3","2009","521",,,,,,"-4","U,1209, ",,,,,,,"97","U,0717, ","6318","9",,,,,"47.6","U","60.6","U","34.7","U"
"USS0016H05S","LAUREL DRAW, NV US","41.78","-116.03","2041.2","2009","44",,"      179",,,,"-9","T,0127, ","42"," ,T,0309, ",,,"0.90"," ,T,1213,+","88","T,0821, ","7895","9","26.96"," ,T",,,"42.3","T","54.6","T","29.9","T"
"USR0000NALL","ALLIGATOR RIDGE NEVADA, NV US","39.7369","-115.5181","1999.5","2009","532",,,,,,"0","U,1206, ",,,,,,,"97","U,0821,+","6377","9",,,,,"47.9","U","59.8","U","35.9","U"
"USS0015H24S","DRAW CREEK, NV US","41.66","-115.32","2194.6","2009","68",,"      171",,,,"-7","T,0127, ","36"," ,T,0414,+",,,"1.00"," ,T,0620, ","86","T,0821, ","7880","7","20.85"," ,T",,,"42.2","T","51.9","T","32.5","T"
"US1NVWH0003","RENO 10.0 S, NV US","39.39541","-119.79","1554.5","2009",,,,,,,,,,,,,"2.50"," ,N,1014, ",,,,,"12.81"," ,N",,,,,,,,
"US1NVWH0002","RENO 1.4 NNE, NV US","39.557312","-119.81439","1494.1","2009",,,,,,,,,,,,,"0.98"," ,N,1014, ",,,,,"8.52"," ,N",,,,,,,,
"USS0015N11S","RAINBOW CANYON, NV US","36.25","-115.63","2414.0","2009","127",,"      161",,,,"11","T,0214, ","60"," ,T,0216, ",,,"2.10"," ,T,1207, ","84","T,0718, ","6153","6","23.78"," ,T",,,"47.7","T","56.2","T","39.3","T"
"USC00260795","BEOWAWE, NV US","40.5903","-116.4749","1432.6","2009",,,,,,,,,,,,,,,,,,,,,,,,,,,,
"USC00264236","KINGS RIVER VALLEY OROVADA 26 NW, NV US","41.7437","-118.2259","1292.4","2009",,,,,,,,,,,,,,,,,,,,,,,,,,,,
"USR0000NSPG","SPRING GULCH NEVADA, NV US","40.5931","-114.2028","1667.3","2009","863",,,,,,"0","U,1227, ",,,,,,,"98","U,0719, ","5753","0",,,,,"50.1","U","60.7","U","39.4","U"
"USR0000NDRY","DRY CANYON NEVADA, NV US","41.4917","-119.1167","1493.5","2009","733",,,,,,"-7","U,1208, ",,,,,,,"101","U,0718, ","5924","4",,,,,"49.7","U","63.1","U","36.3","U"
"USC00267188","RYNDON, NV US","40.9711","-115.61355","1611.8","2009",,,"       45",,"        14","0",,,"6"," ,0,1213, ","4.5"," ,0,0210, ","1.70"," ,0,0620, ","101","0,0822, ","7124","9","10.11"," ,0","28.4"," ,0",,,"62.3","0",,
"USC00267620","SMOKY VALLEY CARVERS, NV US","38.784","-117.1739","1721.2","2009",,,,,,,,,,,,,"0.50"," ,0,1013,+",,,,,"6.77"," ,0",,,,,,,,
"USS0016H04S","JACKS PEAK, NV US","41.53","-116.01","2566.4","2009","54",,"      235",,,,"-5","T,1208, ","89"," ,T,0416, ",,,"1.30"," ,T,0105, ","80","T,0821,+","8800","9","34.23"," ,T",,,"39.9","T","46.7","T","33.2","T"
"USC00263957","IMLAY, NV US","40.6564","-118.1631","1298.4","2009","744",,,,"         7","0","-15","0,1207, ",,,"5.0"," ,0,1211, ","0.54"," ,0,0612, ","101","0,0821,+","5875","0","5.81"," ,0","17.2"," ,0","49.8","0","65.0","0","34.5","0"
"USS0015N10S","LEE CANYON, NV US","36.31","-115.68","2629.2","2009","7",,"      164",,,,"7","T,0214,+","41"," ,T,0216, ",,,"2.40"," ,T,0725, ","78","T,0728,+","7341","2","22.76"," ,T",,,"44.4","T","53.9","T","35.0","T"
"USR0000NCOM","COMBS CANYON NEVADA, NV US","39.3814","-116.175","2008.6","2009","406",,,,,,"-6","U,1209,+",,,,,,,"97","U,0717, ","6674","9",,,,,"46.7","U","60.3","U","33.1","U"
"USS0017H07S","LAMANCE CREEK, NV US","41.52","-117.63","1828.8","2009","362",,"      153",,,,"2","T,1208, ","28"," ,T,0306, ",,,"1.00"," ,T,1013, ","89","T,0718, ","6300","1","21.93"," ,T",,,"47.4","T","55.8","T","39.1","T"
"USC00267192","RYE PATCH DAM, NV US","40.4661","-118.3047","1260.3","2009","581",,,,"         2","0","-15","0,1209,+",,,"5.0"," ,0,1211, ","0.63"," ,0,0613, ","103","0,0725,+","5403","5","6.60"," ,0","9.1"," ,0","50.4","0","69.6","0","31.2","0"
"USR0000NBLU","BLUEWING MOUNTAIN NEVADA, NV US","40.5017","-119.1217","1392.9","2009","829",,,,,,"-13","U,1208, ",,,,,,,"103","U,0718, ","5524","0",,,,,"50.9","U","65.5","U","36.3","U"
"USC00268346","TUSCARORA, NV US","41.3144","-116.2226","1880.6","2009","267",,"       96",,"        22","0","-10","0,0127, ","10"," ,0,0128,+","5.0"," ,0,1213, ","0.52"," ,0,0620, ","95","0,0719, ","6979","2","11.26"," ,0","52.7"," ,0","44.9","0","57.5","0","32.3","0"
"USC00268588","VALLEY OF FIRE STATE PARK, NV US","36.4302","-114.514","609.6","2009","3757",,"        0",,"         0","0","27","0,0106, ","0"," ,0,1231,+","0.0"," ,0,1231,+","0.69"," ,0,0208, ","115","0,0719, ","1700","7","3.13"," ,0","0.0"," ,0","70.2","0","81.4","0","59.1","0"
"USW00023169","MCCARRAN INTERNATIONAL AIRPORT, NV US","36.0719","-115.1634","664.5","2009","3746",,"        0",,"         0","0","29","0,0106,+","0"," ,0,1231,+","0.0"," ,0,1231,+","0.58"," ,0,0207, ","113","0,0718, ","1818","2","1.59"," ,0","0.0"," ,0","69.9","0","80.5","0","59.2","0"
"USC00262119","DAGGET PASS, NV US","38.9783","-119.8914","2235.4","2009","125",,,,"        10","0","5","0,1209,+",,,"11.0"," ,0,0303, ","1.20"," ,0,0302, ","87","0,0728,+",,,"10.65"," ,0","47.7"," ,0","45.2","0","55.7","0","34.6","0"
"USS0015H03S","SEVENTYSIX CREEK, NV US","41.74","-115.47","2164.1","2009","47",,"      175",,,,"-8","T,1208, ","33"," ,T,0217, ",,,"1.00"," ,T,0620, ","85","T,0821, ","8141","8","21.35"," ,T",,,"41.5","T","51.1","T","31.8","T"
"USC00263205","GLENBROOK, NV US","39.0753","-119.9411","1935.5","2009",,,,,"        24","0","5","0,0210, ",,,"17.0"," ,0,1207, ","1.30"," ,0,0302, ","87","0,0727,+",,,"12.58"," ,0","98.0"," ,0","47.0","0","59.0","0","35.1","0"
"USR0000NMAT","MATHER NEVADA, NV US","39.0228","-114.2722","2824.9","2009","94",,,,,,"-4","U,1206, ",,,,,,,"86","U,0821,+","7685","4",,,,,"43.1","U","52.9","U","33.3","U"
"USW00053145","TONOPAH TEST RANGE NUMBER 74 NELLIS AFB, NV US","37.61722","-116.26417","1755.6","2009",,,,,,,,,,,,,,,,,,,,,,,,,,,,
"USC00267123","RUBY LAKE NWR, NV US","40.2022","-115.4931","1834.6","2009","330",,"       75",,"        22","0","-14","0,1211, ","10"," ,0,1231, ","4.4"," ,0,0207, ","0.70"," ,0,0824, ","96","0,0822, ","6910","7","13.81"," ,0","57.1"," ,0","45.5","0","60.1","0","30.9","0"
"USC00267369","SEARCHLIGHT, NV US","35.4661","-114.9216","1079.0","2009",,,"        0",,"         0","0",,,"0"," ,0,1231,+","0.0"," ,0,1231,+","0.98"," ,0,0824, ",,,,,"4.19"," ,0","0.0"," ,0",,,,,,
"USS0015H01S","BEAR CREEK, NV US","41.83","-115.45","2450.6","2009","4",,"      207",,,,"-14","T,0127,+","73"," ,T,0403, ",,,"1.10"," ,T,0620,+","85","T,0821, ","9157","3","36.44"," ,T",,,"38.7","T","51.0","T","26.3","T"
"USC00260507","AUSTIN NUMBER 2, NV US","39.493","-117.0675","2066.5","2009",,,,,,,,,,,,,,,,,,,,,,,,,,,,
"US1NVWH0057","RENO 4.0 N, NV US","39.596303","-119.808643","1585.3","2009",,,"       29",,"        13","N",,,"15"," ,N,1213, ","10.0"," ,N,1207, ","1.14"," ,N,1014, ",,,,,"7.63"," ,N","49.9"," ,N",,,,,,
"USS0015H14S","POLE CREEK RANGER STATION, NV US","41.87","-115.25","2539.0","2009","12",,,,,,"-8","T,1208, ",,,,,"1.20"," ,T,0620, ","81","T,0723, ","8943","5","24.21"," ,T",,,"38.7","T","47.0","T","30.4","T"
"USS0017K04S","BIG CREEK SUM, NV US","39.29","-117.11","2650.2","2009","57",,"      186",,,,"-1","T,1208, ","100"," ,T,0415, ",,,"1.80"," ,T,0415, ","82","T,0722, ","7553","3","27.83"," ,T",,,"43.3","T","51.6","T","35.0","T"
"USC00262243","DESERT NATIONAL WILDLIFE REFUGE, NV US","36.4381","-115.3601","888.2","2009","2387",,"        0",,"         0","0","26","0,1210,+","0"," ,0,1231,+","0.0"," ,0,1231,+","0.75"," ,0,0208, ","110","0,0717, ","2216","2","2.51"," ,0","0.0"," ,0","64.7","0","79.5","0","49.9","0"
"USS0014K05S","WARD MOUNTAIN, NV US","39.13","-114.96","2804.2","2009","14",,"      165",,,,"-3","T,1208, ","68"," ,T,0209, ",,,"2.00"," ,T,0124, ","81","T,0717, ","8276","6","26.75"," ,T",,,"41.2","T","49.9","T","32.4","T"
"USC00265191","MINDEN, NV US","38.9547","-119.7758","1435.3","2009",,,,,"         4","0",,,,,"4.0"," ,0,1004,+","1.68"," ,0,1014, ","100","0,0728,+",,,"8.12"," ,0","16.3"," ,0",,,"68.9","0",,
"USC00265194","MINDEN 6 NE, NV US","39.0199","-119.7088","1487.4","2009",,,,,,,,,,,,,,,,,,,,,,,,,,,,
"USR0000NLON","LONG HOLLOW NEVADA, NV US","41.5386","-116.2175","1773.9","2009","487",,,,,,"-2","U,0127, ",,,,,,,"96","U,0821,+","6702","3",,,,,"46.8","U","58.6","U","35.0","U"
"USR0000NDNW","DESERT NWR NEVADA, NV US","36.5792","-115.1439","2170.2","2009",,,,,,,"13","U,1208, ",,,,,,,"90","U,0718,+","4772","1",,,,,"52.7","U","59.6","U","45.8","U"
"USW00023141","INDIAN SPRINGS, NV US","36.58333","-115.68333","951.9","2009",,,,,,,,,,,,,,,,,,,,,,,,,,,,
"USC00267953","SUTCLIFFE, NV US","39.9508","-119.5986","1188.7","2009",,,"        1",,"         1","0",,,"3"," ,0,1229, ","3.0"," ,0,1229, ","0.83"," ,0,1014, ","97","0,0721,+",,,"6.14"," ,0","3.0"," ,0",,,"63.1","0",,
"USW00024119","BATTLE MOUNTAIN 4 SE, NV US","40.6118","-116.8917","1373.1","2009","780",,"       33",,"        10","0","-18","0,1209, ","5"," ,0,0415,+","5.2"," ,0,0209, ","0.62"," ,0,0415, ","106","0,0718, ","5066","4","8.13"," ,0","32.6"," ,0","52.1","0","67.4","0","36.7","0"
"USC00266746","REESE RIVER, NV US","39.06333","-117.41306","1954.7","2009","51",,"       54",,"        24","0","-17","0,1209,+","6"," ,0,1231, ","4.5"," ,0,0410, ","0.55"," ,0,0725, ","93","0,0723, ","8048","0","7.76"," ,0","43.6"," ,0","41.9","0","60.7","0","23.1","0"
"USC00264439","LAS VEGAS WEATHER FORECAST OFFICE, NV US","36.0469","-115.1848","693.4","2009","3365",,"        0",,"         0","0","24","0,0105, ","0"," ,0,1231,+","0.0","T,0,1211, ","0.72"," ,0,0207, ","113","0,0728,+","2140","1","2.30"," ,0","0.0","T,0","67.9","0","79.9","0","55.8","0"
"US1NVDG0002","MINDEN 6.0 NNE, NV US","39.038562","-119.721279","1467.9","2009",,,,,,,,,,,,,"1.10"," ,N,1014, ",,,,,"6.24"," ,N",,,,,,,,
"USC00263340","GREAT BASIN NATIONAL PARK, NV US","39.0055","-114.2205","2087.9","2009",,,,,,,,,,,,,,,,,"6156","9",,,,,,,,,,
"USW00023153","TONOPAH AIRPORT, NV US","38.0511","-117.0902","1644.4","2009",,,,,,,"-1","0,1209, ",,,,,"0.46"," ,0,0613, ",,,"5219","7","3.77"," ,0",,,,,,,"37.5","0"
"USC00265087","MESQUITE 2 NE, NV US","36.8239","-114.0525","552.0","2009","3731",,"        0",,"         0","0","23","0,0106, ","0"," ,0,1231,+","0.0"," ,0,1231,+","0.91"," ,0,0905, ","118","0,0719,+","1937","0","4.92"," ,0","0.0"," ,0","69.5","0","84.2","0","54.9","0"
"USS0016H08S","FAWN CREEK, NV US","41.82","-116.1","2133.6","2009","108",,"      210",,,,"-3","T,1208, ","57"," ,T,0308, ",,,"1.30"," ,T,0408, ","85","T,0821, ","7773","1","32.56"," ,T",,,"42.7","T","51.8","T","33.6","T"
"USC00265880","PAHRANAGAT WILDLIFE REFUGE, NV US","37.2689","-115.1217","1016.2","2009",,,"        0",,"         0","0",,,"0"," ,0,1231,+","0.5"," ,0,0210, ","0.81"," ,0,0208, ",,,"2953","6","3.46"," ,0","0.5"," ,0",,,,,,
"USW00023154","ELY AIRPORT, NV US","39.2952","-114.8466","1908.7","2009","109",,"       82",,"        22","0","-19","0,1209, ","9"," ,0,1231, ","6.9"," ,0,1213, ","0.94"," ,0,1019, ","94","0,0717,+","7375","1","10.06"," ,0","72.7"," ,0","43.1","0","59.6","0","26.5","0"
"USW00024121","ELKO REGIONAL AIRPORT, NV US","40.8288","-115.7886","1533.1","2009","430",,"       71",,"        19","0","-22","0,1209, ","9"," ,0,1231,+","7.2"," ,0,0415, ","0.90"," ,0,0620, ","99","0,0821,+","6563","4","11.24"," ,0","50.0"," ,0","46.5","0","62.2","0","30.8","0"
"USR0000NMOR","MOREY CREEK NEVADA, NV US","41.4558","-117.6333","1676.4","2009",,,,,,,"2","U,1208, ",,,,,,,,,,,,,,,,,,,"40.3","U"
"US1NVDG0006","INDIAN HILLS 0.7 N, NV US","39.0967","-119.7832","1506.9","2009",,,,,,,,,,,,,"1.56"," ,N,1014, ",,,,,"7.10"," ,N",,,,,,,,
"USC00265400","MOUNT CHARLESTON FIRE STATION, NV US","36.2599","-115.645","2273.8","2009","94",,,,"        22","0","0","0,0214, ",,,"19.0"," ,0,0217, ","1.91"," ,0,0721, ","85","0,0720, ","6650","4","21.98"," ,0","112.0"," ,0","46.4","0","59.1","0","33.6","0"
"USC00267820","STEAD, NV US","39.6253","-119.8836","1554.8","2009",,,,,"         6","0",,,,,"9.0"," ,0,1207, ",,,"100","0,0719,+",,,,,"21.0"," ,0",,,"65.6","0",,
"USR0000NMOU","MOUNTAIN SPRINGS NEVADA, NV US","36.0306","-115.5167","1706.9","2009",,,,,,,,,,,,,,,,,"4415","7",,,,,,,,,,
"USC00262708","EUREKA, NV US","39.517","-115.9621","1959.9","2009","271",,,,"        24","0","-9","0,1209, ",,,"16.0"," ,0,0415, ","1.25"," ,0,0415, ","94","0,0718, ","7111","4","11.79"," ,0","103.0"," ,0","44.9","0","58.5","0","31.3","0"
"USW00024128","WINNEMUCCA AIRPORT, NV US","40.9017","-117.808","1309.4","2009","588",,"       34",,"         8","0","-12","0,1210,+","6"," ,0,1213, ","4.0"," ,0,0304, ","0.48"," ,0,0123, ","104","0,0718, ","6084","8","7.28"," ,0","25.2"," ,0","49.0","0","65.5","0","32.6","0"
"USS0015H04S","BIG BEND, NV US","41.76","-115.69","2042.2","2009","112",,"      171",,,,"-4","T,0127, ","36"," ,T,0211, ",,,"0.70"," ,T,0602, ","89","T,0821, ","7724","4","18.24"," ,T",,,"42.8","T","52.6","T","32.9","T"
"US1NVWH0031","SPARKS 1.7 E, NV US","39.547997","-119.705151","1342.9","2009",,,,,,,,,,,,,"1.51"," ,N,1014, ",,,,,"8.26"," ,N",,,,,,,,
"USC00263114","GIBBS RANCH JARBIDGE 24 SE, NV US","41.5697","-115.2111","1816.6","2009",,,,,"        11","0",,,,,"4.8"," ,0,0105, ","1.21"," ,0,0618, ",,,,,"12.53"," ,0","26.8"," ,0",,,,,,
"USS0016J01S","LEWIS PEAK, NV US","40.36","-116.86","2255.5","2009",,,"      156",,,,,,"59"," ,T,0415, ",,,"2.50"," ,T,0415, ",,,"7288","7","26.24"," ,T",,,,,,,,
"USC00263090","GERLACH, NV US","40.6517","-119.3579","1205.2","2009","1164",,"       26",,"        10","0","-12","0,1208, ","7"," ,0,1213, ","5.0"," ,0,1212, ","0.58"," ,0,0607, ","105","0,0821, ","4815","2","5.50"," ,0","23.0"," ,0","53.2","0","67.8","0","38.6","0"
"USC00267697","SPARKS, NV US","39.5558","-119.7333","1328.0","2009",,,,,"         1","0","-8","0,1209, ",,,"1.0"," ,0,1229, ","0.85"," ,0,1013, ",,,,,"7.05"," ,0","2.2"," ,0",,,,,"36.2","0"
"USC00266005","PARADISE VALLEY 1 NW, NV US","41.50222","-117.54778","1389.9","2009",,,,,"         9","0",,,,,"5.0"," ,0,1231, ","0.77"," ,0,1013, ",,,,,"8.26"," ,0","25.6"," ,0",,,,,,
"USW00024172","LOVELOCK DERBY FIELD AIRPORT, NV US","40.0681","-118.5692","1189.3","2009","1131",,,,,,"-13","0,1210,+",,,,,"0.72"," ,0,0613, ","109","0,0718, ","5076","3","4.27"," ,0",,,"52.9","0","70.9","0","34.9","0"
"US1NVCK0021","LAS VEGAS 6.5 WNW, NV US","36.2406","-115.3313","907.1","2009",,,,,,,,,,,,,"0.91"," ,N,0208, ",,,,,"2.93"," ,N",,,,,,,,
"US1NVCK0026","HENDERSON 5.9 W, NV US","36.04879","-115.10663","627.6","2009",,,,,,,,,,,,,"0.58"," ,N,0208, ",,,,,"1.72"," ,N",,,,,,,,
"USC00262557","ELGIN, NV US","37.3476","-114.541","1043.0","2009","1769",,"        0",,"         0","0","14","0,1209, ","0"," ,0,1231,+","0.0"," ,0,1231,+","0.95"," ,0,1213, ","111","0,0719,+",,,"7.68"," ,0","0.0"," ,0","60.1","0","75.7","0","44.5","0"
"USS0015J01S","DORSEY BASIN, NV US","40.89","-115.2","2468.9","2009","9",,"      228",,,,"-13","T,1206, ","46"," ,T,0416,+",,,"2.00"," ,T,0408, ","81","T,0821, ","9084","6","34.13"," ,T",,,"39.0","T","49.4","T","28.6","T"
"USW00093102","FALLON NAAS, NV US","39.41667","-118.71667","1199.1","2009","1032",,,,,,"-9","W,1209, ",,,,,"0.40"," ,W,0123, ","104","W,0820,+","4866","3","4.64"," ,W",,,"53.1","W","69.2","W","36.9","W"
"USC00262431","DYER 5 S, NV US","37.6065","-118.0","1493.5","2009","708",,"       21",,"         4","0","-8","0,1209, ","3"," ,0,1226,+","2.5"," ,0,1222, ","0.87"," ,0,0208, ","102","0,0718, ",,,"4.42"," ,0","7.3"," ,0","51.5","0","69.1","0","33.9","0"
"USR0000NORI","ORIENTAL WASH NEVADA, NV US","37.2353","-117.4964","1249.7","2009","2311",,,,,,"17","U,1208, ",,,,,,,"107","U,0717, ","2740","4",,,,,"63.1","U","74.6","U","51.6","U"
"USR0000NFOX","FOX MOUNTAIN NEVADA, NV US","41.0061","-119.5681","2100.1","2009","311",,,,,,"-3","U,1208, ",,,,,,,"90","U,0820,+","7166","2",,,,,"45.0","U","55.1","U","35.0","U"
"USR0000NGAL","GALENA NEVADA, NV US","39.3817","-119.815","1524.0","2009","624",,,,,,"-1","U,1208, ",,,,,,,"96","U,0726, ","5467","3",,,,,"50.6","U","62.8","U","38.4","U"
"USR0000NAUS","AUSTIN NEVADA, NV US","39.5031","-117.0814","1912.6","2009","643",,,,,,"-1","U,0104, ",,,,,,,"98","U,0821, ","5749","9",,,,,"49.9","U","63.0","U","36.7","U"
"USC00265705","NORTH LAS VEGAS, NV US","36.2347","-115.1163","578.5","2009",,,"        0",,"         0","0",,,"0"," ,0,1231,+","0.0"," ,0,1231,+","0.85"," ,0,0208, ",,,,,"2.08"," ,0","0.0"," ,0",,,,,,
"USC00261358","CALIENTE, NV US","37.6128","-114.5265","1334.7","2009","1040",,"       11",,"         7","0","-1","0,1209, ","2"," ,0,1209,+","4.0"," ,0,1208, ","0.96"," ,0,0209, ","107","0,0718, ","4791","8","5.94"," ,0","14.3"," ,0","53.9","0","70.5","0","37.4","0"
"USR0000NKYL","KYLE CANYON NEVADA, NV US","36.2667","-115.6","2194.6","2009","466",,,,,,"9","U,1209, ",,,,,,,"92","U,0718, ","5190","4",,,,,"51.1","U","62.8","U","39.4","U"
"USS0015J12S","CORRAL CANYON, NV US","40.28","-115.53","2590.8","2009","42",,"      211",,,,"-2","T,1208, ","76"," ,T,0416,+",,,"1.50"," ,T,0322, ","81","T,0821, ","8163","3","32.47"," ,T",,,"41.3","T","48.9","T","33.7","T"
"USC00264745","LUND, NV US","38.8677","-115.0166","1690.4","2009","223",,"       63",,"        18","0","-13","0,1210,+","6"," ,0,0210,+","6.0"," ,0,0210, ","1.40"," ,0,1020, ","97","0,0718, ","6667","2","9.81"," ,0","40.9"," ,0","46.3","0","63.5","0","29.0","0"
"USR0000NCYW","COYOTE WASH NEVADA, NV US","38.2833","-114.7583","1743.5","2009","761",,,,,,"-7","U,1209, ",,,,,,,"104","U,0717, ","5164","9",,,,,"52.0","U","67.8","U","36.2","U"
"USC00269072","WILD HORSE RESERVOIR, NV US","41.6358","-115.8008","1901.6","2009","8",,"      130",,"        42","0","-30","0,0104, ","33"," ,0,0106,+","8.0"," ,0,0105, ","1.07"," ,0,0620, ","91","0,0718, ","9699","1","13.22"," ,0","119.8"," ,0","36.3","0","53.7","0","18.8","0"
"US1NVWH0093","RENO 2.5 NNE, NV US","39.5713","-119.8001","1524.9","2009",,,,,,,,,,,,,"0.99"," ,N,1014, ",,,,,"6.52"," ,N",,,,,,,,
"USC00261590","CATHEDRAL GORGE STATE PARK, NV US","37.8044","-114.4069","1472.2","2009",,,,,,,,,,,,,,,,,,,,,,,,,,,,
"USC00267690","SOUTH FORK STATE RECREATION AREA, NV US","40.6764","-115.7451","1606.3","2009",,,,,,,,,,,,,,,,,"6158","2",,,,,,,,,,
"USR0000NSIA","SIARD NEVADA, NV US","40.3944","-117.625","1402.1","2009","809",,,,,,"-12","U,1208, ",,,,,,,"105","U,0717, ","5695","7",,,,,"50.7","U","66.4","U","35.0","U"
"US1NVLY0003","YERINGTON 3.4 SSW, NV US","38.943328","-119.19161","1350.9","2009",,,,,,,,,,,,,"1.20"," ,N,1014, ",,,,,"6.18"," ,N",,,,,,,,
"USW00023185","RENO AIRPORT, NV US","39.4838","-119.7711","1344.2","2009","1040",,"       27",,"         6","0","-6","0,1209, ","7"," ,0,1215,+","7.0"," ,0,1207, ","1.45"," ,0,1013, ","102","0,0718, ","4674","5","8.28"," ,0","22.6"," ,0","53.9","0","67.6","0","40.2","0"
"USR0000NELY","ELY NEVADA, NV US","39.2922","-114.8361","2008.6","2009","268",,,,,,"-16","U,1209, ",,,,,,,"100","U,0821, ",,,,,,,"45.9","U","62.8","U","29.0","U"
"USC00260955","BLUE EAGLE RANCH CURRANT 12 SSW, NV US","38.5208","-115.5444","1425.9","2009",,,"       42",,"         9","0",,,"9"," ,0,0415, ","8.5"," ,0,0415, ","0.75"," ,0,1020, ",,,,,"7.35"," ,0","26.9"," ,0",,,,,,
"USR0000NPAN","PANCAKE NEVADA, NV US","38.3036","-116.1925","1585.0","2009","685",,,,,,"-16","U,1226,+",,,,,,,"101","U,0717, ","5777","3",,,,,"49.9","U","67.6","U","32.2","U"
"USS0015J15S","HOLE IN MOUNTAIN, NV US","40.94","-115.1","2407.9","2009","19",,"      185",,,,"-5","T,1206, ","42"," ,T,0415,+",,,"1.50"," ,T,0620, ","80","T,0820, ","8378","7","36.36"," ,T",,,"40.9","T","49.7","T","32.0","T"
"USR0000NRER","RED ROCK NEVADA, NV US","36.1353","-115.4272","1146.0","2009","2306",,,,,,"19","U,1209, ",,,,,,,"107","U,0728,+","3029","8",,,,,"62.4","U","75.3","U","49.6","U"
"USS0018H01S","DISASTER PEAK, NV US","41.97","-118.19","1981.2","2009","318",,"      117",,,,"1","T,1208, ","24"," ,T,0216,+",,,"0.80"," ,T,0105, ","88","T,0820,+","6664","5","16.55"," ,T",,,"46.5","T","54.9","T","38.1","T"
"USS0015H09S","TAYLOR CANYON, NV US","41.23","-116.03","1889.8","2009","34",,"      145",,,,"-16","T,1209, ","23"," ,T,0309,+",,,"0.50"," ,T,1231,+","91","T,0718, ","8624","4","12.75"," ,T",,,"40.4","T","55.7","T","25.1","T"
"US1NVWH0086","RENO 9.1 N, NV US","39.669903","-119.81554","1506.6","2009",,,,,,,,,,,,,"1.43"," ,N,1014, ",,,,,"9.20"," ,N",,,,,,,,
"USC00261485","CARSON CITY, NV US","39.1254","-119.7679","1451.2","2009",,,,,"         5","0",,,,,"13.5"," ,0,1207, ","1.00"," ,0,1014, ",,,,,"6.37"," ,0","23.9"," ,0",,,,,,
"USW00053123","LAS VEGAS AIR TERMINAL, NV US","36.21167","-115.19583","671.5","2009","3438",,,,,,"28","W,1210,+",,,,,"0.72"," ,W,0207, ","112","W,0728,+","1950","4","2.69"," ,W",,,"68.6","W","80.0","W","57.3","W"
"USC00262570","ELKO NWS OFFICE, NV US","40.8602","-115.7426","1595.6","2009","424",,"       70",,"        19","0","-19","0,1210, ","12"," ,0,1231, ","7.2"," ,0,0415, ","0.95"," ,0,0620, ","99","0,0821,+","6851","9","13.46"," ,0","50.0"," ,0","45.7","0","60.9","0","30.4","0"
"USC00260150","AMARGOSA FARMS GAREY, NV US","36.5716","-116.4619","746.8","2009","2633",,"        1",,"         0","0","15","0,1209, ","1"," ,0,1208, ","0.5"," ,0,1208, ","0.66"," ,0,0208, ","113","0,0720,+","2509","7","1.66"," ,0","0.5"," ,0","64.5","0","80.5","0","48.4","0"
"USC00264095","JIGGS 2 NE, NV US","40.44474","-115.65798","1719.7","2009","87",,,,"        20","0","-12","0,1210, ",,,"16.0"," ,0,0210, ","1.62"," ,0,0210, ","92","0,0822, ",,,"13.17"," ,0","89.6"," ,0","42.5","0","57.0","0","27.9","0"
"USC00266252","PIOCHE, NV US","37.9338","-114.4522","1825.8","2009",,,,,,,,,,,,,,,,,,,,,,,,,,,,
"USR0000NREB","RED BUTTE NEVADA, NV US","39.9833","-117.3167","1539.2","2009","695",,,,,,"-12","U,1209, ",,,,,,,"101","U,0718,+","5661","2",,,,,"49.9","U","64.6","U","35.3","U"
"USC00265168","MINA, NV US","38.3878","-118.1091","1396.0","2009","1215",,"        5",,"         2","0","-3","0,1210, ","2"," ,0,1208,+","2.0"," ,0,1207, ","0.70"," ,0,0124, ","103","0,0717, ",,,"4.89"," ,0","3.0"," ,0","55.1","0","69.8","0","40.4","0"
"USC00265722","OASIS, NV US","41.0333","-114.4713","1778.5","2009",,,"       44",,"        10","0",,,"8"," ,0,0217, ","6.5"," ,0,0210, ","1.25"," ,0,0415, ",,,"7493","0","9.46"," ,0","33.0"," ,0",,,,,,
"USR0000NLIT","LITTLE VALLEY NEVADA, NV US","39.2444","-119.8808","1923.3","2009","37",,,,,,"-15","U,1209, ",,,,,,,"91","U,0820, ","7733","1",,,,,"43.3","U","58.6","U","27.9","U"
"USC00265846","OVERTON, NV US","36.5508","-114.458","381.0","2009","3677",,"        0",,"         0","0","23","0,0106, ","0"," ,0,1231,+","0.0"," ,0,1231,+","0.63"," ,0,0208, ","120","0,0718, ","1918","4","2.61"," ,0","0.0"," ,0","69.6","0","85.3","0","54.0","0"
"USR0000NBEA","BEACON LIGHT NEVADA, NV US","40.5583","-116.7583","1463.0","2009","1148",,,,,,"-1","U,1210,+",,,,,,,"104","U,0718, ","5106","6",,,,,"52.9","U","65.3","U","40.6","U"
"USC00262229","DENIO, NV US","41.9897","-118.6335","1277.1","2009","636",,"        9",,"         5","0","-6","0,1210, ","3"," ,0,1215,+","1.5"," ,0,1231,+","1.05"," ,0,0606, ","103","0,0820, ",,,"7.82"," ,0","7.8"," ,0","50.0","0","65.1","0","34.9","0"
"USC00267908","SUNNYSIDE LUND 31 S, NV US","38.4231","-115.0226","1614.5","2009",,,,,,,,,,,,,,,,,,,,,,,,,,,,
"USC00264527","LEONARD CREEK RANCH DENIO 33 S, NV US","41.5167","-118.7193","1292.0","2009",,,,,,,,,,,,,,,,,,,,,,,,,,,,
"US1NVWH0079","RENO 17.8 NNW, NV US","39.790278","-119.894694","1760.2","2009",,,,,"        21","N",,,,,"11.2"," ,N,1207, ","1.41"," ,N,1014, ",,,,,"11.80"," ,N","76.9"," ,N",,,,,,
"USC00263316","GOODSPRINGS, NV US","35.8387","-115.4278","1132.6","2009",,,,,,,,,,,,,,,,,,,,,,,,,,,,
"USR0000NRUB","RUBY LAKE NWR NEVADA, NV US","40.1731","-115.4855","1819.7","2009","149",,,,,,"-16","U,1210, ",,,,,,,"96","U,0820, ","6960","9",,,,,"44.9","U","60.1","U","29.7","U"
"USR0000NJUN","JUNIPER SPRINGS NEVADA, NV US","41.0819","-119.7772","1630.1","2009","762",,,,,,"-1","U,1208, ",,,,,,,"98","U,0820, ","5667","4",,,,,"50.5","U","61.8","U","39.3","U"
"USC00263671","HIKO, NV US","37.5581","-115.2236","1188.7","2009",,,"        3",,"         3","0",,,"2"," ,0,0212,+","2.0"," ,0,0212,+","1.06"," ,0,0207, ",,,,,"4.43"," ,0","5.5"," ,0",,,,,,
"USW00053136","MERCURY 3 SSW, NV US","36.624","-116.0225","1001.0","2009","2322",,,,,,"12","R,1209, ",,,,,"0.45"," ,R,0207, ","107","R,0718, ","2822","8","1.76"," ,R",,,"62.9","R","76.3","R","49.6","R"
"USW00053138","BAKER 5 W, NV US","39.0118","-114.209","2016.9","2009","550",,,,,,"-3","R,1206, ",,,,,"1.27"," ,R,0207, ","93","R,0821, ","6385","2","12.26"," ,R",,,"47.7","R","58.5","R","36.8","R"
