"STATION","NAME","LATITUDE","LONGITUDE","ELEVATION","DATE","CDSD","CDSD_ATTRIBUTES","DSND","DSND_ATTRIBUTES","DSNW","DSNW_ATTRIBUTES","EMNT","EMNT_ATTRIBUTES","EMSD","EMSD_ATTRIBUTES","EMSN","EMSN_ATTRIBUTES","EMXP","EMXP_ATTRIBUTES","EMXT","EMXT_ATTRIBUTES","HDSD","HDSD_ATTRIBUTES","PRCP","PRCP_ATTRIBUTES","SNOW","SNOW_ATTRIBUTES","TAVG","TAVG_ATTRIBUTES","TMAX","TMAX_ATTRIBUTES","TMIN","TMIN_ATTRIBUTES"
"USC00265353","MONTELLO 7 NE, NV US","41.32372","-114.07256","1471.6","2019",,,,,,,,,,,,,,,,,,,,,,,,,,,,
"USR0000NBUF","BUFFALO CREEK NEVADA, NV US","40.5819","-119.79","851.6","2019","1000",,,,,,"11","U,1031, ",,,,,,,"100","U,0828, ","5145","1",,,,,"53.1","U","65.6","U","40.6","U"
"USC00268989","WELLS 7 NNE, NV US","41.18434","-114.88018","1777.3","2019",,,,,,,,,,,,,,,,,,,,,,,,,,,,
"USC00264935","MCDERMITT, NV US","41.9954","-117.7201","1350.3","2019","297",,"       29",,"        16","7","-10","7,1030, ","10"," ,7,1201,+","7.0"," ,7,1127, ","0.59"," ,7,0214, ","97","7,0806,+","6979","0","9.69"," ,7","39.1"," ,7","46.5","7","62.5","7","30.5","7"
"US1NVWH0100","RENO 22.2 NNE, NV US","39.829434","-119.644547","1306.7","2019",,,,,,,,,,,,,"0.60"," ,N,0117, ",,,,,"10.20"," ,N",,,,,,,,
"USC00264016","JACKPOT, NV US","41.9829","-114.6586","1595.0","2019","267",,,,,,"-13","7,0102,+",,,,,,,"100","7,0723, ","7838","5",,,,,"44.3","7","59.2","7","29.3","7"
"USC00263960","INCLINE VILLAGE, NV US","39.2472","-119.9419","1937.3","2019","25",,,,"        32","7","4","7,0222, ",,,"12.0"," ,7,0215,+","2.10"," ,7,0214, ","85","7,0828, ",,,"24.64"," ,7","132.2"," ,7","44.0","7","53.5","7","34.5","7"
"USS0019K04S","MARLETTE LAKE, NV US","39.16","-119.9","2401.8","2019","2",,"      210",,,,"-12","T,0207, ","118"," ,T,0327, ",,,"2.00"," ,T,0213,+","78","T,0827, ","8344","8","47.07"," ,T",,,"40.9","T","50.5","T","31.4","T"
"USS0015N09S","BRISTLECONE TRAIL, NV US","36.32","-115.7","2736.8","2019","6",,"      162",,,,"-3","T,0219, ","61"," ,T,0306, ",,,"2.00"," ,T,0214, ","78","T,0729, ","8115","3","33.35"," ,T",,,"42.4","T","52.8","T","32.1","T"
"USS0014K10S","KALAMAZOO, NV US","39.56","-114.63","2360.4","2019","41",,"      160",,,,"-5","T,0101, ","48"," ,T,0310, ",,,"1.20"," ,T,0928, ","85","T,0722, ","8331","2","26.77"," ,T",,,"41.6","T","52.5","T","30.7","T"
"USC00266791","RENO WEATHER FORECAST OFFICE, NV US","39.5683","-119.7956","1520.0","2019","956",,"       30",,"        11","7","16","7,0222,+","8"," ,7,0106, ","7.7"," ,7,0106, ","0.94"," ,7,0214, ","98","7,0828,+","4957","0","11.71"," ,7","44.8"," ,7","53.5","7","65.2","7","41.7","7"
"USC00264391","LAMOILLE 2 N, NV US","40.7441","-115.4856","1752.6","2019","49",,,,,,"-19","7,0222, ",,,,,,,"90","7,0805,+","8891","6",,,,,"40.8","7","56.4","7","25.2","7"
"USR0000NCUR","CURRANT CREEK NEVADA, NV US","38.7586","-115.4128","1700.8","2019","979",,,,,,"6","U,0101, ",,,,,,,"96","U,0805,+","5647","5",,,,,"51.8","U","63.2","U","40.4","U"
"USR0000NCED","CEDAR PASS NEVADA, NV US","39.7569","-114.1658","2190.0","2019","498",,,,,,"-3","U,0101, ",,,,,,,"93","U,0722, ","7178","8",,,,,"46.2","U","57.5","U","34.9","U"
"USC00268186","TOPAZ LAKE, NV US","38.7395","-119.518","1613.0","2019","707",,"       27",,"        23","7","4","7,0219,+","10"," ,7,0222, ","7.5"," ,7,0210, ","1.15"," ,7,0307, ","98","7,0825,+","5353","8","8.00"," ,7","53.0"," ,7","51.5","7","66.3","7","36.6","7"
"US1NVCK0007","LAS VEGAS 7.8 SW, NV US","36.097164","-115.264185","744.9","2019",,,,,,,,,,,,,"1.08"," ,N,0215, ",,,,,"8.33"," ,N",,,,,,,,
"USC00268761","VIRGINIA CITY, NV US","39.3128","-119.6483","1932.4","2019",,,"       60",,"        18","7","8","7,0222, ","32"," ,7,0221,+","14.0"," ,7,0205, ",,,,,,,,,"91.7"," ,7",,,,,"40.2","7"
"USS0015H20S","MERRITT MOUNTAIN, NV US","41.89","-115.86","2133.6","2019",,,"      149",,,,,,"44"," ,T,0220, ",,,"1.10"," ,T,0527, ",,,,,"22.76"," ,T",,,,,,,,
"US1NVCK0002","LAS VEGAS 2.2 SW, NV US","36.183314","-115.250273","736.1","2019",,,,,,,,,,,,,"1.30"," ,N,0215, ",,,,,"7.26"," ,N",,,,,,,,
"USC00265818","OROVADA 3 W, NV US","41.5684","-117.8388","1280.2","2019","512",,"        7",,"         7","7","-5","7,1030, ","5"," ,7,0211,+","5.0"," ,7,0210, ","0.84"," ,7,0214, ","103","7,0721, ","6311","9","11.17"," ,7","12.4"," ,7","49.0","7","65.6","7","32.4","7"
"USS0015L01S","WHITE RIVER NV, NV US","38.95","-115.38","2267.7","2019","9",,"      144",,,,"-11","T,0207, ","22"," ,T,0323,+",,,"1.60"," ,T,0205, ","85","T,0722, ","8203","2","24.74"," ,T",,,"41.2","T","55.4","T","27.0","T"
"USR0000NSTA","STAG MOUNTAIN NEVADA, NV US","41.5178","-115.3928","2069.6","2019","288",,,,,,"-1","U,0207, ",,,,,,,"91","U,0804, ","8016","5",,,,,"43.3","U","53.9","U","32.7","U"
"USS0015K04S","VACARRO SPRING, NV US","39.45","-115.98","2388.4","2019","162",,"      165",,,,"3","T,0207, ","50"," ,T,0310, ",,,"1.20"," ,T,1204,+","84","T,0722, ","7729","1","32.26"," ,T",,,"43.7","T","52.4","T","34.9","T"
"USW00003170","EUREKA AIRPORT, NV US","39.6013","-116.0055","1809.3","2019","307",,,,,,"-14","W,0207, ",,,,,"0.80"," ,W,0321, ","95","W,0821,+","7579","5","13.69"," ,W",,,"44.8","W","60.6","W","29.0","W"
"USC00264037","JARBIDGE, NV US","41.87543","-115.43082","1883.7","2019","125",,,,"        23","7","-4","7,0101, ",,,"9.0"," ,7,1214, ","1.01"," ,7,1214, ","97","7,0807, ","7837","0","24.26"," ,7","73.3"," ,7","43.2","7","55.7","7","30.8","7"
"USC00264950","MCGILL, NV US","39.4136","-114.7734","1911.1","2019",,,,,,,,,,,,,,,,,"6946","9",,,,,,,,,,
"US1NVWP0004","ELY 25.0 SSW, NV US","38.91694444","-115.0619444","1724.3","2019",,,,,,,,,,,,,"1.07"," ,N,0322, ",,,,,"17.92"," ,N",,,,,,,,
"USR0000NTEX","TEXAS SPRINGS NEVADA, NV US","41.8017","-118.4508","1755.6","2019","510",,,,,,"9","U,0222,+",,,,,,,"90","U,0828,+","6990","6",,,,,"46.6","U","54.5","U","38.8","U"
"US1NVCK0018","PARADISE 3.9 WSW, NV US","36.057962","-115.196886","709.0","2019",,,,,,,,,,,,,,,,,,,"7.74"," ,N",,,,,,,,
"USC00269168","WINNEMUCCA 3 SSW, NV US","40.9386","-117.7513","1327.4","2019","567",,"       29",,"        12","7","-1","7,0207, ","5"," ,7,0210, ","5.1"," ,7,0210, ","0.66"," ,7,0214, ","99","7,0723, ","6391","4","10.24"," ,7","32.3"," ,7","48.8","7","63.4","7","34.1","7"
"USW00004139","DENIO 52 WSW, NV US","41.8484","-119.6357","1981.2","2019","64",,,,,,"0","R,0222, ",,,,,"1.12"," ,R,1213, ","89","R,0828, ","8467","9","18.59"," ,R",,,"41.4","R","52.0","R","30.7","R"
"USR0000NCCP","CATTLE CAMP NEVADA, NV US","38.9036","-114.8142","2225.0","2019","137",,,,,,"-15","U,0218, ",,,,,,,"91","U,0722, ","7993","5",,,,,"42.5","U","57.9","U","27.0","U"
"USR0000NFIS","FISH SPRINGS NEVADA, NV US","38.9361","-119.6519","1560.6","2019","648",,,,,,"7","U,0222, ",,,,,,,"95","U,0815, ","5259","9",,,,,"51.2","U","64.0","U","38.5","U"
"USR0000NDES","DESATOYA MOUNTAIN NEVADA, NV US","39.3011","-117.5844","1889.8","2019","231",,,,,,"-11","U,0222, ",,,,,,,"95","U,0828,+","7252","1",,,,,"45.5","U","61.2","U","29.7","U"
"USS0017H02S","BUCKSKIN LOWER, NV US","41.75","-117.53","2107.7","2019","88",,"      154",,,,"-1","T,0206, ","51"," ,T,0313, ",,,"1.00"," ,T,0409, ","86","T,0828, ","8066","1","27.25"," ,T",,,"42.7","T","53.3","T","32.1","T"
"US1NVCK0017","MESQUITE 1.5 S, NV US","36.780792","-114.104814","480.1","2019",,,,,,,,,,,,,"1.58"," ,N,1120, ",,,,,"13.18"," ,N",,,,,,,,
"USC00260800","BEOWAWE 49 S U OF N RANCH, NV US","39.9004","-116.5876","1749.6","2019",,,"       18",,"         9","7",,,"7"," ,7,0207,+","7.0"," ,7,0205, ","1.25"," ,7,0206, ",,,,,"8.51"," ,7","32.5"," ,7",,,,,,
"USS0015K03S","DIAMOND PEAK, NV US","39.56","-115.84","2448.5","2019",,,"      164",,,,,,"33"," ,T,0323, ",,,"1.70"," ,T,0121, ",,,"8271","8","29.03"," ,T",,,,,,,,
"USR0000NDEA","DEAD CAMEL MOUNTAIN NEVADA, NV US","39.2636","-118.9433","1368.6","2019","937",,,,,,"4","U,1030, ",,,,,,,"99","U,0728, ","5310","0",,,,,"52.6","U","65.9","U","39.2","U"
"USC00263512","HAWTHORNE, NV US","38.5155","-118.6208","1341.1","2019","1120",,"        4",,"         3","7","12","7,0211, ","2"," ,7,0217,+","2.0"," ,7,0217, ","0.51"," ,7,0214, ","102","7,0721, ",,,"4.37"," ,7","4.9"," ,7","55.7","7","68.6","7","42.7","7"
"USW00003160","MERCURY DESERT ROCK AIRPORT, NV US","36.6206","-116.0278","984.5","2019","2181",,"        0",,"         0","W","21","W,0223, ","0","T,W,1127, ","0.0","T,W,1127,+","1.18"," ,W,0306, ","108","W,0729, ","2935","4","7.50"," ,W","0.0","T,W","62.5","W","75.5","W","49.5","W"
"USS0015J06S","LAMOILLE NUMBER 3, NV US","40.65","-115.38","2347.0","2019","24",,"      183",,,,"-5","T,0101, ","70"," ,T,0308, ",,,"1.80"," ,T,0421, ","82","T,0722, ","8384","0","37.24"," ,T",,,"41.4","T","51.3","T","31.5","T"
"USR0000NBAR","BARREL SPRINGS NEVADA, NV US","41.9111","-119.9389","1778.5","2019","180",,,,,,"-5","U,0222, ",,,,,,,"90","U,0828, ","7573","3",,,,,"44.3","U","55.7","U","33.0","U"
"USS0016H11S","SNOWSTORM MOUNTAIN, NV US","41.34","-116.98","2261.6","2019","121",,"      171",,,,"3","T,0207, ","59"," ,T,0221, ",,,"0.90"," ,T,1213,+","85","T,0828, ","7879","1","28.07"," ,T",,,"42.8","T","50.8","T","34.8","T"
"USR0000NANT","ANTELOPE LAKE NEVADA, NV US","41.6847","-116.7644","1664.2","2019","448",,,,,,"-1","U,1030,+",,,,,,,"96","U,0806,+","7159","5",,,,,"46.4","U","58.6","U","34.1","U"
"USC00267612","SMITH 6 N, NV US","38.8822","-119.3511","1524.0","2019","593",,"        0",,"         0","7","1","7,0222, ","0"," ,7,1231,+","0.0"," ,7,1231,+","0.88"," ,7,0214, ","100","7,0722, ","5702","7","9.28"," ,7","0.0"," ,7","50.3","7","66.3","7","34.2","7"
"US1NVWH0144","RENO 6.8 SE, NV US","39.48238","-119.7174","1380.1","2019",,,,,,,,,,,,,"1.18"," ,N,0214, ",,,,,"12.96"," ,N",,,,,,,,
"USS0017H08S","GRANITE PEAK, NV US","41.67","-117.57","2603.9","2019","7",,"      206",,,,"2","T,0222, ","89"," ,T,0313, ",,,"1.40"," ,T,1213, ","78","T,0828, ","9164","3","36.16"," ,T",,,"39.2","T","46.4","T","32.0","T"
"USS0015J09S","GREEN MOUNTAIN, NV US","40.38","-115.53","2438.4","2019","15",,"      193",,,,"-2","T,0222, ","69"," ,T,0220,+",,,"1.40"," ,T,0410, ","80","T,0722, ","8226","1","40.98"," ,T",,,"41.7","T","50.7","T","32.8","T"
"USS0016H02S","JACK CREEK UPPER, NV US","41.55","-116.01","2209.8","2019","119",,"      188",,,,"1","T,0207, ","59"," ,T,0220, ",,,"1.40"," ,T,0517, ","85","T,0806, ","8074","6","30.95"," ,T",,,"42.6","T","51.8","T","33.4","T"
"USS0014K02S","BERRY CREEK, NV US","39.32","-114.62","2773.7","2019","0",,"      220",,,,"-8","T,0207, ","82"," ,T,0421, ",,,"1.70"," ,T,0421, ","76","T,0722, ","9941","0","37.54"," ,T",,,"37.1","T","46.9","T","27.2","T"
"USS0019K08S","BIG MEADOW, NV US","39.46","-119.94","2514.3","2019","1",,"      203",,,,"-3","T,0222, ","116"," ,T,0217, ",,,"2.40"," ,T,0117, ","77","T,0827, ","8367","6","45.65"," ,T",,,"40.9","T","50.0","T","31.9","T"
"USC00269229","YERINGTON, NV US","38.9991","-119.1575","1335.0","2019",,,"        1",,"         0","7",,,"1"," ,7,1129, ","0.5"," ,7,1129, ","0.50"," ,7,1120,+",,,,,"6.76"," ,7","0.5"," ,7",,,,,,
"USR0000NCRA","CRANE SPRINGS NEVADA, NV US","40.4597","-115.85","1950.7","2019","489",,,,,,"0","U,0222, ",,,,,,,"93","U,0828,+","7212","5",,,,,"46.1","U","57.0","U","35.1","U"
"USC00266514","RACHEL, NV US","37.6467","-115.746","1469.1","2019","755",,"       11",,"         4","7","4","7,1130,+","8"," ,7,1129, ","6.2"," ,7,1129, ","1.90"," ,7,0524, ","99","7,0829,+",,,"12.17"," ,7","15.5"," ,7","51.7","7","68.2","7","35.2","7"
"USS0017J02S","GOLCONDA, NV US","40.88","-117.59","2010.5","2019","252",,"      145",,,,"5","T,0222, ","38"," ,T,0221, ",,,"1.50"," ,T,0409, ","85","T,0806,+","6978","6","29.16"," ,T",,,"46.0","T","54.9","T","37.2","T"
"USR0000NCAT","CATNIP MOUNTAIN NEVADA, NV US","41.92","-119.495","1749.6","2019","240",,,,,,"0","U,1128, ",,,,,,,"92","U,0828, ","7441","0",,,,,"44.9","U","56.7","U","33.0","U"
"USR0000NKAN","KANE SPRINGS NEVADA, NV US","37.2506","-114.7075","1399.0","2019","2128",,,,,,"21","U,0102, ",,,,,,,"101","U,0729, ","3424","4",,,,,"61.1","U","68.9","U","53.3","U"
"US1NVWH0019","RENO 9.0 W, NV US","39.518429","-119.9935","1493.5","2019",,,,,,,,,,,,,"2.42"," ,N,0214, ",,,,,"27.19"," ,N",,,,,,,,
"USS0015L02S","CORDUROY FLAT, NV US","39.0","-115.42","2657.9","2019","67",,"      167",,,,"2","T,0219, ","24"," ,T,0323, ",,,"1.20"," ,T,0208, ","77","T,0825, ","7832","2","25.57"," ,T",,,"42.6","T","49.5","T","35.6","T"
"USC00264349","LAHONTAN DAM, NV US","39.4688","-119.0644","1270.1","2019","1314",,,,"         0","7","12","7,1029, ",,,"0.0"," ,7,1231,+","1.21"," ,7,0214, ","102","7,0815, ","4539","5","8.76"," ,7","0.0"," ,7","55.8","7","68.6","7","43.0","7"
"US1NVWH0011","RENO 2.4 SSW, NV US","39.508411","-119.844181","1393.9","2019",,,,,,,,,,,,,"1.18"," ,N,0214, ",,,,,"14.54"," ,N",,,,,,,,
"USR0000NROC","ROCK SPRING CREEK NEVADA, NV US","41.6431","-114.4375","1645.9","2019","268",,,,,,"-13","U,0211, ",,,,,,,"99","U,0722, ","8078","6",,,,,"43.2","U","58.6","U","27.9","U"
"USS0019K07S","MOUNT ROSE SKI AREA, NV US","39.32","-119.89","2682.5","2019","0",,"      236",,,,"-1","T,0222, ","178"," ,T,0306, ",,,"4.60"," ,T,0213, ","74","T,0827, ","8775","0","80.66"," ,T",,,"39.8","T","47.8","T","31.8","T"
"USC00264341","LAGES, NV US","40.0634","-114.6148","1816.6","2019","403",,,,"        21","7","-5","7,0223,+",,,"5.0"," ,7,0310,+","0.83"," ,7,0929, ","96","7,0722, ","7092","0","15.10"," ,7","51.1"," ,7","46.1","7","60.7","7","31.6","7"
"USR0000NIMM","IMMIGRATION WASH NEVADA, NV US","37.9214","-114.1597","1898.9","2019","694",,,,,,"6","U,0206, ",,,,,,,"94","U,0805, ","6009","6",,,,,"49.9","U","62.2","U","37.6","U"
"USS0014K01S","BIRD CREEK, NV US","39.46","-114.65","2286.0","2019","147",,"      147",,,,"-1","T,0101, ","24"," ,T,0310, ",,,"1.60"," ,T,0421, ","85","T,0722, ","7493","7","22.04"," ,T",,,"44.3","T","55.3","T","33.4","T"
"USC00267175","RUTH, NV US","39.2763","-114.9911","2090.3","2019","103",,"       99",,"        33","7","-14","7,0223,+","14"," ,7,1202,+","7.5"," ,7,1128, ","1.00"," ,7,0522, ","88","7,0826,+","8630","6","15.13"," ,7","68.6"," ,7","41.2","7","56.6","7","25.7","7"
"USC00264480","LAUGHLIN, NV US","35.1691","-114.5805","184.4","2019","4172",,"        0",,"         0","7","31","7,0105,+","0"," ,7,1231,+","0.0"," ,7,1231,+","1.86"," ,7,1120, ","118","7,0806, ","1217","4","10.23"," ,7","0.0"," ,7","73.1","7","85.5","7","60.7","7"
"USR0000NSPM","SPRUCE MOUNTAIN NEVADA, NV US","40.4403","-114.8111","1859.3","2019","509",,,,,,"-1","U,0222, ",,,,,,,"95","U,0722, ","7074","2",,,,,"46.3","U","58.3","U","34.4","U"
"USS0016H05S","LAUREL DRAW, NV US","41.78","-116.03","2041.2","2019","71",,"      151",,,,"-4","T,0101, ","49"," ,T,0220, ",,,"1.50"," ,T,0409, ","87","T,0806,+","8139","5","30.17"," ,T",,,"42.5","T","54.2","T","30.7","T"
"USR0000NALL","ALLIGATOR RIDGE NEVADA, NV US","39.7369","-115.5181","1999.5","2019","538",,,,,,"3","U,0222,+",,,,,,,"93","U,0722, ","6934","4",,,,,"47.0","U","58.3","U","35.8","U"
"US1NVCC0014","CARSON CITY 4.4 N, NV US","39.211274","-119.739955","1481.6","2019",,,,,,,,,,,,,"1.80"," ,N,0214, ",,,,,"16.63"," ,N",,,,,,,,
"USS0015H24S","DRAW CREEK, NV US","41.66","-115.32","2194.6","2019","79",,"      165",,,,"-1","T,0101, ","53"," ,T,0217, ",,,"1.60"," ,T,0213, ","84","T,0805,+","8290","6","27.63"," ,T",,,"42.0","T","51.6","T","32.3","T"
"USC00260438","ARTHUR 4 NW, NV US","40.7808","-115.1853","1905.0","2019","140",,,,,,"-6","7,0222,+",,,,,,,"90","7,0804, ","8114","0",,,,,"42.7","7","55.5","7","30.0","7"
"US1NVNY0010","ROUND MOUNTAIN 5.4 W, NV US","38.69786","-117.165","1762.7","2019",,,,,,,,,,,,,"0.82"," ,N,1128, ",,,,,"9.98"," ,N",,,,,,,,
"US1NVWH0002","RENO 1.4 NNE, NV US","39.557312","-119.81439","1494.1","2019",,,"       33",,"        17","N",,,"8"," ,N,0210, ","8.8"," ,N,0210, ","1.14"," ,N,0214, ",,,,,"14.38"," ,N","56.3"," ,N",,,,,,
"USS0015N11S","RAINBOW CANYON, NV US","36.25","-115.63","2414.0","2019","167",,"      158",,,,"8","T,0219, ","56"," ,T,0220, ",,,"3.50"," ,T,0306,+","80","T,0827, ","6200","5","46.09"," ,T",,,"48.0","T","55.8","T","40.2","T"
"US1NVNY0012","PAHRUMP 2.9 SSW, NV US","36.21265","-116.03545","785.8","2019",,,,,,,,,,,,,"0.81"," ,N,0510, ",,,,,"7.22"," ,N",,,,,,,,
"USC00260795","BEOWAWE, NV US","40.5903","-116.4749","1432.6","2019","496",,,,,,"-8","7,0101, ",,,,,,,"101","7,0721, ","6554","1",,,,,"48.6","7","65.2","7","31.9","7"
"USC00264236","KINGS RIVER VALLEY OROVADA 26 NW, NV US","41.7437","-118.2259","1292.4","2019",,,,,,,,,,,,,,,,,"6800","9",,,,,,,,,,
"USR0000NSPG","SPRING GULCH NEVADA, NV US","40.5931","-114.2028","1667.3","2019","867",,,,,,"8","U,0102,+",,,,,,,"98","U,0806,+","6410","0",,,,,"49.1","U","58.9","U","39.3","U"
"USR0000NDRY","DRY CANYON NEVADA, NV US","41.4917","-119.1167","1493.5","2019","627",,,,,,"5","U,0210, ",,,,,,,"97","U,0828, ","6224","0",,,,,"49.1","U","61.1","U","37.2","U"
"USC00267188","RYNDON, NV US","40.9711","-115.61355","1611.8","2019",,,,,,,,,,,,,,,,,,,,,,,,,,,,
"USC00269005","WENDOVER 16 NW, NV US","40.98482","-114.16961","1471.6","2019","718",,"       55",,"        12","7","-11","7,0102, ","9"," ,7,0218, ","9.0"," ,7,0218, ","1.77"," ,7,0929, ","101","7,0807, ","7236","2","12.72"," ,7","28.4"," ,7","46.7","7","60.3","7","33.2","7"
"USC00267620","SMOKY VALLEY CARVERS, NV US","38.784","-117.1739","1721.2","2019","589",,,,"        11","7","-3","7,1130, ",,,"6.2"," ,7,1127, ","0.72"," ,7,0320, ","97","7,0829,+","6064","7","6.04"," ,7","28.1"," ,7","48.9","7","63.7","7","34.1","7"
"USS0016H04S","JACKS PEAK, NV US","41.53","-116.01","2566.4","2019","52",,"      209",,,,"1","T,0207, ","80"," ,T,0413, ",,,"1.40"," ,T,0517, ","78","T,0806, ","9030","5","38.84"," ,T",,,"39.7","T","46.5","T","33.0","T"
"US1NVCC0021","CARSON CITY 2.1 NW, NV US","39.166281","-119.774429","1442.9","2019",,,"       39",,"        16","N",,,"14"," ,N,0210, ","9.0"," ,N,0205, ","1.36"," ,N,0214, ",,,,,"18.52"," ,N","57.5"," ,N",,,,,,
"US1NVWH0115","RENO 3.4 WSW, NV US","39.522443","-119.882763","1482.9","2019",,,,,"        16","N",,,,,"11.0"," ,N,0210, ","1.32"," ,N,0107, ",,,,,"16.38"," ,N","55.0"," ,N",,,,,,
"USC00263957","IMLAY, NV US","40.6564","-118.1631","1298.4","2019","587",,"       15",,"         9","7","2","7,1226,+","4"," ,7,0209, ","4.5"," ,7,0209, ","0.70"," ,7,0613, ","99","7,0829,+","5974","2","12.92"," ,7","22.2"," ,7","49.5","7","64.0","7","35.0","7"
"USR0000NCOI","COILS CREEK NEVADA, NV US","39.8333","-116.4917","2072.6","2019","259",,,,,,"-4","U,0207, ",,,,,,,"91","U,0901,+","7706","2",,,,,"44.1","U","57.1","U","31.0","U"
"USS0015N10S","LEE CANYON, NV US","36.31","-115.68","2629.2","2019","14",,"      170",,,,"0","T,0219, ","59"," ,T,0321, ",,,"2.80"," ,T,0214, ","78","T,0831,+","7771","3","37.46"," ,T",,,"43.5","T","53.1","T","34.0","T"
"USR0000NCOM","COMBS CANYON NEVADA, NV US","39.3814","-116.175","2008.6","2019","428",,,,,,"-7","U,0222, ",,,,,,,"93","U,0805,+","6951","9",,,,,"46.2","U","59.3","U","33.1","U"
"USS0017H07S","LAMANCE CREEK, NV US","41.52","-117.63","1828.8","2019","362",,"      140",,,,"11","T,0207, ","42"," ,T,0220, ",,,"1.60"," ,T,1213, ","88","T,0828, ","6400","8","31.35"," ,T",,,"47.9","T","56.1","T","39.7","T"
"USS0016H03S","MIDAS, NV US","41.27","-116.8","2133.6","2019","160",,"      143",,,,"1","T,0207, ","34"," ,T,0216,+",,,"1.20"," ,T,0613, ","86","T,0805, ","7297","7","18.84"," ,T",,,"44.3","T","53.5","T","35.1","T"
"USC00267192","RYE PATCH DAM, NV US","40.4661","-118.3047","1260.3","2019","681",,"        0",,"         0","7","4","7,1031,+","0"," ,7,1231,+","0.0"," ,7,1231,+","0.67"," ,7,0521, ","104","7,0828, ","5860","8","9.93"," ,7","0.0"," ,7","50.3","7","66.4","7","34.2","7"
"USC00268160","TONOPAH, NV US","38.0694","-117.2355","1831.8","2019","834",,"       36",,"        14","7","4","7,0211, ","7"," ,7,1205, ","6.4"," ,7,1121, ","0.67"," ,7,1205, ","96","7,0715, ","6034","1","7.18"," ,7","49.5"," ,7","50.2","7","61.9","7","38.6","7"
"USR0000NBLU","BLUEWING MOUNTAIN NEVADA, NV US","40.5017","-119.1217","1392.9","2019","660",,,,,,"4","U,1216, ",,,,,,,"99","U,0828, ","5938","7",,,,,"49.9","U","63.3","U","36.5","U"
"USS0016H07S","TOE JAM, NV US","41.32","-116.34","2347.0","2019","0",,"      178",,,,"-5","T,0222, ","70"," ,T,0313,+",,,"1.10"," ,T,0517,+","81","T,0828,+","9197","6","33.56"," ,T",,,"39.0","T","49.6","T","28.5","T"
"US1NVCK0065","LAS VEGAS 5.8 S, NV US","36.122203","-115.236706","712.3","2019",,,,,,,,,,,,,"0.81"," ,N,0215, ",,,,,"7.61"," ,N",,,,,,,,
"USW00023169","MCCARRAN INTERNATIONAL AIRPORT, NV US","36.0719","-115.1634","664.5","2019","3596",,"        0",,"         0","W","28","W,0102, ","0"," ,W,1231,+","0.5"," ,W,0220, ","1.11"," ,W,0214, ","113","W,0805, ","1837","7","6.89"," ,W","0.8"," ,W","69.5","W","79.7","W","59.3","W"
"USS0015H03S","SEVENTYSIX CREEK, NV US","41.74","-115.47","2164.1","2019","44",,"      165",,,,"-2","T,0101, ","57"," ,T,0220, ",,,"1.70"," ,T,0213, ","83","T,0805,+","8570","3","27.13"," ,T",,,"40.9","T","50.4","T","31.4","T"
"USR0000NMAT","MATHER NEVADA, NV US","39.0228","-114.2722","2824.9","2019","155",,,,,,"-3","U,0207, ",,,,,,,"82","U,0821, ","8344","6",,,,,"42.0","U","51.5","U","32.5","U"
"USC00267123","RUBY LAKE NWR, NV US","40.2022","-115.4931","1834.6","2019","378",,,,,,"-7","7,0223, ",,,,,"1.00"," ,7,1214, ","94","7,0723, ",,,"17.35"," ,7",,,"45.6","7","59.2","7","31.9","7"
"US1NVLY0019","SILVER SPRINGS 2.9 SSE, NV US","39.34342","-119.19025","1282.3","2019",,,,,,,,,,,,,"0.40"," ,N,0321, ",,,,,"5.77"," ,N",,,,,,,,
"USS0016H06S","COLUMBIA BASIN, NV US","41.67","-116.07","2026.9","2019","82",,"      149",,,,"-3","T,0101, ","49"," ,T,0220, ",,,"1.40"," ,T,0517, ","88","T,0722, ","7778","9","27.06"," ,T",,,"43.3","T","54.2","T","32.5","T"
"US1NVCK0076","NORTH LAS VEGAS 4.4 SW, NV US","36.22638","-115.20485","677.9","2019",,,,,,,,,,,,,"1.24"," ,N,0215, ",,,,,"8.43"," ,N",,,,,,,,
"US1NVCK0077","HENDERSON 9.8 SW, NV US","35.9325","-115.1246","819.9","2019",,,,,,,,,,,,,"0.96"," ,N,0215, ",,,,,"9.71"," ,N",,,,,,,,
"USS0015H01S","BEAR CREEK, NV US","41.83","-115.45","2450.6","2019","5",,"      210",,,,"-12","T,0101, ","76"," ,T,0220, ",,,"1.90"," ,T,0517, ","83","T,0821, ","9382","2","37.96"," ,T",,,"38.7","T","50.8","T","26.5","T"
"USC00260507","AUSTIN NUMBER 2, NV US","39.493","-117.0675","2066.5","2019",,,,,,,,,,,,,,,,,"6639","5",,,,,,,,,,
"USS0015H14S","POLE CREEK RANGER STATION, NV US","41.87","-115.25","2539.0","2019","7",,,,,,"-6","T,0101, ",,,,,"1.40"," ,T,0527, ","79","T,0722, ","9578","4","27.34"," ,T",,,"38.0","T","46.0","T","30.0","T"
"USS0017K04S","BIG CREEK SUM, NV US","39.29","-117.11","2650.2","2019","64",,"      201",,,,"0","T,0219, ","80"," ,T,0412, ",,,"1.20"," ,T,0411, ","81","T,0722, ","7887","6","32.35"," ,T",,,"42.9","T","51.4","T","34.3","T"
"USC00262243","DESERT NATIONAL WILDLIFE REFUGE, NV US","36.4381","-115.3601","888.2","2019","2044",,"        0",,"         1","7","18","7,0103, ","0"," ,7,1231,+","1.0"," ,7,0221, ","0.98"," ,7,0430, ","109","7,0730, ","3088","6","7.31"," ,7","1.0"," ,7","61.8","7","76.6","7","47.0","7"
"USS0014K05S","WARD MOUNTAIN, NV US","39.13","-114.96","2804.2","2019","3",,"      203",,,,"0","T,0219, ","66"," ,T,0323, ",,,"1.60"," ,T,0421, ","77","T,0825, ","8726","0","35.06"," ,T",,,"40.3","T","48.5","T","32.2","T"
"USC00265191","MINDEN, NV US","38.9547","-119.7758","1435.3","2019","397",,"        3",,"        17","7","2","7,0222,+","5"," ,7,0116, ","7.0"," ,7,0210, ","1.30"," ,7,0214, ","97","7,0816,+","5928","5","10.56"," ,7","49.0"," ,7","48.8","7","65.6","7","32.1","7"
"USC00265194","MINDEN 6 NE, NV US","39.0199","-119.7088","1487.4","2019",,,,,,,,,,,,,,,,,"5302","5",,,,,,,,,,
"USR0000NLON","LONG HOLLOW NEVADA, NV US","41.5386","-116.2175","1773.9","2019","428",,,,,,"1","U,0101, ",,,,,,,"96","U,0805, ","7144","2",,,,,"46.3","U","57.6","U","34.9","U"
"USC00265890","PAHRUMP 4 NW, NV US","36.2615","-116.0563","784.3","2019","2017",,"        0",,"         0","7","14","7,0103,+","0"," ,7,1231,+","0.0"," ,7,1231,+","0.65"," ,7,0510,+","109","7,0730, ","3160","8","7.80"," ,7","0.0"," ,7","61.3","7","76.8","7","45.9","7"
"USC00267953","SUTCLIFFE, NV US","39.9508","-119.5986","1188.7","2019","873",,"        1",,"         2","7","21","7,0222,+","1"," ,7,0213, ","2.0"," ,7,0211, ","1.17"," ,7,0117, ","93","7,0816,+","4845","5","10.03"," ,7","3.5"," ,7","53.5","7","62.2","7","44.9","7"
"USW00024119","BATTLE MOUNTAIN 4 SE, NV US","40.6118","-116.8917","1373.1","2019","941",,"       20",,"         7","7","1","7,0207,+","3"," ,7,1128,+","3.0"," ,7,1128,+","0.68"," ,7,0522, ","105","7,0806, ","5016","7","11.53"," ,7","18.2"," ,7","53.9","7","69.8","7","37.9","7"
"USS0015J22S","TENT MOUNTAIN LOWER, NV US","40.98","-115.17","2133.6","2019","284",,"      154",,,,"5","T,0101, ","50"," ,T,0309, ",,,"1.30"," ,T,0204, ","87","T,0722, ","7097","8","28.17"," ,T",,,"45.4","T","53.2","T","37.5","T"
"USC00264439","LAS VEGAS WEATHER FORECAST OFFICE, NV US","36.0469","-115.1848","693.4","2019","3413",,"        1",,"         0","7","22","7,0102, ","1"," ,7,0220, ","0.5"," ,7,0220, ","1.15"," ,7,0214, ","114","7,0729, ","2167","1","7.93"," ,7","0.8"," ,7","68.3","7","80.0","7","56.6","7"
"USS0014K08S","CAVE MOUNTAIN, NV US","39.16","-114.61","3225.7","2019","0",,"      216",,,,"-12","T,0219, ","65"," ,T,0416, ",,,"1.00"," ,T,1127,+","72","T,0722, ","10601","4","30.54"," ,T",,,"35.3","T","42.5","T","28.2","T"
"US1NVDG0002","MINDEN 6.0 NNE, NV US","39.038562","-119.721279","1467.9","2019",,,,,,,,,,,,,"1.41"," ,N,0214, ",,,,,"12.41"," ,N",,,,,,,,
"USC00263340","GREAT BASIN NATIONAL PARK, NV US","39.0055","-114.2205","2087.9","2019",,,,,,,,,,,,,,,,,,,,,,,,,,,,
"USW00023153","TONOPAH AIRPORT, NV US","38.0511","-117.0902","1644.4","2019","830",,,,,,"3","W,1130, ",,,,,"0.81"," ,W,1204, ","98","W,0804,+","5318","6","7.44"," ,W",,,"52.0","W","65.9","W","38.2","W"
"USS0016H08S","FAWN CREEK, NV US","41.82","-116.1","2133.6","2019","168",,"      176",,,,"3","T,0207, ","69"," ,T,0220, ",,,"1.90"," ,T,0517, ","84","T,0805, ","7930","5","38.35"," ,T",,,"43.2","T","51.3","T","35.2","T"
"USW00023154","ELY AIRPORT, NV US","39.2952","-114.8466","1908.7","2019","236",,"       94",,"        21","W","-15","W,0211, ","11"," ,W,1130, ","5.6"," ,W,1127, ","0.86"," ,W,0321, ","95","W,0722, ","7584","3","14.59"," ,W","71.5"," ,W","44.4","W","60.2","W","28.6","W"
"USW00024121","ELKO REGIONAL AIRPORT, NV US","40.8288","-115.7886","1533.1","2019","481",,"       64",,"        16","W","-7","W,0222, ","8"," ,W,0214, ","7.9"," ,W,0213, ","1.02"," ,W,0919, ","99","W,0804, ","6853","4","14.80"," ,W","48.6"," ,W","47.6","W","62.1","W","33.1","W"
"USR0000NMOR","MOREY CREEK NEVADA, NV US","41.4558","-117.6333","1676.4","2019","707",,,,,,"8","U,0207, ",,,,,,,"94","U,0806,+","6104","4",,,,,"49.7","U","59.1","U","40.2","U"
"USC00265400","MOUNT CHARLESTON FIRE STATION, NV US","36.2599","-115.645","2273.8","2019","143",,"      136",,"        28","7","-2","7,0207, ","38"," ,7,0221, ","17.1"," ,7,0221, ","3.28"," ,7,0203, ","87","7,0717, ","7009","7","37.66"," ,7","143.0"," ,7","45.6","7","58.3","7","32.9","7"
"USR0000NMOU","MOUNTAIN SPRINGS NEVADA, NV US","36.0306","-115.5167","1706.9","2019","823",,,,,,"9","U,0222, ",,,,,,,"95","U,0826,+","4794","4",,,,,"53.4","U","65.0","U","41.7","U"
"USC00262708","EUREKA, NV US","39.517","-115.9621","1959.9","2019","330",,,,"        31","7","-6","7,0221,+",,,"11.0"," ,7,1128, ","1.16"," ,7,0322, ","96","7,0723, ","7495","0","13.73"," ,7","110.2"," ,7","44.7","7","57.8","7","31.6","7"
"USW00024128","WINNEMUCCA AIRPORT, NV US","40.9017","-117.808","1309.4","2019","557",,"       28",,"        14","W","-2","W,1030, ","5"," ,W,0212,+","5.1"," ,W,0210, ","0.46"," ,W,0120, ","101","W,0828,+","6160","3","10.18"," ,W","34.0"," ,W","49.5","W","65.6","W","33.5","W"
"USC00262948","GABBS 1 NE, NV US","38.8695","-117.9231","1430.7","2019",,,,,,,,,,,,,,,,,,,,,,,,,,,,
"USS0015H04S","BIG BEND, NV US","41.76","-115.69","2042.2","2019","130",,"      150",,,,"0","T,0207, ","39"," ,T,0301,+",,,"1.00"," ,T,1212, ","87","T,0805, ","8126","3","23.44"," ,T",,,"42.7","T","52.2","T","33.2","T"
"US1NVWH0031","SPARKS 1.7 E, NV US","39.547997","-119.705151","1342.9","2019",,,,,,,,,,,,,"1.13"," ,N,0214, ",,,,,"12.88"," ,N",,,,,,,,
"USC00263114","GIBBS RANCH JARBIDGE 24 SE, NV US","41.5697","-115.2111","1816.6","2019","92",,"      113",,"        18","7","4","7,0102, ","25"," ,7,0214, ","9.2"," ,7,0214, ","1.43"," ,7,0214, ","92","7,0806,+","7755","2","15.37"," ,7","56.6"," ,7","43.8","7","57.1","7","30.4","7"
"USS0014K07S","SILVER CREEK NV, NV US","39.23","-114.24","2438.4","2019","58",,"      165",,,,"-4","T,0207, ","36"," ,T,0323, ",,,"1.30"," ,T,0421, ","83","T,0722, ","7974","8","18.95"," ,T",,,"41.9","T","52.2","T","31.5","T"
"USS0014L04S","WHEELER PEAK, NV US","39.01","-114.31","3084.6","2019","0",,"      224",,,,"-12","T,0218, ","80"," ,T,0310, ",,,"1.70"," ,T,0117, ","74","T,0722, ","10333","4","42.74"," ,T",,,"36.2","T","45.8","T","26.6","T"
"USS0016J01S","LEWIS PEAK, NV US","40.36","-116.86","2255.5","2019","145",,"      164",,,,"0","T,0101, ","55"," ,T,0312, ",,,"1.40"," ,T,1213, ","85","T,0828, ","7527","7","31.16"," ,T",,,"44.2","T","53.4","T","35.0","T"
"US1NVCK0029","HENDERSON 4.7 NE, NV US","36.080182","-114.939676","514.2","2019",,,,,,,,,,,,,"0.99"," ,N,1120, ",,,,,"8.37"," ,N",,,,,,,,
"USC00266242","PINE VALLEY CARLIN 20 S, NV US","40.4369","-116.119","1577.6","2019","173",,"       27",,"        12","7","-20","7,0207, ","6"," ,7,0217,+","5.0"," ,7,0205, ","0.68"," ,7,0121, ","101","7,0714, ","8072","3","12.86"," ,7","23.0"," ,7","43.6","7","62.2","7","25.1","7"
"USC00267697","SPARKS, NV US","39.5558","-119.7333","1328.0","2019","707",,"       12",,"         6","7","10","7,0211, ","4"," ,7,0107, ","5.2"," ,7,0210, ","1.35"," ,7,0214, ","98","7,0815, ","4990","1","10.97"," ,7","17.4"," ,7","52.2","7","66.2","7","38.1","7"
"USW00024172","LOVELOCK DERBY FIELD AIRPORT, NV US","40.0681","-118.5692","1189.3","2019","774",,,,,,"5","W,1030, ",,,,,"0.41"," ,W,0213, ","101","W,0728, ","5838","2","6.33"," ,W",,,"51.3","W","66.7","W","35.8","W"
"USS0015J01S","DORSEY BASIN, NV US","40.89","-115.2","2468.9","2019","1",,"      196",,,,"-9","T,0222, ","69"," ,T,0220, ",,,"1.70"," ,T,0213, ","80","T,0804, ","9427","1","43.19"," ,T",,,"38.4","T","48.9","T","27.9","T"
"USS0015H19S","STAG MOUNTAIN, NV US","41.41","-115.45","2377.4","2019","105",,"      149",,,,"4","T,0101, ","34"," ,T,0312, ",,,"0.70"," ,T,0928,+","83","T,0804, ","8240","0","17.85"," ,T",,,"41.7","T","49.0","T","34.5","T"
"USW00093102","FALLON NAAS, NV US","39.41667","-118.71667","1199.1","2019",,,,,,,,,,,,,,,,,,,,,,,,,,,,
"USR0000NFOX","FOX MOUNTAIN NEVADA, NV US","41.0061","-119.5681","2100.1","2019","180",,,,,,"5","U,0210, ",,,,,,,"89","U,0828, ","7726","4",,,,,"43.7","U","52.9","U","34.4","U"
"USR0000NGAL","GALENA NEVADA, NV US","39.3817","-119.815","1524.0","2019","472",,,,,,"7","U,0222, ",,,,,,,"92","U,0828,+","6034","4",,,,,"49.2","U","60.4","U","37.9","U"
"US1NVCK0034","HENDERSON 2.5 SE, NV US","36.006546","-114.973375","684.3","2019",,,,,,,,,,,,,"1.70"," ,N,1120, ",,,,,"8.88"," ,N",,,,,,,,
"USR0000NAUS","AUSTIN NEVADA, NV US","39.5031","-117.0814","1912.6","2019","570",,,,,,"2","U,0222, ",,,,,,,"94","U,0804,+","6332","8",,,,,"48.8","U","61.1","U","36.5","U"
"US1NVCK0039","LAS VEGAS 3.9 S, NV US","36.150146","-115.229724","705.9","2019",,,,,,,,,,,,,"1.19"," ,N,0215, ",,,,,"7.81"," ,N",,,,,,,,
"USR0000NKYL","KYLE CANYON NEVADA, NV US","36.2667","-115.6","2194.6","2019","502",,,,,,"7","U,0222,+",,,,,,,"87","U,0901,+","5831","7",,,,,"49.9","U","59.8","U","40.0","U"
"USS0015J12S","CORRAL CANYON, NV US","40.28","-115.53","2590.8","2019","36",,"      206",,,,"1","T,0101, ","83"," ,T,0412,+",,,"1.60"," ,T,0308, ","80","T,0722, ","8567","5","39.85"," ,T",,,"40.9","T","48.7","T","33.2","T"
"USR0000NCYW","COYOTE WASH NEVADA, NV US","38.2833","-114.7583","1743.5","2019","634",,,,,,"-2","U,0223, ",,,,,,,"97","U,0827,+","5878","4",,,,,"50.1","U","64.6","U","35.6","U"
"USS0014K09S","DEFIANCE MINES, NV US","39.09","-114.9","2804.2","2019",,,"      212",,,,,,"82"," ,T,0323, ",,,"3.60"," ,T,0202, ",,,"8893","8","39.83"," ,T",,,,,,,,
"USC00269072","WILD HORSE RESERVOIR, NV US","41.6358","-115.8008","1901.6","2019",,,,,,,,,,,,,,,,,,,,,,,,,,,,
"USC00261590","CATHEDRAL GORGE STATE PARK, NV US","37.8044","-114.4069","1472.2","2019","560",,"       11",,"         8","7","2","7,0102, ","4"," ,7,1130,+","4.0"," ,7,0523, ","0.90"," ,7,0523,+","98","7,0723, ","5609","4","13.78"," ,7","20.7"," ,7","50.7","7","67.5","7","33.8","7"
"USC00267690","SOUTH FORK STATE RECREATION AREA, NV US","40.6764","-115.7451","1606.3","2019","237",,,,"        11","7","-16","7,0222, ",,,"4.0"," ,7,0122, ","1.02"," ,7,0920, ","98","7,0805, ","7818","3","12.23"," ,7","27.6"," ,7","44.2","7","61.3","7","27.0","7"
"USC00267691","SPANISH SPRINGS, NV US","39.6372","-119.7094","1368.2","2019",,,"       12",,"         9","7",,,"5"," ,7,0218,+","5.5"," ,7,0218, ","1.80"," ,7,0214, ",,,,,"13.99"," ,7","24.2"," ,7",,,,,,
"USR0000NSIA","SIARD NEVADA, NV US","40.3944","-117.625","1402.1","2019","626",,,,,,"-1","U,0207, ",,,,,,,"100","U,0828, ","6038","4",,,,,"49.8","U","64.5","U","35.2","U"
"USW00023185","RENO AIRPORT, NV US","39.4838","-119.7711","1344.2","2019","1079",,"       17",,"        10","W","10","W,0211, ","5"," ,W,0210, ","4.1"," ,W,0210, ","1.20"," ,W,0214, ","100","W,0815, ","4641","4","11.17"," ,W","29.0"," ,W","54.7","W","67.8","W","41.6","W"
"USS0014H04S","JAKES CREEK, NV US","41.57","-115.03","2133.6","2019","80",,"      147",,,,"-1","T,0101, ","38"," ,T,0310,+",,,"1.50"," ,T,0527, ","85","T,0805, ","8105","6","27.46"," ,T",,,"41.8","T","51.8","T","31.7","T"
"US1NVEL0027","JACKPOT 2.2 S, NV US","41.953","-114.678","1592.6","2019",,,,,,,,,,,,,"0.85"," ,N,0521, ",,,,,"13.70"," ,N",,,,,,,,
"USR0000NPAN","PANCAKE NEVADA, NV US","38.3036","-116.1925","1585.0","2019","636",,,,,,"-6","U,1130, ",,,,,,,"100","U,0828,+","5907","5",,,,,"49.7","U","66.3","U","33.2","U"
"USS0015J15S","HOLE IN MOUNTAIN, NV US","40.94","-115.1","2407.9","2019","22",,,,,,"-3","T,0222, ",,,,,"1.80"," ,T,1213, ","80","T,0722, ","8465","6","46.74"," ,T",,,"41.1","T","50.4","T","31.8","T"
"USR0000NRER","RED ROCK NEVADA, NV US","36.1353","-115.4272","1146.0","2019","2072",,,,,,"17","U,0102, ",,,,,,,"104","U,0729, ","3288","8",,,,,"61.2","U","72.3","U","50.1","U"
"USS0018H01S","DISASTER PEAK, NV US","41.97","-118.19","1981.2","2019","285",,"      133",,,,"9","T,0222, ","41"," ,T,0220, ",,,"1.30"," ,T,1213, ","86","T,0828, ","6934","3","25.24"," ,T",,,"46.2","T","54.0","T","38.4","T"
"USS0015H09S","TAYLOR CANYON, NV US","41.23","-116.03","1889.8","2019","13",,"      137",,,,"-21","T,0101, ","34"," ,T,0221, ",,,"0.90"," ,T,0527, ","88","T,0828,+","8929","6","17.94"," ,T",,,"40.2","T","54.8","T","25.5","T"
"USW00053123","LAS VEGAS AIR TERMINAL, NV US","36.21167","-115.19583","671.5","2019","3271",,,,,,"26","W,0102, ",,,,,"1.20"," ,W,0214, ","112","W,0729, ","2065","4","7.30"," ,W",,,"68.1","W","78.9","W","57.3","W"
"USC00262570","ELKO NWS OFFICE, NV US","40.8602","-115.7426","1595.6","2019","441",,"       59",,"        16","7","-10","7,0101, ","8"," ,7,0213, ","7.9"," ,7,0213, ","0.95"," ,7,0213, ","99","7,0804, ","7279","1","15.75"," ,7","48.6"," ,7","46.1","7","60.7","7","31.4","7"
"USR0000NREB","RED BUTTE NEVADA, NV US","39.9833","-117.3167","1539.2","2019","646",,,,,,"-2","U,1217,+",,,,,,,"98","U,0721, ","6192","8",,,,,"49.5","U","63.3","U","35.7","U"
"USR0000NLIT","LITTLE VALLEY NEVADA, NV US","39.2444","-119.8808","1923.3","2019","21",,,,,,"-13","U,0207, ",,,,,,,"87","U,0827, ","8100","2",,,,,"41.8","U","56.0","U","27.6","U"
"USC00265846","OVERTON, NV US","36.5508","-114.458","381.0","2019","3334",,"        0",,"         0","7","25","7,0105,+","0"," ,7,1231,+","0.0","T,7,0221,+","1.30"," ,7,1120, ","117","7,0806,+","2185","9","10.51"," ,7","0.0","T,7","67.8","7","83.0","7","52.7","7"
"USR0000NBEA","BEACON LIGHT NEVADA, NV US","40.5583","-116.7583","1463.0","2019","946",,,,,,"5","U,0222,+",,,,,,,"100","U,0828, ","5655","7",,,,,"52.0","U","63.8","U","40.2","U"
"US1NVWH0079","RENO 17.8 NNW, NV US","39.790278","-119.894694","1760.2","2019",,,,,,,,,,,,,"1.72"," ,N,0214, ",,,,,"21.15"," ,N",,,,,,,,
"USR0000NRUB","RUBY LAKE NWR NEVADA, NV US","40.1731","-115.4855","1819.7","2019","152",,,,,,"-11","U,0222, ",,,,,,,"92","U,0722, ","7522","7",,,,,"44.9","U","59.8","U","29.9","U"
"USS0018H02S","SUMMIT LK, NV US","41.49","-119.0","2319.2","2019","41",,"      174",,,,"3","T,0210, ","43"," ,T,0323,+",,,"1.30"," ,T,0919, ","81","T,0806, ","8068","5","28.74"," ,T",,,"42.3","T","50.8","T","33.8","T"
"US1NVCK0064","LAUGHLIN 1.2 SSW, NV US","35.134503","-114.631671","207.6","2019",,,,,,,,,,,,,"2.01"," ,N,1120, ",,,,,"10.28"," ,N",,,,,,,,
"USR0000NJUN","JUNIPER SPRINGS NEVADA, NV US","41.0819","-119.7772","1630.1","2019","571",,,,,,"9","U,0210,+",,,,,,,"94","U,0828, ","6230","9",,,,,"49.1","U","59.5","U","38.7","U"
"USC00263671","HIKO, NV US","37.5581","-115.2236","1188.7","2019","1052",,"        3",,"         3","7","12","7,0211, ","6"," ,7,1128, ","6.0"," ,7,1128, ","1.10"," ,7,0511,+","100","7,0827, ","4161","9","11.17"," ,7","11.0"," ,7","55.8","7","70.4","7","41.2","7"
"USW00053136","MERCURY 3 SSW, NV US","36.624","-116.0225","1001.0","2019","2067",,,,,,"21","R,0223, ",,,,,"1.17"," ,R,0306, ","106","R,0729, ","3028","1","7.96"," ,R",,,"61.8","R","74.5","R","49.2","R"
"USW00053138","BAKER 5 W, NV US","39.0118","-114.209","2016.9","2019","593",,,,,,"-1","R,0101, ",,,,,"1.09"," ,R,0310, ","92","R,0722, ","6969","8","16.35"," ,R",,,"47.0","R","57.7","R","36.3","R"
