"STATION","NAME","LATITUDE","LONGITUDE","ELEVATION","DATE","CDSD","CDSD_ATTRIBUTES","DSND","DSND_ATTRIBUTES","DSNW","DSNW_ATTRIBUTES","EMNT","EMNT_ATTRIBUTES","EMSD","EMSD_ATTRIBUTES","EMSN","EMSN_ATTRIBUTES","EMXP","EMXP_ATTRIBUTES","EMXT","EMXT_ATTRIBUTES","HDSD","HDSD_ATTRIBUTES","PRCP","PRCP_ATTRIBUTES","SNOW","SNOW_ATTRIBUTES","TAVG","TAVG_ATTRIBUTES","TMAX","TMAX_ATTRIBUTES","TMIN","TMIN_ATTRIBUTES"
"US1NYOS0015","MINETTO 0.1 SE, NY US","43.397711","-76.479583","107.0","2019",,,"      100",,"        30","N",,,"19"," ,N,0121, ","13.2"," ,N,0210, ","3.08"," ,N,0621, ",,,,,"51.98"," ,N","137.5"," ,N",,,,,,
"US1NYER0060","BLASDELL 1.5 SSW, NY US","42.776573","-78.844437","192.0","2019",,,,,,,,,,,,,"1.88"," ,N,1101, ",,,,,"45.97"," ,N",,,,,,,,
"USC00304808","LITTLE VALLEY, NY US","42.2473","-78.8125","495.3","2019","244",,,,"        40","7","-13","7,0201, ",,,"13.0"," ,7,0120, ",,,"89","7,0711, ","7655","9",,,"129.1"," ,7","44.6","7","55.0","7","34.1","7"
"US1NYTM0023","FREEVILLE 3.7 W, NY US","42.502107","-76.417953","352.0","2019",,,,,"        28","N",,,,,"9.0"," ,N,0120, ","1.72"," ,N,1101, ",,,,,"44.00"," ,N","74.5"," ,N",,,,,,
"USW00014732","LAGUARDIA AIRPORT, NY US","40.77944","-73.88035","3.4","2019","1443",,"        6",,"         6","W","3","W,0131, ","4"," ,W,0304, ","3.8"," ,W,0302, ","2.67"," ,W,0717, ","100","W,0721, ","4604","6","50.87"," ,W","15.6"," ,W","56.2","W","63.0","W","49.4","W"
"USW00014733","BUFFALO NIAGARA INTERNATIONAL, NY US","42.93997","-78.73615","218.2","2019","581",,"       68",,"        30","W","-4","W,0201,+","25"," ,W,0131, ","17.2"," ,W,0125, ","2.14"," ,W,0911, ","90","W,0710, ","6782","9","47.84"," ,W","120.1"," ,W","48.2","W","56.3","W","40.2","W"
"US1NYDL0028","FLEISCHMANNS 5.7 N, NY US","42.237796","-74.523357","760.8","2019",,,,,,,,,,,,,"2.41"," ,N,1017, ",,,,,"50.69"," ,N",,,,,,,,
"US1NYSR0004","SARATOGA SPRINGS 0.5 S, NY US","43.06032","-73.780087","94.5","2019",,,,,"        20","N",,,,,"12.8"," ,N,0120, ","2.97"," ,N,0415, ",,,,,"56.83"," ,N","84.5"," ,N",,,,,,
"USW00014735","ALBANY INTERNATIONAL AIRPORT, NY US","42.74722","-73.79912","85.3","2019","744",,"       69",,"        17","W","-8","W,0201, ","18"," ,W,1203, ","13.3"," ,W,1201, ","1.63"," ,W,1017, ","95","W,0720, ","6360","1","46.09"," ,W","72.0"," ,W","49.5","W","58.9","W","40.2","W"
"USC00300317","ATTICA 7 SW, NY US","42.8107","-78.3979","416.1","2019",,,"      106",,"        41","7",,,"22"," ,7,0128, ","14.0"," ,7,0131, ","1.55"," ,7,0902, ",,,,,"55.69"," ,7","161.4"," ,7",,,,,,
"US1NYDL0025","HOBART 4.8 ESE, NY US","42.3523","-74.5783","676.7","2019",,,,,,,,,,,,,"2.57"," ,N,1017, ",,,,,"52.04"," ,N",,,,,,,,
"USC00309389","WHITEHALL, NY US","43.5575","-73.4011","36.3","2019",,,,,,,,,,,,,,,,,,,"45.17"," ,7",,,,,,,,
"US1NYOS0020","FULTON 0.2 W, NY US","43.3165","-76.41855","121.0","2019",,,,,,,,,,,,,"2.34"," ,N,0621, ",,,,,"58.11"," ,N",,,,,,,,
"USC00302610","ELMIRA, NY US","42.0997","-76.8358","288.6","2019","552",,"       51",,"         8","7","-11","7,0201,+","9"," ,7,0121, ","8.0"," ,7,0120, ","1.47"," ,7,0729, ","94","7,0722, ","6741","2","40.87"," ,7","29.8"," ,7","47.7","7","58.8","7","36.6","7"
"USC00307520","SCHOHARIE, NY US","42.665","-74.3036","223.7","2019","527",,"       74",,"        18","7","-9","7,0122,+","19"," ,7,1203, ","11.7"," ,7,1202, ","2.25"," ,7,1017, ","93","7,0731,+","6596","6","41.08"," ,7","68.3"," ,7","47.8","7","59.0","7","36.5","7"
"USC00303025","FRANKLINVILLE, NY US","42.32943","-78.46352","481.0","2019","289",,"      103",,"        40","7","-21","7,0122, ","14"," ,7,0122,+","10.0"," ,7,0120,+","1.80"," ,7,1101, ","88","7,0720, ","7412","8","45.16"," ,7","99.8"," ,7","45.2","7","55.8","7","34.7","7"
"US1NYER0075","ELMA CENTER 0.7 SE, NY US","42.81935408","-78.62138546","265.8","2019",,,,,,,,,,,,,"2.19"," ,N,1101, ",,,,,"56.34"," ,N",,,,,,,,
"USC00306314","OSWEGO, NY US","43.44991","-76.53685","98.8","2019","505",,,,"        34","7","-3","7,0121, ",,,"10.5"," ,7,0120, ","3.00"," ,7,0620, ","90","7,0720, ","6897","8","47.20"," ,7","124.2"," ,7","47.5","7","54.9","7","40.1","7"
"USW00054757","WELLSVILLE MUNICIPAL AIRPORT, NY US","42.10944","-77.99194","647.4","2019","252",,,,,,"-12","W,0131, ",,,,,"1.58"," ,W,1031, ","88","W,0719, ","7292","9","38.95"," ,W",,,"45.3","W","54.2","W","36.4","W"
"US1NYSV0008","WURTSBORO 0.2 SSW, NY US","41.573911","-74.487106","163.7","2019",,,,,,,,,,,,,"3.55"," ,N,1017, ",,,,,"56.59"," ,N",,,,,,,,
"US1NYWR0010","WARRENSBURG 2.1 WNW, NY US","43.5178451538086","-73.8106918334961","202.4","2019",,,,,,,,,,,,,,,,,,,"50.26"," ,N",,,,,,,,
"US1NYER0077","COLDEN 2.4 ENE, NY US","42.650875","-78.610579","502.9","2019",,,"      110",,"        48","N",,,"24"," ,N,0126, ","14.8"," ,N,0120, ","1.65"," ,N,0912, ",,,,,"56.25"," ,N","202.4"," ,N",,,,,,
"USW00014747","DUNKIRK CHAUTAUQUA CO AIRPORT, NY US","42.49333","-79.27222","203.0","2019","552",,,,,,"-6","W,0122, ",,,,,"2.62"," ,W,0707, ","88","W,0806,+","6541","7","30.00"," ,W",,,"48.8","W","57.6","W","40.0","W"
"USW00014748","ELMIRA CORNING REGIONAL AIRPORT, NY US","42.15944","-76.89194","291.1","2019","483",,,,,,"-13","W,0122, ",,,,,"1.70"," ,W,1031, ","93","W,0719, ","6459","6","34.54"," ,W",,,"48.3","W","59.4","W","37.1","W"
"USC00300785","BOONVILLE 4 SSW, NY US","43.4361","-75.3697","472.4","2019","165",,"      128",,"        42","7","-18","7,0123,+","21"," ,7,0308,+","13.2"," ,7,0120, ","3.98"," ,7,1101, ","85","7,0717, ","8821","6","71.99"," ,7","145.7"," ,7","41.1","7","50.4","7","31.7","7"
"USC00301752","COOPERSTOWN, NY US","42.7166","-74.9266","383.1","2019","113",,"      100",,"        33","7","-11","7,0131, ","18"," ,7,0201,+","12.0"," ,7,0120, ","2.15"," ,7,1031, ","83","7,0727, ","8097","5","52.02"," ,7","104.4"," ,7","42.3","7","48.1","7","36.5","7"
"USC00302169","DOWNSVILLE DAM, NY US","42.0772","-74.9827","365.8","2019","337",,,,,,"-18","7,0201,+",,,,,,,"90","7,0721,+",,,,,,,"45.9","7","57.5","7","34.4","7"
"USC00305233","MECKLENBURG 4 SW, NY US","42.4422","-76.7586","460.2","2019",,,,,,,"-9","7,0201,+",,,,,"1.45"," ,7,1101, ",,,"7551","3","39.54"," ,7",,,,,,,"35.0","7"
"USW00094745","WESTCHESTER CO AIRPORT, NY US","41.06236","-73.70463","111.9","2019","838",,,,,,"0","W,0131, ",,,,,"2.56"," ,W,1016, ","95","W,0721, ","5420","0","51.19"," ,W",,,"52.1","W","60.5","W","43.8","W"
"USC00305113","EMMONS, NY US","42.4694","-75.0105","373.4","2019",,,,,,,,,,,,,"2.42"," ,7,1017, ",,,"7927","0","49.57"," ,7",,,,,,,,
"USC00305597","MOUNT MORRIS 2 W, NY US","42.7313","-77.9054","268.2","2019","456",,,,"        13","7","-6","7,0121, ",,,"10.0"," ,7,0120, ","1.41"," ,7,0621, ","91","7,0711, ","6898","1","32.83"," ,7","43.9"," ,7","47.2","7","56.5","7","37.9","7"
"US1NYCB0001","HUDSON 8.2 S, NY US","42.133493","-73.767857","90.8","2019",,,,,,,,,,,,,"2.73"," ,N,1017, ",,,,,"50.42"," ,N",,,,,,,,
"USC00304102","INDIAN LAKE 2 SW, NY US","43.75477","-74.27558","509.0","2019","124",,"      152",,"        36","7","-19","7,0121, ","33"," ,7,0312,+","12.0"," ,7,0120, ","4.22"," ,7,1101, ","86","7,0721, ","9200","9","56.92"," ,7","123.5"," ,7","39.8","7","49.8","7","29.7","7"
"USC00305236","MEDINA, NY US","43.2231","-78.3953","164.0","2019",,,"       86",,"        31","7",,,"13"," ,7,0130,+","9.3"," ,7,1112, ","1.29"," ,7,0331, ",,,,,"40.67"," ,7","88.9"," ,7",,,,,,
"USR0000NSTO","STONYKILL NEW YORK, NY US","41.5","-73.9","61.0","2019","825",,,,,,"-5","U,0202, ",,,,,,,"97","U,0721, ","5745","9",,,,,"51.2","U","61.4","U","40.9","U"
"US1NYTM0005","FREEVILLE 1.5 NE, NY US","42.5253","-76.3218","327.1","2019",,,"       78",,"        23","N",,,"13"," ,N,0122,+","8.1"," ,N,0120, ","1.73"," ,N,1101, ",,,,,"44.32"," ,N","67.6"," ,N",,,,,,
"US1NYSF0092","AMITYVILLE 0.6 NNE, NY US","40.677211","-73.410293","6.1","2019",,,,,,,,,,,,,"1.93"," ,N,1214, ",,,,,"51.06"," ,N",,,,,,,,
"US1NYNG0027","LOCKPORT 2.8 WNW, NY US","43.189778","-78.744251","139.6","2019",,,,,,,,,,,,,"2.42"," ,N,0807, ",,,,,"42.32"," ,N",,,,,,,,
"USC00301625","COLDEN 1 W, NY US","42.6472","-78.7111","467.9","2019","326",,"       92",,"        40","7","-8","7,0131, ","26"," ,7,0128, ","15.0"," ,7,0126, ","1.92"," ,7,1101, ","86","7,0711,+","7495","9","54.86"," ,7","158.3"," ,7","45.4","7","53.8","7","37.1","7"
"US1NYDL0005","DELHI 1.5 NNE, NY US","42.30026","-74.90265","462.1","2019",,,,,,,,,,,,,"2.71"," ,N,1017, ",,,,,"53.31"," ,N",,,,,,,,
"USC00306570","PHONECIA 2 SW, NY US","42.0674","-74.3356","323.1","2019",,,"       93",,"        17","7",,,"19"," ,7,0202,+","11.0"," ,7,0130,+","3.76"," ,7,1017, ",,,,,"64.47"," ,7","69.2"," ,7",,,,,,
"USW00054773","FULTON OSWEGO CO AIRPORT, NY US","43.34972","-76.38472","144.8","2019","408",,,,,,"-5","W,0202, ",,,,,"2.76"," ,W,0620, ","92","W,0720, ","7041","6","42.87"," ,W",,,"46.8","W","56.2","W","37.5","W"
"USC00308631","TUPPER LAKE SUNMOUNT, NY US","44.2307","-74.4382","512.1","2019","194",,"      135",,"        35","7","-24","7,0124,+","25"," ,7,0203, ","7.0"," ,7,0120, ","1.90"," ,7,1101, ","87","7,0721, ",,,"48.26"," ,7","99.8"," ,7","39.9","7","51.2","7","28.6","7"
"USC00302036","DELHI 2 SE, NY US","42.2533","-74.905","445.0","2019","243",,,,,,"-18","7,0202,+",,,,,"2.50"," ,7,1017, ","87","7,0731,+",,,"55.73"," ,7",,,"44.3","7","55.5","7","33.2","7"
"USC00309049","WEBSTER 2 NE, NY US","43.2419","-77.3882","83.8","2019","509",,"       83",,"        29","7","-4","7,0131, ","15"," ,7,0120, ","8.8"," ,7,0120, ","1.19"," ,7,1031, ","92","7,0720, ","6657","4","37.00"," ,7","87.8"," ,7","48.1","7","57.4","7","38.8","7"
"USC00301068","BUSKIRK, NY US","42.9361","-73.43257","152.1","2019","412",,"       87",,"        16","7","-22","7,0123, ","18"," ,7,1203, ","15.7"," ,7,1202, ","2.74"," ,7,1017, ","92","7,0705, ","7102","8","52.71"," ,7","66.1"," ,7","46.3","7","58.3","7","34.3","7"
"USW00054778","PENN YAN AIRPORT, NY US","42.6425","-77.05639","275.2","2019","561",,,,,,"-7","W,0130, ",,,,,"1.13"," ,W,0706, ","91","W,0720,+","6652","6","22.92"," ,W",,,"48.3","W","57.2","W","39.3","W"
"USC00307425","SANBORN 4 NE, NY US","43.17055","-78.81813","192.9","2019",,,"       72",,"        28","7",,,"12"," ,7,0122,+","9.8"," ,7,1112, ","1.92"," ,7,0807, ",,,,,"43.64"," ,7","83.7"," ,7",,,,,,
"US1NYHR0012","DOLGEVILLE 1.9 NW, NY US","43.123203","-74.797358","312.7","2019",,,,,,,,,,,,,"2.68"," ,N,1017, ",,,,,"65.51"," ,N",,,,,,,,
"USC00304952","MACEDON, NY US","43.0731","-77.30196","142.0","2019",,,,,,,,,,,,,,,,,,,"39.26"," ,7",,,,,,,,
"US1NYCQ0035","FALCONER 0.3 WSW, NY US","42.11766","-79.20278","385.9","2019",,,,,,,,,,,,,"1.74"," ,N,0621, ",,,,,"49.61"," ,N",,,,,,,,
"USC00300093","ALLEGANY STATE PARK, NY US","42.1003","-78.7497","457.2","2019","268",,"       84",,"        24","7","-11","7,0201, ","13"," ,7,0121,+","10.0"," ,7,0110, ","2.01"," ,7,0621, ","87","7,0720, ","7289","5","53.09"," ,7","69.9"," ,7","45.6","7","55.7","7","35.5","7"
"USC00302151","MOLLOY CERCOM, NY US","40.7211","-73.0908","1.5","2019",,,,,,,,,,,,,,,,,,,"48.33"," ,7",,,,,,,,
"US1NYDT0032","MILLBROOK 2.5 NE, NY US","41.81","-73.659","232.6","2019",,,,,,,,,,,,,"2.85"," ,N,0723, ",,,,,"48.68"," ,N",,,,,,,,
"US1NYTM0018","EAST ITHACA 4.7 E, NY US","42.4191","-76.3733","353.9","2019",,,,,,,,,,,,,"1.62"," ,N,1101, ",,,,,"44.68"," ,N",,,,,,,,
"USC00305925","NORTH CREEK 5 SE, NY US","43.6611","-73.8969","271.3","2019",,,"      141",,"        24","7",,,"21"," ,7,0311,+","13.0"," ,7,0120, ","3.03"," ,7,1101, ",,,,,"52.52"," ,7","83.2"," ,7",,,,,,
"US1NYRN0020","TROY 2.1 NNE, NY US","42.759301","-73.65283","135.9","2019",,,,,"        17","N",,,,,"14.4"," ,N,1202, ","2.39"," ,N,1017, ",,,,,"52.09"," ,N","71.1"," ,N",,,,,,
"USW00014719","WESTHAMPTON GABRESKI AIRPORT, NY US","40.84361","-72.63222","20.4","2019","537",,,,,,"-3","W,0201, ",,,,,"1.83"," ,W,0120, ","97","W,0721, ",,,"48.20"," ,W",,,"50.3","W","60.2","W","40.4","W"
"USR0000NSCH","SCHROON LAKE NEW YORK, NY US","43.8","-73.7","249.9","2019","349",,,,,,"-22","U,0122, ",,,,,,,"94","U,0720, ","7917","6",,,,,"44.1","U","55.7","U","32.6","U"
"USC00309292","WEST POINT, NY US","41.3906","-73.9608","97.5","2019",,,,,,,,,,,,,,,,,"5425","1",,,,,,,,,,
"US1NYCN0009","NORWICH 5.4 W, NY US","42.53356","-75.6306","456.6","2019",,,,,,,,,,,,,"1.78"," ,N,1101, ",,,,,"54.91"," ,N",,,,,,,,
"USC00300889","BRIDGEHAMPTON, NY US","40.952","-72.2977","12.8","2019","596",,"        9",,"         3","7","6","7,0131,+","2"," ,7,1212,+","2.0"," ,7,1203, ","2.43"," ,7,1017, ","93","7,0721, ","5430","5","58.42"," ,7","7.6"," ,7","51.4","7","60.4","7","42.4","7"
"USW00054780","MONTAUK AIRPORT, NY US","41.07306","-71.92333","2.1","2019","746",,,,,,"5","W,0121, ",,,,,"3.48"," ,W,1124, ","94","W,0721, ","5054","7","57.46"," ,W",,,"53.1","W","59.3","W","46.8","W"
"US1NYNG0030","LOCKPORT 2.5 ESE, NY US","43.15207","-78.65338","195.7","2019",,,,,,,,,,,,,"1.49"," ,N,0707, ",,,,,"42.02"," ,N",,,,,,,,
"USC00304207","JAMESTOWN 4 ENE, NY US","42.11","-79.1591","381.0","2019","399",,"       77",,"        25","7","-9","7,0201, ","12"," ,7,0122,+","10.6"," ,7,0110, ","1.71"," ,7,0621, ","90","7,0711, ","6831","1","51.15"," ,7","81.1"," ,7","47.5","7","57.9","7","37.1","7"
"USC00301974","DANSVILLE, NY US","42.56477","-77.71762","201.2","2019","673",,"       47",,"        15","7","-4","7,0201,+","10"," ,7,0120, ","10.0"," ,7,0120, ","1.76"," ,7,0818, ","95","7,0721, ","6269","9","31.54"," ,7","41.7"," ,7","49.4","7","59.7","7","39.1","7"
"USC00306465","PAVILION 2, NY US","42.87347","-77.99243","353.6","2019",,,"       77",,"        21","7",,,"20"," ,7,0131, ","15.0"," ,7,0120, ","1.70"," ,7,0818, ",,,,,"34.40"," ,7","73.7"," ,7",,,,,,
"USW00054787","FARMINGDALE REPUBLIC AIRPORT, NY US","40.73417","-73.41694","24.7","2019","950",,,,,,"2","W,0131, ",,,,,"1.81"," ,W,1209, ","96","W,0721,+","5125","1","39.02"," ,W",,,"53.6","W","61.1","W","46.1","W"
"USC00300085","ALFRED, NY US","42.27985","-77.76643","586.4","2019","358",,"       58",,"        19","7","-12","7,0131, ","9"," ,7,1219, ","8.2"," ,7,0120, ","1.61"," ,7,1101, ","90","7,0721,+","7413","1","40.88"," ,7","59.6"," ,7","45.7","7","56.6","7","34.8","7"
"USC00304844","LOCKPORT 4 E, NY US","43.18769","-78.60912","185.9","2019","550",,"       76",,"        25","7","-8","7,0121, ","11"," ,7,0122,+","6.0"," ,7,0120, ","1.30"," ,7,0719, ","89","7,0706,+","6784","8","45.39"," ,7","80.0"," ,7","48.0","7","56.3","7","39.7","7"
"US1NYSC0017","PATTERSONVILLE 4.2 SSW, NY US","42.831642","-74.115236","389.2","2019",,,,,,,,,,,,,,,,,,,"48.39"," ,N",,,,,,,,
"USW00004724","NIAGARA FALLS INTERNATIONAL AIRPORT, NY US","43.10833","-78.93806","178.3","2019","498",,,,,,"-4","W,0201,+",,,,,"1.53"," ,W,0728, ","92","W,0720, ","7009","1","35.98"," ,W",,,"47.2","W","56.0","W","38.4","W"
"USW00004725","BINGHAMTON GREATER AP, NY US","42.2068","-75.98","486.2","2019","372",,"       88",,"        24","W","-10","W,0131, ","13"," ,W,0122,+","9.6"," ,W,1202, ","1.81"," ,W,1007, ","89","W,0719, ","7221","6","44.02"," ,W","74.2"," ,W","46.1","W","54.4","W","37.8","W"
"US1NYOG0002","DE WITT 1.4 WSW, NY US","43.033333","-76.1","192.0","2019",,,,,,,,,,,,,"1.70"," ,N,1101, ",,,,,"50.85"," ,N",,,,,,,,
"US1NYBM0024","BINGHAMTON 1.3 ENE, NY US","42.109808","-75.885822","259.4","2019",,,,,,,,,,,,,,,,,,,"45.61"," ,N",,,,,,,,
"US1NYCR0005","MARATHON 1.0 NW, NY US","42.451608","-76.043708","313.9","2019",,,,,,,,,,,,,"2.30"," ,N,1101, ",,,,,"48.64"," ,N",,,,,,,,
"US1NYSF0110","ISLIP TERRACE 1.1 NNE, NY US","40.762742","-73.177641","14.3","2019",,,,,,,,,,,,,"2.57"," ,N,1214, ",,,,,"51.71"," ,N",,,,,,,,
"US1NYSF0114","FISHERS ISLAND 0.5 NE, NY US","41.26305556","-72.01638889","13.7","2019",,,,,,,,,,,,,"2.78"," ,N,1017, ",,,,,"60.34"," ,N",,,,,,,,
"US1NYCM0021","ELMIRA 1.2 WNW, NY US","42.1021347045898","-76.8303680419922","284.1","2019",,,,,"        10","N",,,,,"10.4"," ,N,0120, ","1.64"," ,N,0729, ",,,,,"42.47"," ,N","40.2"," ,N",,,,,,
"US1NYCR0003","WILLET 1.8 E, NY US","42.47385","-75.87249","427.3","2019",,,,,,,,,,,,,"3.31"," ,N,1101, ",,,,,"55.61"," ,N",,,,,,,,
"US1NYOR0004","WARWICK 3.2 WNW, NY US","41.268357","-74.415952","189.3","2019",,,,,,,,,,,,,"3.29"," ,N,1017, ",,,,,"51.61"," ,N",,,,,,,,
"USR0000NSAR","SARA NEW YORK, NY US","43.0078","-73.6511","114.3","2019",,,,,,,,,,,,,,,,,"6784","2",,,,,,,,,,
"USC00305142","MATTITUCK, NY US","40.98849","-72.51034","6.1","2019","749",,,,"         5","7","3","7,0121, ",,,"2.2"," ,7,1211, ","1.63"," ,7,0120, ","97","7,0721, ",,,"47.19"," ,7","9.8"," ,7","51.5","7","60.0","7","43.0","7"
"USC00301168","CANDOR 2 SE, NY US","42.1944","-76.3127","280.4","2019",,,,,,,,,,,,,"2.36"," ,7,1008, ",,,,,"44.54"," ,7",,,,,,,,
"USC00308412","TAYLORVILLE, NY US","43.92708","-75.32153","296.3","2019",,,,,"        30","Z",,,,,"8.0"," ,Z,0130, ","2.40"," ,Z,1101, ",,,,,"55.70"," ,Z","93.9"," ,Z",,,,,,
"USC00303346","GOUVERNEUR 3 NW, NY US","44.354","-75.5123","128.0","2019","283",,,,,,"-28","7,0122, ",,,,,,,"90","7,0704, ","8445","8",,,,,"42.2","7","52.9","7","31.4","7"
"USW00014771","SYRACUSE HANCOCK INTERNATIONAL AIRPORT, NY US","43.1111","-76.1038","125.9","2019","603",,"       92",,"        33","W","-7","W,0121, ","18"," ,W,0121, ","9.3"," ,W,0120, ","1.95"," ,W,1031, ","95","W,0716, ","6820","1","46.43"," ,W","107.7"," ,W","48.4","W","57.7","W","39.0","W"
"US1NYCM0024","CHEMUNG 5.7 N, NY US","42.0913","-76.6281","325.8","2019",,,"       49",,"        11","N",,,"10"," ,N,0120, ","9.7"," ,N,0120, ","1.33"," ,N,1007, ",,,,,"39.96"," ,N","40.6"," ,N",,,,,,
"US1NYNG0002","NORTH TONAWANDA 1.0 NNE, NY US","43.05725","-78.86175","176.2","2019",,,"       79",,"        25","N",,,"15"," ,N,0131,+","10.8"," ,N,0120, ","1.61"," ,N,0902, ",,,,,"43.27"," ,N","80.9"," ,N",,,,,,
"USC00307329","RUSHFORD, NY US","42.3915","-78.2484","463.9","2019",,,"       89",,"        24","7",,,"11"," ,7,0121, ","8.8"," ,7,0120, ","1.90"," ,7,0621, ",,,,,"41.32"," ,7","77.6"," ,7",,,,,,
"US1NYMG0001","FORT PLAIN 0.2 SE, NY US","42.929985","-74.62643","94.2","2019",,,,,,,,,,,,,"2.56"," ,N,1017, ",,,,,"44.22"," ,N",,,,,,,,
"US1NYMG0003","HESSVILLE 1.8 WSW, NY US","42.8643","-74.7214","320.0","2019",,,,,,,,,,,,,"2.96"," ,N,1017, ",,,,,"42.07"," ,N",,,,,,,,
"US1NYAB0021","NWS ALBANY, NY US","42.6918","-73.83109","79.2","2019",,,,,"        14","N",,,,,"12.6"," ,N,1202, ","3.05"," ,N,1017, ",,,,,"44.83"," ,N","63.1"," ,N",,,,,,
"US1NYMR0065","SCOTTSVILLE 0.4 NW, NY US","43.02539","-77.75963","180.4","2019",,,,,,,,,,,,,"1.35"," ,N,0621, ",,,,,"36.31"," ,N",,,,,,,,
"USW00064756","MILLBROOK 3 W, NY US","41.7857","-73.7422","125.9","2019",,,,,,,,,,,,,,,,,"6359","8",,,,,,,,,,
"USC00309072","WELLSVILLE, NY US","42.1173","-77.9475","460.2","2019","285",,,,"        20","7","-13","7,0123, ",,,"9.0"," ,7,0120, ","1.65"," ,7,1101, ","90","7,0720, ","7392","5","40.03"," ,7","46.9"," ,7","45.3","7","55.8","7","34.7","7"
"US1NYOR0017","PINE BUSH 3.4 WSW, NY US","41.587962","-74.357663","126.8","2019",,,,,,,,,,,,,"3.26"," ,N,1017, ",,,,,"52.83"," ,N",,,,,,,,
"US1NYSF0002","RIVERHEAD 1.3 SSE, NY US","40.93","-72.67","13.1","2019",,,,,,,,,,,,,"2.35"," ,N,1214, ",,,,,"52.99"," ,N",,,,,,,,
"USC00306480","PENDLETON 1 NE, NY US","43.10105","-78.71387","179.5","2019",,,"       62",,"        25","7",,,"11"," ,7,0130,+","9.4"," ,7,0130, ","1.62"," ,7,0902, ",,,,,"45.13"," ,7","71.7"," ,7",,,,,,
"USC00307210","ROCK HILL 3 SW, NY US","41.5916","-74.6143","387.1","2019",,,,,,,,,,,,,,,,,,,,,,,,,,,,
"US1NYOL0005","MEDINA 0.4 WNW, NY US","43.223","-78.39539","164.6","2019",,,,,,,,,,,,,"1.25"," ,N,0331, ",,,,,"39.52"," ,N",,,,,,,,
"USC00302366","EAST JEWETT, NY US","42.23432","-74.14436","606.9","2019",,,"      102",,"        19","7",,,"21"," ,7,1203, ","11.4"," ,7,1203, ",,,,,,,,,"81.4"," ,7",,,,,,
"USW00094704","DANSVILLE MUNICIPAL AIRPORT, NY US","42.57083","-77.71333","208.8","2019","583",,,,,,"-4","W,0121, ",,,,,"1.57"," ,W,0817, ","93","W,0720, ","6334","1","29.31"," ,W",,,"49.2","W","59.2","W","39.1","W"
"USC00300183","ANGELICA, NY US","42.3108","-78.023","449.6","2019","332",,"       89",,"        21","7","-15","7,0122, ","10"," ,7,0122,+","9.0"," ,7,0120, ","1.61"," ,7,0606, ","90","7,0720,+","7278","2","43.57"," ,7","61.2"," ,7","45.7","7","57.2","7","34.1","7"
"USC00300063","ALCOVE DAM, NY US","42.4697","-73.9267","185.0","2019","288",,,,,,"-22","7,0202,+",,,,,,,"88","7,0721, ","7200","1","45.03"," ,7",,,"45.7","7","55.9","7","35.5","7"
"USC00301152","CANANDAIGUA 3 S, NY US","42.84505","-77.28071","219.5","2019","572",,,,,,"-6","7,0121, ",,,,,"1.08"," ,7,1007, ","92","7,0721, ","6783","6","35.44"," ,7",,,"48.0","7","56.8","7","39.1","7"
"US1NYES0007","KEESEVILLE 0.8 SE, NY US","44.495048","-73.471093","160.9","2019",,,,,,,,,,,,,"1.62"," ,N,1017, ",,,,,"37.39"," ,N",,,,,,,,
"USC00305714","NEWCOMB, NY US","43.9707","-74.222","502.0","2019","129",,"      154",,"        32","7","-18","7,0117,+","32"," ,7,0228, ","11.0"," ,7,0120, ","2.94"," ,7,1101, ","88","7,0708, ","9254","2","60.39"," ,7","108.4"," ,7","39.8","7","51.0","7","28.5","7"
"USC00305715","NEWFANE 1 W, NY US","43.29011","-78.72282","103.6","2019",,,"       48",,"        13","7",,,"9"," ,7,1113,+","9.0"," ,7,1112,+","1.47"," ,7,0510, ",,,,,"35.36"," ,7","45.9"," ,7",,,,,,
"USW00094740","SARANAC LAKE ADIRONDACK REGIONAL AIRPORT, NY US","44.38528","-74.20667","506.9","2019","86",,,,,,"-28","W,0122, ",,,,,"2.08"," ,W,1031, ","87","W,0730,+","9322","1","40.74"," ,W",,,"38.8","W","50.9","W","26.7","W"
"USC00301708","CONKLINGVILLE DAM, NY US","43.3203","-73.9256","246.3","2019","342",,,,,,"-11","7,0202,+",,,,,,,"87","7,0801,+","7472","9",,,,,"45.0","7","53.6","7","36.3","7"
"USW00064775","ROME GRIFFISS AIRFIELD, NY US","43.23389","-75.41167","158.2","2019","421",,,,,,"-20","W,0122, ",,,,,"3.09"," ,W,0717, ","91","W,0720,+","7320","7","58.30"," ,W",,,"46.1","W","56.1","W","36.1","W"
"USW00064776","PLATTSBURGH INTERNATIONAL AIRPORT, NY US","44.65","-73.46667","71.3","2019","388",,,,,,"-16","W,0122, ",,,,,"1.46"," ,W,1017, ","92","W,0720,+","7867","7","30.35"," ,W",,,"44.3","W","54.3","W","34.3","W"
"USC00305280","MEXICO 2 SW, NY US","43.43833","-76.26565","129.5","2019",,,,,,,,,,,,,,,,,,,,,,,,,,,,
"USW00014757","POUGHKEEPSIE AIRPORT, NY US","41.62574","-73.88156","50.6","2019","782",,,,,,"-4","W,0122, ",,,,,"2.15"," ,W,1016, ","97","W,0721, ","5879","9","40.83"," ,W",,,"50.9","W","61.2","W","40.6","W"
"US1NYES0005","SCHROON LAKE 3.5 SW, NY US","43.808639","-73.818869","416.7","2019",,,,,,,,,,,,,"3.81"," ,N,1101, ",,,,,"54.74"," ,N",,,,,,,,
"USC00309089","WEST BLOOMFIELD 1 S, NY US","42.8846","-77.534","301.8","2019",,,,,,,,,,,,,,,,,,,,,,,,,,,,
"USC00301388","CHASES LAKE, NY US","43.75923","-75.29982","390.4","2019",,,"      128",,"        31","7",,,"17"," ,7,0201,+","8.6"," ,7,0120, ","3.07"," ,7,1101, ",,,,,"48.32"," ,7","104.5"," ,7",,,,,,
"USC00306376","PALERMO 2 SSE, NY US","43.3319","-76.2691","135.6","2019",,,"      111",,"        29","7",,,"19"," ,7,0306, ","10.1"," ,7,0120, ","2.97"," ,7,0621, ",,,,,"52.34"," ,7","136.3"," ,7",,,,,,
"US1NYCM0003","ELMIRA 1.3 ESE, NY US","42.0839","-76.78813","256.0","2019",,,,,,,,,,,,,"1.29"," ,N,0816, ",,,,,"39.74"," ,N",,,,,,,,
"USC00300055","ALBION, NY US","43.26338","-78.21527","143.9","2019","668",,"       68",,"        25","7","-10","7,0131,+","11"," ,7,0121, ","6.4"," ,7,1112, ","1.77"," ,7,0712, ","90","7,0719,+","6888","7","36.43"," ,7","75.6"," ,7","48.1","7","58.0","7","38.1","7"
"USC00303444","GREENE, NY US","42.32426","-75.77095","280.4","2019",,,"       74",,"        19","7",,,"12"," ,7,0121, ","8.0"," ,7,0120, ","2.23"," ,7,1014, ",,,,,"49.59"," ,7","45.9"," ,7",,,,,,
"USW00014750","GLENS FALLS AIRPORT, NY US","43.33845","-73.61028","97.8","2019","401",,,,,,"-20","W,0122, ",,,,,"1.97"," ,W,1017, ","92","W,0721, ","7380","3","44.06"," ,W",,,"45.4","W","56.2","W","34.5","W"
"USC00303322","GLOVERSVILLE 7 NW PECK LAKE, NY US","43.115","-74.4236","443.5","2019",,,"      153",,"        39","7","-18","7,0121, ","29"," ,7,0310,+","10.5"," ,7,0120, ","2.99"," ,7,1017, ",,,,,"66.09"," ,7","145.8"," ,7",,,,,"31.1","7"
"USC00305840","NIAGARA FALLS, NY US","43.0856","-78.972","179.2","2019",,,,,,,,,,,,,,,,,,,,,,,,,,,,
"USC00304996","MALONE, NY US","44.8418","-74.306","267.6","2019","292",,"      132",,"        42","7","-15","7,0122, ","20"," ,7,0123, ","8.5"," ,7,1112,+","1.91"," ,7,1101, ","89","7,0721, ","8839","6","41.40"," ,7","110.9"," ,7","41.5","7","51.0","7","32.0","7"
"USC00305606","MOUNT SINAI, NY US","40.933","-73.0191","15.2","2019",,,"       11",,"         8","7","1","7,0122, ","3"," ,7,0306,+","5.0"," ,7,0304, ","2.37"," ,7,1214, ",,,,,"55.98"," ,7","18.2"," ,7",,,,,"47.8","7"
"US1NYAB0001","ALTAMONT 2.7 SSW, NY US","42.66696","-74.05088","445.0","2019",,,,,,,,,,,,,"2.99"," ,N,1017, ",,,,,"46.21"," ,N",,,,,,,,
"USC00300608","BENNETTS BRIDGE, NY US","43.5318","-75.9526","201.2","2019",,,,,,,,,,,,,,,,,,,"63.84"," ,7",,,,,,,,
"USW00094728","NY CITY CENTRAL PARK, NY US","40.77898","-73.96925","42.7","2019","1231",,"       11",,"         7","W","2","W,0131, ","4"," ,W,0304,+","4.0"," ,W,0302, ","1.83"," ,W,1016, ","95","W,0721,+","4662","8","53.06"," ,W","16.7"," ,W","55.6","W","62.5","W","48.7","W"
"US1NYSF0103","RIDGE 1.8 SE, NY US","40.89581","-72.853872","21.0","2019",,,"       14",,"         6","N",,,"3"," ,N,0304,+","2.7"," ,N,0302, ","1.88"," ,N,1016, ",,,,,"51.20"," ,N","14.0"," ,N",,,,,,
"US1NYQN0002","MIDDLE VILLAGE 0.5 SW, NY US","40.714521","-73.881893","32.3","2019",,,,,,,,,,,,,"2.02"," ,N,1210, ",,,,,"50.98"," ,N",,,,,,,,
"USW00014768","ROCHESTER GREATER INTERNATIONAL, NY US","43.11722","-77.67541","164.3","2019","598",,"       81",,"        32","W","-2","W,0121, ","15"," ,W,0121,+","8.2"," ,W,1111,+","1.30"," ,W,0705, ","92","W,0720,+","6489","1","34.46"," ,W","108.4"," ,W","48.7","W","57.6","W","39.8","W"
"US1NYWN0006","PALMYRA 1.6 NW, NY US","43.0795","-77.2526","151.8","2019",,,,,,,,,,,,,"2.29"," ,N,0621, ",,,,,"41.80"," ,N",,,,,,,,
"USW00094725","MASSENA INTERNATIONAL AIRPORT, NY US","44.93583","-74.84583","65.2","2019","384",,,,,,"-20","W,0128, ",,,,,"2.25"," ,W,1031, ","91","W,0704, ","8330","7","34.31"," ,W",,,"43.2","W","53.6","W","32.8","W"
"US1NYST0003","SOUTH CORNING 4.7 S, NY US","42.05672","-77.04847","527.3","2019",,,,,,,,,,,,,"3.07"," ,N,0816, ",,,,,"39.70"," ,N",,,,,,,,
"US1NYOG0046","BALDWINSVILLE 3.5 NE, NY US","43.195063","-76.288349","118.9","2019",,,,,,,,,,,,,"2.28"," ,N,1101, ",,,,,"53.55"," ,N",,,,,,,,
"US1NYER0102","CHEEKTOWAGA 2.7 NE, NY US","42.941192","-78.719333","214.3","2019",,,"       67",,"        29","N",,,"25"," ,N,0131, ","12.7"," ,N,0126, ","1.60"," ,N,0902, ",,,,,"48.45"," ,N","119.7"," ,N",,,,,,
"US1NYNS0007","FLORAL PARK 0.4 W, NY US","40.7229996","-73.7109985","24.1","2019",,,,,,,,,,,,,"2.95"," ,N,0723, ",,,,,"58.02"," ,N",,,,,,,,
"USC00306276","ORIENT POINT STATE PARK, NY US","41.1321","-72.2584","0.9","2019","809",,"        7",,"         6","7","3","7,0122,+","4"," ,7,0302, ","4.0"," ,7,0304,+","2.58"," ,7,1017, ","94","7,0722,+","5024","2","62.20"," ,7","17.8"," ,7","53.0","7","59.9","7","46.0","7"
"USC00308577","SYOSSET, NY US","40.8216","-73.4908","80.8","2019",,,,,"         3","7",,,,,"4.0"," ,7,0302, ","3.94"," ,7,0723, ",,,,,"58.72"," ,7","7.3"," ,7",,,,,,
"USC00309425","WHITESVILLE 1 N, NY US","42.05983","-77.75539","661.4","2019",,,"       86",,"        18","7",,,"9"," ,7,1204,+","7.2"," ,7,0120, ","1.51"," ,7,1101, ",,,,,"40.04"," ,7","50.7"," ,7",,,,,,
"USC00308455","THERESA 4 NW, NY US","44.27543","-75.83689","110.0","2019",,,,,,,,,,,,,,,,,,,,,,,,,,,,
"USC00302454","EAST SIDNEY, NY US","42.33278","-75.22982","352.0","2019","359",,,,,,"-16","7,0201, ",,,,,"1.85"," ,7,1101, ","90","7,0720,+","7310","3","46.93"," ,7",,,"45.7","7","57.5","7","33.9","7"
"USC00302574","ELLENBURG DEPOT, NY US","44.913","-73.8223","289.6","2019","280",,,,,,"-15","7,0113, ",,,,,,,"92","7,0720, ","8649","9",,,,,"41.9","7","51.8","7","32.1","7"
"USC00308578","TRENTON FALLS, NY US","43.2761","-75.1566","243.8","2019","291",,,,,,"-15","7,0123,+",,,,,,,"88","7,0721, ","7821","1","68.69"," ,7",,,"43.8","7","53.3","7","34.4","7"
"US1NYMR0023","ROCHESTER 5.0 WNW, NY US","43.203563","-77.703112","131.1","2019",,,,,,,,,,,,,"1.67"," ,N,1112, ",,,,,"38.80"," ,N",,,,,,,,
"US1NYSF0044","SHIRLEY 2.9 N, NY US","40.8374","-72.866779","29.3","2019",,,,,,,,,,,,,"1.82"," ,N,1214, ",,,,,"47.52"," ,N",,,,,,,,
"USC00300707","BLACK RIVER, NY US","44.00027","-75.81335","158.5","2019",,,,,"        33","Z",,,,,"24.0"," ,Z,0126, ","2.47"," ,Z,0621, ",,,,,"54.33"," ,Z","147.4"," ,Z",,,,,,
"US1NYTG0015","BERKSHIRE 1.9 ENE, NY US","42.3191","-76.2194","470.9","2019",,,,,,,,,,,,,"2.03"," ,N,1101, ",,,,,"51.01"," ,N",,,,,,,,
"USC00307134","RIVERHEAD RESEARCH FARM, NY US","40.96245","-72.71612","30.5","2019","1005",,"        4",,"         5","7","5","7,0131, ","2"," ,7,1211,+","4.0"," ,7,0304, ","2.32"," ,7,0723, ","97","7,0721, ","4910","6","49.21"," ,7","15.2"," ,7","54.2","7","61.9","7","46.6","7"
"USC00306047","NORTH TONAWANDA, NY US","43.05734","-78.86171","176.2","2019",,,"       86",,"        25","7",,,"15"," ,7,0131,+","10.8"," ,7,0120, ","1.61"," ,7,0902, ",,,,,"43.22"," ,7","81.1"," ,7",,,,,,
"USC00301595","COBLESKILL 2 ESE, NY US","42.66717","-74.44239","356.3","2019",,,,,,,,,,,,,"2.72"," ,7,1017, ",,,,,"44.03"," ,7",,,,,,,,
"USC00300023","ADDISON, NY US","42.1013","-77.2344","304.5","2019",,,,,,,,,,,,,,,,,,,,,,,,,,,,
"USC00303773","HEMLOCK, NY US","42.7743","-77.6083","274.9","2019","461",,,,,,"-7","7,0122,+",,,,,"2.14"," ,7,0621, ","90","7,0720, ","6802","2","41.70"," ,7",,,"47.7","7","57.1","7","38.2","7"
"USC00301110","CAMDEN, NY US","43.3305","-75.8416","176.8","2019","289",,,,,,"-17","7,0123, ",,,,,,,"91","7,0705, ","7845","6","63.72"," ,7",,,"44.1","7","54.5","7","33.7","7"
"USC00305512","MORRISVILLE 6 SW, NY US","42.8416","-75.7263","512.4","2019",,,,,,,,,,,,,,,,,,,,,,,,,,,,
"USW00004789","MONTGOMERY ORANGE CO AIRPORT, NY US","41.50917","-74.265","111.3","2019","584",,,,,,"-16","W,0131, ",,,,,"2.83"," ,W,1016, ","95","W,0721, ",,,"43.83"," ,W",,,"49.2","W","59.6","W","38.9","W"
"US1NYCL0007","PERU 4.1 ESE, NY US","44.564615","-73.453901","55.2","2019",,,,,,,,,,,,,"1.72"," ,N,1101, ",,,,,"41.62"," ,N",,,,,,,,
"US1NYBM0004","ENDICOTT 5.2 SSE, NY US","42.02958","-76.02129","317.0","2019",,,,,,,,,,,,,"1.45"," ,N,1101, ",,,,,"47.47"," ,N",,,,,,,,
"USW00004781","ISLIP LI MACARTHUR AIRPORT, NY US","40.79388","-73.10189","25.6","2019","962",,"        7",,"         6","W","3","W,0131, ","2"," ,W,1203,+","2.0"," ,W,0212, ","2.18"," ,W,1016, ","99","W,0721, ","5129","3","48.76"," ,W","12.9"," ,W","53.4","W","61.5","W","45.4","W"
"US1NYAB0032","GLENMONT 2.5 SW, NY US","42.575395","-73.799503","54.6","2019",,,,,,,,,,,,,"3.63"," ,N,0718, ",,,,,"49.65"," ,N",,,,,,,,
"USC00300937","BROCKPORT, NY US","43.216","-77.9529","151.8","2019","505",,"       77",,"        23","7","-4","7,0121, ","17"," ,7,0122,+","12.0"," ,7,0120, ","2.08"," ,7,1101, ","88","7,0721,+","6862","5","39.00"," ,7","89.5"," ,7","47.7","7","56.1","7","39.3","7"
"US1NYSF0016","NORTHPORT 1.6 NNE, NY US","40.9234","-73.3305","25.6","2019",,,"       14",,"         5","N",,,"6"," ,N,0302, ","5.7"," ,N,0302, ","3.54"," ,N,0723, ",,,,,"47.66"," ,N","17.2"," ,N",,,,,,
"US1NYER0007","WILLIAMSVILLE 2.7 E, NY US","42.9693","-78.68785","214.0","2019",,,,,,,,,,,,,"1.52"," ,N,1101, ",,,,,"42.46"," ,N",,,,,,,,
"USC00309442","WHITNEY POINT DAM, NY US","42.3419","-75.9653","317.0","2019","390",,,,,,"-10","7,0202, ",,,,,"1.43"," ,7,0504, ","93","7,0720, ","6891","3","38.23"," ,7",,,"46.8","7","57.0","7","36.6","7"
"USC00301102","CALLICOON CENTER, NY US","41.82737","-74.95065","372.2","2019","315",,,,,,"-21","7,0131, ",,,,,"2.64"," ,7,1017, ","90","7,0722, ","7457","0","58.55"," ,7",,,"45.0","7","55.5","7","34.6","7"
"US1NYST0030","CORNING 0.7 NNW, NY US","42.1573149","-77.060046","286.2","2019",,,,,,,,,,,,,"2.04"," ,N,1101, ",,,,,"35.77"," ,N",,,,,,,,
"USC00302554","ELIZABETHTOWN, NY US","44.2138","-73.5986","186.2","2019",,,,,"        22","7",,,,,"18.0"," ,7,0121, ","3.61"," ,7,1101, ",,,,,"46.35"," ,7","81.3"," ,7",,,,,,
"USC00308910","WALES, NY US","42.7392","-78.5878","345.9","2019","354",,"       85",,"        29","7","-7","7,0131,+","14"," ,7,0131,+","9.6"," ,7,0120, ","1.80"," ,7,1101, ","89","7,0711, ","7350","3","47.18"," ,7","115.9"," ,7","45.8","7","55.6","7","36.0","7"
"USC00303087","FULTON, NY US","43.3049","-76.3938","109.7","2019","414",,"       94",,"        36","7","-6","7,0122, ","18"," ,7,0306, ","10.0"," ,7,0120, ","2.43"," ,7,0621, ","90","7,0721,+","7055","5","55.35"," ,7","140.9"," ,7","46.9","7","56.1","7","37.7","7"
"USC00307705","SHERBURNE, NY US","42.6773","-75.5066","333.8","2019","329",,"       76",,"        26","7","-19","7,0202,+","9"," ,7,1207,+","9.0"," ,7,0120, ","1.86"," ,7,1101, ","91","7,0717,+","7399","4","44.03"," ,7","73.4"," ,7","45.2","7","56.1","7","34.3","7"
"USC00304174","ITHACA CORNELL UNIVERSITY, NY US","42.44915","-76.44905","292.6","2019","365",,"       62",,"        15","7","-14","7,0201, ","12"," ,7,0121, ","10.2"," ,7,0120, ","1.52"," ,7,1101, ","91","7,0720, ","7282","7","41.54"," ,7","51.6"," ,7","45.7","7","55.7","7","35.7","7"
"US1NYER0135","WEST SENECA 1.5 NW, NY US","42.853983","-78.771591","187.5","2019",,,,,,,,,,,,,"1.54"," ,N,0821, ",,,,,"43.92"," ,N",,,,,,,,
"US1NYSL0006","HANNAWA FALLS 0.1 SW, NY US","44.611539","-74.971905","171.0","2019",,,"      115",,"        39","N",,,"26"," ,N,0123,+","11.5"," ,N,0111, ","1.87"," ,N,1101, ",,,,,"51.87"," ,N","145.2"," ,N",,,,,,
"US1NYUL0020","ULSTER PARK 0.9 NNW, NY US","41.867677","-73.987955","53.6","2019",,,,,,,,,,,,,"3.13"," ,N,0808, ",,,,,"54.07"," ,N",,,,,,,,
"US1NYMR0050","WEBSTER 3.0 W, NY US","43.212721","-77.481","119.8","2019",,,,,,,,,,,,,"1.20"," ,N,1112, ",,,,,"38.20"," ,N",,,,,,,,
"USC00309690","YOUNGSTOWN 2 E, NY US","43.24993","-79.00927","89.9","2019",,,,,,,,,,,,,,,,,"6732","9",,,,,,,,,,
"USC00306184","OLD FORGE, NY US","43.7026","-74.9838","532.8","2019",,,,,,,,,,,,,"2.90"," ,7,1101, ",,,,,"64.34"," ,7",,,,,,,,
"US1NYOD0060","SAUQUOIT 1.6 WSW, NY US","42.995505","-75.288519","432.8","2019",,,,,,,,,,,,,,,,,,,"57.89"," ,N",,,,,,,,
"US1NYUL0028","KERHONKSON 3.7 N, NY US","41.832149","-74.301159","273.1","2019",,,,,,,,,,,,,"3.09"," ,N,1017, ",,,,,"54.96"," ,N",,,,,,,,
"US1NYUL0029","HIGHLAND 0.2 SW, NY US","41.714862","-73.968399","116.7","2019",,,,,"         9","N",,,,,"7.7"," ,N,1203,+","2.70"," ,N,1017, ",,,,,"52.45"," ,N","41.5"," ,N",,,,,,
"USC00304684","LE ROY 1 E, NY US","42.9736","-77.96719","272.8","2019",,,"       86",,"        24","7",,,"15"," ,7,0120, ","13.5"," ,7,0120, ","1.95"," ,7,0120, ",,,,,"41.61"," ,7","85.4"," ,7",,,,,,
"USC00300364","BAITING HOLLOW, NY US","40.93408","-72.73959","21.3","2019","701",,"       11",,"         8","7","3","7,0131, ","3"," ,7,0302, ","3.0"," ,7,0302,+","2.07"," ,7,1214, ","97","7,0722,+","5639","7","53.67"," ,7","17.6"," ,7","51.2","7","60.1","7","42.4","7"
"USC00301211","CARMEL 4 N, NY US","41.4725","-73.655","207.3","2019","403",,"       36",,"         8","7","-5","7,0131, ","8"," ,7,0304, ","8.0"," ,7,0304, ","3.42"," ,7,0723, ","90","7,0722, ","6466","1","58.32"," ,7","32.2"," ,7","48.0","7","56.6","7","39.3","7"
"USC00304564","LAKE VIEW 1 NE, NY US","42.73186","-78.924","197.2","2019",,,,,,,,,,,,,,,,,,,,,,,,,,,,
"USC00308248","STILLWATER RESERVOIR, NY US","43.89131","-75.03612","515.1","2019",,,,,,,,,,,,,,,,,,,"59.15"," ,7",,,,,,,,
"US1NYDT0024","RED HOOK 1.2 NNE, NY US","42.009676","-73.864194","65.8","2019",,,,,,,,,,,,,"2.82"," ,N,1017, ",,,,,"50.07"," ,N",,,,,,,,
"USC00304565","LAKESIDE, NY US","43.37146","-78.26631","82.3","2019",,,,,"        17","7",,,,,"6.4"," ,7,1112, ",,,,,,,,,"51.6"," ,7",,,,,,
"USC00306745","PORTAGEVILLE, NY US","42.5699","-78.0405","356.0","2019",,,,,,,,,,,,,,,,,,,,,,,,,,,,
"USC00306746","PORTAGEVILLE 1 W, NY US","42.57582","-78.06724","442.0","2019",,,,,,,,,,,,,,,,,,,,,,,,,,,,
"USC00306867","PULASKI, NY US","43.5696","-76.1163","121.6","2019","212",,"       91",,"        28","7","-16","7,0123, ","24"," ,7,0131,+","15.0"," ,7,0305, ","2.93"," ,7,0621, ","89","7,0703, ",,,"50.43"," ,7","143.9"," ,7","43.3","7","52.9","7","33.8","7"
"USC00306988","REDFIELD 8 N, NY US","43.64134","-75.88401","398.7","2019",,,"      141",,"        46","7",,,"32"," ,7,0201, ","14.4"," ,7,0120, ","2.25"," ,7,0621, ",,,,,"63.43"," ,7","227.2"," ,7",,,,,,
"USC00306747","PORTLAND1 SW, NY US","42.3717","-79.4866","246.3","2019","671",,"       51",,"        24","7","-5","7,0131, ","15"," ,7,0120, ","15.0"," ,7,0120, ","1.67"," ,7,1031, ","88","7,0520, ","6124","1","43.50"," ,7","75.0"," ,7","50.3","7","58.5","7","42.1","7"
"US1NYSF0073","BRIGHTWATERS 0.7 NNW, NY US","40.7259788513184","-73.2727508544922","10.4","2019",,,,,,,,,,,,,"2.48"," ,N,1017, ",,,,,"53.41"," ,N",,,,,,,,
"US1NYSF0077","NESCONSET 1.4 SSW, NY US","40.828998","-73.16433","31.1","2019",,,,,,,,,,,,,,,,,,,"51.11"," ,N",,,,,,,,
"US1NYUL0031","HURLEY 2.2 S, NY US","41.881496","-74.056262","50.0","2019",,,,,,,,,,,,,"3.51"," ,N,1017, ",,,,,"47.28"," ,N",,,,,,,,
"US1NYOT0011","HARTWICK, NY US","42.6599","-75.05","406.9","2019",,,,,,,,,,,,,"2.41"," ,N,1017, ",,,,,"48.32"," ,N",,,,,,,,
"USC00300910","BRISTOL HARBOUR, NY US","42.7479","-77.3426","286.5","2019",,,,,,,,,,,,,"1.20"," ,7,0807, ",,,,,"34.44"," ,7",,,,,,,,
"USW00054790","SHIRLEY BROOKHAVEN AIRPORT, NY US","40.82167","-72.86889","25.0","2019","811",,,,,,"4","W,0131, ",,,,,"1.80"," ,W,1016, ","97","W,0721, ","5329","8","49.22"," ,W",,,"52.5","W","60.9","W","44.2","W"
"USC00306196","OLEAN, NY US","42.0737","-78.4518","432.8","2019","373",,"       75",,"        22","7","-21","7,0122, ","12"," ,7,0120, ","11.0"," ,7,0120, ","2.15"," ,7,0602, ","89","7,0720,+","7328","9","44.32"," ,7","55.7"," ,7","46.2","7","57.0","7","35.4","7"
"USC00308132","SPRINGVILLE 5 NE, NY US","42.5497","-78.5767","515.4","2019",,,"      100",,"        53","7",,,"17"," ,7,0127, ","9.7"," ,7,0125, ","1.45"," ,7,0912, ",,,,,"55.35"," ,7","171.8"," ,7",,,,,,
"US1NYMD0022","ONEIDA 0.4 NW, NY US","43.08012","-75.66858","172.2","2019",,,"       84",,"        24","N",,,"12"," ,N,0121, ","10.0"," ,N,0120, ","2.03"," ,N,0621, ",,,,,"51.83"," ,N","102.2"," ,N",,,,,,
"US1NYDT0029","POUGHKEEPSIE 5.3 S, NY US","41.61955","-73.91306667","51.5","2019",,,,,,,,,,,,,"2.24"," ,N,1017, ",,,,,"47.15"," ,N",,,,,,,,
"USC00303983","HORNELL ALMOND DAM, NY US","42.3488","-77.7044","403.9","2019","304",,,,,,"-12","7,0123, ",,,,,"1.61"," ,7,1101, ","92","7,0721, ","7614","3","46.06"," ,7",,,"44.7","7","55.5","7","33.9","7"
"USC00307842","SODUS 1 W, NY US","43.2359","-77.0841","135.3","2019","330",,,,,,"-10","7,0202, ",,,,,,,"91","7,0721, ","7281","0",,,,,"45.7","7","54.9","7","36.5","7"
"USC00304575","LANSING MANOR, NY US","42.4486","-74.4653","335.3","2019",,,,,,,,,,,,,"2.00"," ,7,1017, ","90","7,0731,+","6753","9","40.20"," ,7",,,,,"57.8","7",,
"USC00308932","WALTON 2, NY US","42.1847","-75.1455","451.1","2019","243",,,,,,"-15","7,0202, ",,,,,"2.40"," ,7,1017, ","88","7,0721,+","7536","5","52.97"," ,7",,,"44.6","7","56.1","7","33.0","7"
"US1NYDT0012","LAGRANGEVILLE 3.4 NE, NY US","41.6846","-73.7205","197.5","2019",,,,,"        11","N",,,,,"4.5"," ,N,0304, ","2.66"," ,N,1017, ",,,,,"51.51"," ,N","37.4"," ,N",,,,,,
"USC00305426","MOHONK LAKE, NY US","41.7681","-74.155","379.5","2019","665",,"       64",,"        13","7","-9","7,0131, ","13"," ,7,1203, ","6.0"," ,7,1202,+","2.79"," ,7,1017, ","93","7,0721, ","6192","3","51.56"," ,7","43.8"," ,7","49.9","7","58.4","7","41.4","7"
"USW00094790","WATERTOWN AIRPORT, NY US","43.98867","-76.02623","96.9","2019","331",,,,,,"-30","W,0122, ",,,,,"1.85"," ,W,1031, ","90","W,0704, ","7821","0","45.46"," ,W",,,"44.3","W","54.4","W","34.3","W"
"US1NYDT0010","POUGHKEEPSIE 3.9 SSE, NY US","41.647","-73.897","72.5","2019",,,,,"         9","N",,,,,"6.5"," ,N,1203,+","2.12"," ,N,1017, ",,,,,"45.84"," ,N","33.4"," ,N",,,,,,
"USC00303184","GENEVA RESEARCH FARM, NY US","42.8766","-77.0307","218.8","2019","423",,"       77",,"        17","7","-7","7,0122,+","12"," ,7,0121, ","9.0"," ,7,0120, ","1.76"," ,7,0819, ","91","7,0721, ","7203","6","38.96"," ,7","57.9"," ,7","46.3","7","54.8","7","37.8","7"
"USR0000NGAN","GANG MILLS NEW YORK, NY US","42.1","-77.1","335.3","2019","556",,,,,,"-9","U,0201,+",,,,,,,"94","U,0721,+","6274","5",,,,,"48.6","U","59.9","U","37.3","U"
"US1NYNS0042","ALBERTSON 0.2 SSE, NY US","40.769131","-73.647484","43.3","2019",,,,,,,,,,,,,,,,,,,"58.06"," ,N",,,,,,,,
"US1NYMD0016","CHITTENANGO 2.1 ESE, NY US","43.03297","-75.83482","208.2","2019",,,,,,,,,,,,,"2.14"," ,N,0620, ",,,,,"48.12"," ,N",,,,,,,,
"US1NYGN0006","STAFFORD 1.8 NE, NY US","42.9989","-78.0483","274.0","2019",,,,,,,,,,,,,"1.59"," ,N,0809, ",,,,,"42.92"," ,N",,,,,,,,
"US1NYNS0034","WANTAGH 0.3 ESE, NY US","40.666824","-73.505371","4.3","2019",,,,,,,,,,,,,"2.05"," ,N,1214, ",,,,,"54.65"," ,N",,,,,,,,
"USC00309593","WYOMING 3 W, NY US","42.82025","-78.14782","475.2","2019","277",,"      100",,"        40","7","-10","7,0121, ","15"," ,7,0120, ","12.8"," ,7,0120, ","2.01"," ,7,0621, ","86","7,0721, ","7724","4","47.13"," ,7","154.6"," ,7","44.5","7","52.8","7","36.2","7"
"USC00306085","NORWICH, NY US","42.5117","-75.5197","301.4","2019","320",,,,"        19","7","-16","7,0201, ",,,"8.0"," ,7,0120, ","1.78"," ,7,1101, ","90","7,0705, ","7265","0","48.72"," ,7","60.6"," ,7","45.5","7","56.8","7","34.2","7"
"US1NYRL0005","WEST NYACK 1.3 WSW, NY US","41.0835456848145","-73.9930267333984","81.7","2019",,,,,,,,,,,,,"3.78"," ,N,0723, ",,,,,"57.93"," ,N",,,,,,,,
"USC00300343","AVON, NY US","42.9203","-77.7557","166.1","2019","377",,"       63",,"        16","7","-6","7,0121, ","12"," ,7,0121,+","12.0"," ,7,0120, ","1.41"," ,7,0621, ","90","7,0711, ","7199","6","35.61"," ,7","52.2"," ,7","46.0","7","55.9","7","36.2","7"
"USC00305673","CATTARAUGUS, NY US","42.32449","-78.86701","413.0","2019",,,"       87",,"        34","7",,,"15"," ,7,0121,+","13.0"," ,7,0110, ","1.62"," ,7,1017, ",,,,,"55.58"," ,7","125.2"," ,7",,,,,,
"USW00094789","JFK INTERNATIONAL AIRPORT, NY US","40.63915","-73.76401","3.4","2019","1124",,"       10",,"         4","W","3","W,0131, ","3"," ,W,0302, ","3.2"," ,W,0302, ","2.07"," ,W,0723, ","99","W,0721,+","4852","7","52.03"," ,W","11.8"," ,W","54.7","W","61.7","W","47.6","W"
"USC00303851","HIGHMARKET 2 W, NY US","43.60514","-75.55438","549.9","2019","118",,"      129",,"        41","7","-24","7,0123,+","21"," ,7,0308, ","10.5"," ,7,0214, ","3.90"," ,7,1101, ","88","7,0705, ","9310","4","65.41"," ,7","148.9"," ,7","39.3","7","50.3","7","28.3","7"
"USC00306525","PERRYSBURG, NY US","42.4647","-79.003","368.8","2019","399",,"       90",,"        43","7","-5","7,0122, ","27"," ,7,0128, ","13.5"," ,7,0120, ","1.81"," ,7,1101, ","88","7,0711, ","6888","8","58.52"," ,7","178.5"," ,7","47.2","7","55.9","7","38.4","7"
"US1NYWC0022","SOUTH SALEM 0.8 N, NY US","41.284795","-73.552794","157.6","2019",,,"       28",,"         7","N",,,"9"," ,N,0304, ","9.7"," ,N,0304, ","3.34"," ,N,1017, ",,,,,"53.47"," ,N","25.8"," ,N",,,,,,
"USC00303050","FREEVILLE 1 NE, NY US","42.5192","-76.331","320.0","2019","329",,"       68",,"        23","7","-16","7,0201, ","13"," ,7,0122, ","10.0"," ,7,0120, ","1.92"," ,7,1101, ","90","7,0705, ","7412","0","41.74"," ,7","55.8"," ,7","45.2","7","55.1","7","35.3","7"
"US1NYPT0002","BEACON 4.2 ESE, NY US","41.4807","-73.8911","260.3","2019",,,,,,,,,,,,,"3.04"," ,N,1017, ",,,,,"47.15"," ,N",,,,,,,,
"US1NYMR0015","BROCKPORT 0.6 WNW, NY US","43.21615","-77.95253","117.7","2019",,,"       61",,"        22","N",,,"18"," ,N,0120, ","10.6"," ,N,1111, ","2.10"," ,N,1031, ",,,,,"38.44"," ,N","88.3"," ,N",,,,,,
"US1NYMD0009","EARLVILLE 0.4 W, NY US","42.739817","-75.55205","329.2","2019",,,,,,,,,,,,,"3.78"," ,N,1101, ",,,,,"47.64"," ,N",,,,,,,,
"USC00301309","CENTERPORT, NY US","40.88345","-73.37309","9.1","2019","933",,"       18",,"         6","7","3","7,0201,+","6"," ,7,0304, ","5.2"," ,7,0302, ","3.13"," ,7,1214, ","97","7,0722, ","5313","8","59.42"," ,7","20.4"," ,7","52.9","7","60.9","7","44.9","7"
"USC00309000","WATERTOWN, NY US","43.9761","-75.8753","151.5","2019","453",,"      107",,"        35","7","-18","7,0123,+","22"," ,7,0201, ","17.0"," ,7,0126, ","1.79"," ,7,1101, ","89","7,0706,+","7733","0","53.13"," ,7","159.6"," ,7","45.0","7","53.9","7","36.1","7"
"US1NYGR0013","TANNERSVILLE 4.5 SSE, NY US","42.138847","-74.086976","641.9","2019",,,,,,,,,,,,,"3.74"," ,N,1017, ",,,,,"63.80"," ,N",,,,,,,,
"US1NYDT0008","MILLBROOK 3.2 SE, NY US","41.7523","-73.6488","312.1","2019",,,,,,,,,,,,,"2.69"," ,N,1017, ",,,,,"50.56"," ,N",,,,,,,,
"USC00301787","CORNING, NY US","42.1341","-77.0691","349.6","2019","246",,,,,,"-12","7,0131, ",,,,,"2.22"," ,7,1101, ","89","7,0721, ","7554","5","40.15"," ,7",,,"44.5","7","54.6","7","34.3","7"
"USC00301664","COLTON 2 N, NY US","44.5842","-74.9573","176.8","2019","344",,,,,,"-22","7,0122, ",,,,,"1.57"," ,7,1018, ","90","7,0705, ","8516","0","41.03"," ,7",,,"42.4","7","52.7","7","32.1","7"
"USC00303961","HOOKER 12 NNW, NY US","43.8524","-75.7158","450.5","2019",,,"      162",,"        46","7",,,"44"," ,7,0201, ","13.5"," ,7,0201, ","1.90"," ,7,1101, ",,,,,"65.67"," ,7","202.5"," ,7",,,,,,
"USC00306774","PORT JERVIS, NY US","41.3891","-74.6905","176.8","2019","677",,"       48",,"        12","7","-17","7,0201,+","9"," ,7,1203, ","8.0"," ,7,1203, ","3.16"," ,7,0723, ","94","7,0722,+","6370","0","46.64"," ,7","39.0"," ,7","49.2","7","59.9","7","38.4","7"
"USC00300331","AURORA RESEARCH FARM, NY US","42.7338","-76.6591","253.0","2019","431",,"       73",,"        24","7","-5","7,0121, ","12"," ,7,0122,+","8.0"," ,7,1202,+","1.42"," ,7,0420, ","89","7,0705, ","7063","1","39.66"," ,7","53.1"," ,7","46.7","7","55.4","7","38.1","7"
"USC00307742","SHRUB OAK, NY US","41.3325","-73.837","140.8","2019","697",,"       30",,"         6","7","-3","7,0201, ","8"," ,7,0304, ","7.5"," ,7,0304, ","3.05"," ,7,1017, ","96","7,0722, ","5930","4","51.48"," ,7","24.2"," ,7","50.4","7","61.1","7","39.7","7"
"USC00309248","WESTMORELAND 4 N, NY US","43.1595","-75.4611","172.2","2019",,,"       95",,"        24","7",,,"13"," ,7,0121, ","7.8"," ,7,0120, ","2.92"," ,7,1101, ",,,,,"64.80"," ,7","86.0"," ,7",,,,,,
"USC00302197","DUNKIRK, NY US","42.4718","-79.33371","192.3","2019","544",,"       54",,"        19","7","-5","7,0131, ","18"," ,7,0128, ","11.8"," ,7,0120, ","2.28"," ,7,1101, ","90","7,0706,+","6680","0","46.73"," ,7","76.6"," ,7","48.3","7","57.5","7","39.0","7"
"US1NYER0050","EAST AURORA 0.1 ENE, NY US","42.7675","-78.6158","280.1","2019",,,,,,,,,,,,,"1.84"," ,N,1101, ",,,,,"47.15"," ,N",,,,,,,,
"US1NYWC0011","PEEKSKILL 0.4 N, NY US","41.2944183349609","-73.9229278564453","54.6","2019",,,,,,,,,,,,,"3.30"," ,N,1017, ",,,,,"52.83"," ,N",,,,,,,,
"US1NYWC0018","ARMONK 0.3 SE, NY US","41.12996","-73.708161","117.3","2019",,,"       24",,"         7","N",,,"10"," ,N,0304, ","9.0"," ,N,0304, ","3.16"," ,N,0723, ",,,,,"56.04"," ,N","25.2"," ,N",,,,,,
"USC00307749","SILVER SPRINGS 3 N, NY US","42.7058","-78.0937","508.1","2019",,,"      102",,"        29","7",,,"11"," ,7,1218, ","8.0"," ,7,0120, ","1.45"," ,7,1215, ",,,,,"39.88"," ,7","87.8"," ,7",,,,,,
"USC00304912","LOWVILLE, NY US","43.7929","-75.4829","263.0","2019","271",,"      123",,"        39","7","-20","7,0123, ","22"," ,7,0201, ","11.0"," ,7,0120, ","2.45"," ,7,1101, ","88","7,0717,+","8140","0","44.84"," ,7","141.0"," ,7","43.2","7","53.2","7","33.2","7"
"US1NYER0059","KENMORE 0.3 ESE, NY US","42.963156","-78.866894","186.5","2019",,,"       63",,"        23","N",,,"23"," ,N,0201, ","15.7"," ,N,0130, ","2.67"," ,N,0821, ",,,,,"44.98"," ,N","92.7"," ,N",,,,,,
"US1NYSR0006","GANSEVOORT 1.3 WNW, NY US","43.2003","-73.6755","90.2","2019",,,,,"        16","N",,,,,"12.2"," ,N,0120, ","2.54"," ,N,0415, ",,,,,"52.26"," ,N","74.5"," ,N",,,,,,
"US1NYER0057","KENMORE 0.8 NW, NY US","42.973478","-78.881651","185.0","2019",,,,,,,,,,,,,"2.91"," ,N,0821, ",,,,,"47.20"," ,N",,,,,,,,
"US1NYOG0052","SYRACUSE 2.7 S, NY US","43.001525","-76.139518","131.1","2019",,,,,,,,,,,,,"1.59"," ,N,1101, ",,,,,"49.84"," ,N",,,,,,,,
"USC00303955","HONEOYE, NY US","42.79148","-77.51331","243.8","2019","390",,"       68",,"        17","7","-6","7,0121, ","12"," ,7,0122,+","9.0"," ,7,0120, ","1.76"," ,7,0621, ","91","7,0722, ","6926","8","39.95"," ,7","52.2"," ,7","46.8","7","57.2","7","36.4","7"
"USC00306660","PLATTSBURGH 1 S, NY US","44.6918","-73.4556","54.3","2019",,,"       64",,"         9","7",,,"13"," ,7,0122,+","13.0"," ,7,0120, ",,,,,,,"33.18"," ,7","43.0"," ,7",,,,,,
"USC00307750","SILVER CREEK, NY US","42.53806","-79.16991","182.9","2019",,,"       57",,"        19","7",,,"17"," ,7,0128, ","10.0"," ,7,0120, ","2.65"," ,7,0902, ",,,,,"45.70"," ,7","88.1"," ,7",,,,,,
"US1NYGR0006","FREEHOLD 3.4 E, NY US","42.36045","-73.983468","229.8","2019",,,,,,,,,,,,,"3.31"," ,N,1017, ",,,,,"45.71"," ,N",,,,,,,,
"USC00300321","AUBURN, NY US","42.9327","-76.5447","234.7","2019","443",,"       87",,"        32","7","-4","7,0131,+","14"," ,7,0122, ","9.1"," ,7,0120, ","1.94"," ,7,0717, ","92","7,0721, ","7103","2","50.55"," ,7","117.8"," ,7","46.8","7","56.0","7","37.6","7"
"USC00300684","BINGHAMTON WEATHER FORECAST OFFICE, NY US","42.2116","-75.9858","487.7","2019",,,"       88",,"        24","7",,,"13"," ,7,0122,+","9.6"," ,7,1202, ",,,,,,,,,"74.2"," ,7",,,,,,
"USC00308962","WARSAW 6 SW, NY US","42.6855","-78.2202","554.7","2019","286",,"      104",,"        39","7","-15","7,0121, ","16"," ,7,0128, ","13.0"," ,7,0120, ","1.44"," ,7,0818, ","86","7,0711, ","7925","6","48.32"," ,7","143.7"," ,7","44.0","7","52.6","7","35.4","7"
"US1NYDL0032","DELHI 6.6 WNW, NY US","42.321181","-75.029912","616.3","2019",,,,,"        33","N",,,,,"9.0"," ,N,0120, ","2.49"," ,N,1017, ",,,,,"52.64"," ,N","109.0"," ,N",,,,,,
"USC00300443","BATAVIA, NY US","43.02966","-78.16822","278.3","2019","533",,"       70",,"        28","7","-18","7,0121, ","13"," ,7,0131,+","10.0"," ,7,1112,+","1.50"," ,7,1101, ","90","7,0711, ","7032","8","40.19"," ,7","95.6"," ,7","47.0","7","56.4","7","37.6","7"
"USC00306300","OSCEOLA, NY US","43.50379","-75.72177","335.6","2019",,,"      138",,"        54","7",,,"32"," ,7,0308, ","10.0"," ,7,0120, ","3.16"," ,7,0712, ",,,,,"71.17"," ,7","217.1"," ,7",,,,,,
"USC00308721","UPTON COOP NWSFO NEW YORK, NY US","40.8656","-72.8643","24.4","2019","689",,"       14",,"         6","7","3","7,0201,+","3"," ,7,0304,+","2.6"," ,7,0304,+","2.37"," ,7,1214, ","96","7,0722, ","5660","3","52.15"," ,7","14.4"," ,7","51.2","7","60.1","7","42.2","7"
