"STATION","NAME","LATITUDE","LONGITUDE","ELEVATION","DATE","CDSD","CDSD_ATTRIBUTES","DSND","DSND_ATTRIBUTES","DSNW","DSNW_ATTRIBUTES","EMNT","EMNT_ATTRIBUTES","EMSD","EMSD_ATTRIBUTES","EMSN","EMSN_ATTRIBUTES","EMXP","EMXP_ATTRIBUTES","EMXT","EMXT_ATTRIBUTES","HDSD","HDSD_ATTRIBUTES","PRCP","PRCP_ATTRIBUTES","SNOW","SNOW_ATTRIBUTES","TAVG","TAVG_ATTRIBUTES","TMAX","TMAX_ATTRIBUTES","TMIN","TMIN_ATTRIBUTES"
"USR0000OBAL","BALD MOUNTAIN OREGON, OR US","43.5556","-118.4042","1670.3","2019","373",,,,,,"6","U,0207,+",,,,,,,"91","U,0804, ","7371","2",,,,,"45.4","U","54.2","U","36.6","U"
"USC00354622","LA GRANDE, OR US","45.3167","-118.0747","839.7","2019","483",,,,,,"1","7,0208,+",,,,,,,"98","7,0830, ",,,,,,,"48.9","7","61.4","7","36.4","7"
"USC00350265","ARLINGTON, OR US","45.7212","-120.2064","84.4","2019","949",,,,,,"7","7,0305, ",,,,,"0.54"," ,7,0119, ","103","7,0808, ","5104","6","9.15"," ,7",,,"52.8","7","62.4","7","43.1","7"
"USC00350145","ALSEA FH FALL CREEK, OR US","44.4044","-123.7533","70.1","2019","32",,,,,,"23","7,1201,+",,,,,"2.60"," ,7,0407, ","91","7,0613, ","5558","0","70.07"," ,7",,,"49.4","7","58.6","7","40.2","7"
"USR0000OFIS","FISH FIN RIM OREGON, OR US","42.4722","-119.1783","1493.5","2019","423",,,,,,"-3","U,1129, ",,,,,,,"96","U,0805, ","6669","9",,,,,"47.2","U","60.3","U","34.2","U"
"US1ORMN0060","KEIZER 1.4 SSW, OR US","44.986689","-123.034049","43.3","2019",,,,,,,,,,,,,"1.50"," ,N,0407, ",,,,,"31.88"," ,N",,,,,,,,
"USC00353770","HEADWORKS PORTLAND WATER B, OR US","45.4486","-122.1547","228.0","2019","149",,"        1",,"         4","7","22","7,0210, ","1"," ,7,0306, ","3.0"," ,7,0209, ","1.45"," ,7,0118, ","100","7,0828,+","5171","7","58.16"," ,7","8.5"," ,7","50.7","7","57.5","7","43.8","7"
"USS0020G12S","CRAZYMAN FLAT, OR US","42.64","-120.95","1883.7","2019","0",,"      163",,,,"-16","T,0222, ","72"," ,T,0309,+",,,"1.50"," ,T,0225, ","85","T,0827, ","9067","4","34.93"," ,T",,,"39.9","T","55.1","T","24.7","T"
"USR0000OBAS","BASQUE HILLS OREGON, OR US","42.2547","-118.9792","1548.4","2019","576",,,,,,"7","U,1128, ",,,,,,,"95","U,0828,+","6302","9",,,,,"48.7","U","59.1","U","38.4","U"
"US1ORJS0024","CAVE JUNCTION 0.4 ENE, OR US","42.170737","-123.637524","424.3","2019",,,,,,,,,,,,,"3.84"," ,N,0120, ",,,,,"58.36"," ,N",,,,,,,,
"USC00352325","DILLEY 2 S, OR US","45.4633","-123.1135","59.1","2019",,,"        1",,"         3","7",,,"1"," ,7,0210, ","2.1"," ,7,0210, ","3.02"," ,7,0212, ",,,,,"32.31"," ,7","5.2"," ,7",,,,,,
"USR0000OVIL","VILLAGE CREEK OREGON, OR US","44.2525","-123.4639","457.2","2019","270",,,,,,"20","U,0304, ",,,,,,,"96","U,0827,+","4817","3",,,,,"51.9","U","60.7","U","43.2","U"
"US1ORJS0017","MERLIN 1.7 N, OR US","42.542016","-123.426328","324.6","2019",,,,,,,,,,,,,"2.62"," ,N,0120, ",,,,,"41.21"," ,N",,,,,,,,
"USS0021G17S","SUN PASS, OR US","42.79","-121.98","1645.9","2019","17",,"      161",,,,"7","T,0222, ","89"," ,T,0227,+",,,"2.50"," ,T,0119, ","85","T,0827, ","7682","6","41.03"," ,T",,,"43.3","T","53.9","T","32.7","T"
"US1ORJS0016","GRANTS PASS 9.5 W, OR US","42.4489","-123.5106","342.0","2019",,,,,,,,,,,,,"3.70"," ,N,0225, ",,,,,"50.05"," ,N",,,,,,,,
"US1ORLA0038","SPRINGFIELD 8.3 NNE, OR US","44.1603","-122.9017","186.5","2019",,,,,,,,,,,,,"2.08"," ,N,0408, ",,,,,"51.50"," ,N",,,,,,,,
"US1ORLA0036","CRESWELL 0.4 SE, OR US","43.9147","-123.0119","165.5","2019",,,,,,,,,,,,,"2.43"," ,N,0407, ",,,,,"39.24"," ,N",,,,,,,,
"USR0000OFIE","FIELDS OREGON, OR US","43.6806","-122.3019","1028.1","2019","185",,,,,,"16","U,0210, ",,,,,,,"96","U,0827, ","5519","1",,,,,"49.9","U","59.5","U","40.4","U"
"US1ORJS0018","APPLEGATE 8.3 SSW, OR US","42.139896","-123.236251","711.4","2019",,,,,,,,,,,,,"2.45"," ,N,0120, ",,,,,"40.04"," ,N",,,,,,,,
"USR0000OBAD","BADGER CREEK OREGON, OR US","44.03","-120.4","1731.3","2019","114",,,,,,"4","U,0210,+",,,,,,,"90","U,0828, ","8023","2",,,,,"42.8","U","53.2","U","32.4","U"
"USR0000OFIN","FINELY NWR OREGON, OR US","44.4183","-123.3253","93.9","2019","314",,,,,,"20","U,1130, ",,,,,,,"99","U,0827, ","4636","5",,,,,"52.9","U","63.0","U","42.8","U"
"USC00353542","GRIZZLY, OR US","44.5175","-120.9389","1107.9","2019",,,,,,,"0","H,0227,+",,,,,,,"96","H,0808, ",,,,,,,"45.1","H","59.8","H","30.4","H"
"USS0019F01S","SNOW MOUNTAIN, OR US","43.95","-119.54","1898.9","2019","23",,,,,,"2","T,0207, ",,,,,"1.10"," ,T,0519, ","85","T,0828, ","8976","6","30.75"," ,T",,,"40.0","T","49.3","T","30.8","T"
"USC00352693","ESTACADA 2 SE, OR US","45.2695","-122.3168","156.7","2019","310",,,,,,"22","7,0208,+",,,,,"1.49"," ,7,0408,+","101","7,0828, ",,,"40.81"," ,7",,,"53.1","7","63.5","7","42.8","7"
"US1ORJS0010","GRANTS PASS 6.1 SSE, OR US","42.35725","-123.2899667","489.5","2019",,,,,,,,,,,,,"2.68"," ,N,0120, ",,,,,"35.24"," ,N",,,,,,,,
"USS0018D04S","EMIGRANT SPRINGS, OR US","45.56","-118.45","1158.2","2019","147",,"      112",,,,"7","T,0207, ","42"," ,T,0228,+",,,"1.40"," ,T,0411, ","89","T,0806, ","6844","1","32.24"," ,T",,,"46.3","T","54.6","T","38.1","T"
"USR0000OSAL","SALT CREEK PRINVILLE OREGON, OR US","44.0444","-120.6661","1728.2","2019","259",,,,,,"5","U,0207, ",,,,,,,"96","U,0807, ","6615","0",,,,,"47.0","U","58.5","U","35.6","U"
"USS0021G16S","SWAN LAKE MOUNTAIN, OR US","42.41","-121.68","2081.8","2019","6",,"      180",,,,"5","T,0222, ","88"," ,T,0310,+",,,"2.00"," ,T,0213, ","80","T,0827, ","8316","0","40.66"," ,T",,,"41.4","T","49.7","T","33.2","T"
"US1ORLA0169","ELMIRA 3.9 WNW, OR US","44.0826110839844","-123.430923461914","135.0","2019",,,"       13",,"         2","N",,,"8"," ,N,0225, ","8.0"," ,N,0225, ","2.53"," ,N,0407, ",,,,,"47.36"," ,N","11.0"," ,N",,,,,,
"USS0021G04S","GERBER RESERVOIR, OR US","42.21","-121.13","1490.5","2019","141",,"       89",,,,"-1","T,0222, ","13"," ,T,0226, ",,,"0.80"," ,T,1213,+","90","T,0827, ","6943","0","18.04"," ,T",,,"46.2","T","57.6","T","34.9","T"
"US1ORLA0167","COTTAGE GROVE 7.0 SSE, OR US","43.7120819091797","-122.979354858398","257.6","2019",,,,,,,,,,,,,"2.31"," ,N,0408, ",,,,,"43.15"," ,N",,,,,,,,
"US1ORBN0085","CORVALLIS 2.7 SSE, OR US","44.53262","-123.26175","72.8","2019",,,,,,,,,,,,,"1.68"," ,N,0224, ",,,,,"33.87"," ,N",,,,,,,,
"US1ORCY0001","BROOKINGS 4.2 ENE, OR US","42.0706666","-124.2101666","20.4","2019",,,"        1",,"         1","N",,,"1"," ,N,0210, ","1.6"," ,N,0210, ","10.37"," ,N,0408, ",,,,,"111.54"," ,N","2.4"," ,N",,,,,,
"US1ORMT0006","PORTLAND 2.5 SE, OR US","45.5116","-122.6201","49.7","2019",,,,,,,,,,,,,"1.15"," ,N,0407, ",,,,,"31.48"," ,N",,,,,,,,
"USC00353995","HONEYMAN STATE PARK, OR US","43.928","-124.1069","35.1","2019","20",,"        0",,"         0","7","25","7,0304, ","0"," ,7,1231,+","0.1"," ,7,0209, ",,,"86","7,0612,+","4982","7","62.33"," ,7","0.1"," ,7","51.2","7","58.2","7","44.3","7"
"USR0000OCAL","CALVERT PEAK OREGON, OR US","42.7778","-123.7294","1164.9","2019","128",,,,,,"19","U,0226,+",,,,,,,"94","U,0827,+","5776","7",,,,,"48.9","U","57.4","U","40.4","U"
"USS0020G02S","SUMMER RIM, OR US","42.7","-120.8","2158.0","2019","15",,"      164",,,,"5","T,0222, ","63"," ,T,0309, ",,,"2.40"," ,T,0612, ","79","T,0904, ","8478","2","29.43"," ,T",,,"41.3","T","48.8","T","33.9","T"
"USC00351574","CHILOQUIN 12 NW FORT KLAMATH, OR US","42.7036","-121.9952","1274.1","2019",,,,,,,,,,,,,,,,,"7207","8",,,,,,,,,,
"USR0000OCAN","CANNIBAL MOUNTAIN OREGON, OR US","44.3489","-123.8853","593.1","2019","65",,,,,,"23","U,0304, ",,,,,,,"94","U,0827, ","5389","8",,,,,"50.0","U","57.2","U","42.8","U"
"US1ORCY0018","PORT ORFORD 1.5 ESE, OR US","42.74196","-124.4687","36.3","2019",,,,,,,,,,,,,"3.88"," ,N,0225, ",,,,,"75.89"," ,N",,,,,,,,
"USS0019E03S","DERR., OR US","44.45","-119.93","1783.1","2019","42",,"      162",,,,"1","T,0210, ","68"," ,T,0227,+",,,"1.70"," ,T,0224, ","86","T,0828, ","8328","9","32.15"," ,T",,,"41.7","T","50.4","T","33.0","T"
"USR0000OCAS","CASE OREGON, OR US","44.9711","-118.9297","1158.2","2019","195",,,,,,"-2","U,0207, ",,,,,,,"94","U,0828,+","7093","4",,,,,"45.9","U","57.5","U","34.3","U"
"USC00354606","LACOMB 3 NNE, OR US","44.625","-122.7191","158.5","2019","145",,,,,,"20","7,0306,+",,,,,"2.10"," ,7,0909, ","100","7,0828, ",,,"49.95"," ,7",,,"50.5","7","61.3","7","39.7","7"
"USR0000OSAG","SAGE HEN OREGON, OR US","43.5097","-119.2925","1341.1","2019","286",,,,,,"-6","U,1130, ",,,,,,,"95","U,0807, ","7503","4",,,,,"45.0","U","57.5","U","32.4","U"
"US1ORCK0001","PAULINA 6.0 ESE, OR US","44.1214","-119.848","1204.6","2019",,,,,,,,,,,,,"0.99"," ,N,0520, ",,,,,"15.04"," ,N",,,,,,,,
"USR0000OWIL","WILKINSON RIDGE OREGON, OR US","44.3325","-123.7164","457.2","2019","171",,,,,,"23","U,0304, ",,,,,,,"97","U,0827, ","4906","7",,,,,"51.4","U","59.2","U","43.5","U"
"USR0000OYLP","YELLOWPINE OREGON, OR US","44.5264","-118.3231","1402.1","2019","208",,,,,,"-2","U,0207, ",,,,,,,"95","U,0828, ","7814","4",,,,,"43.7","U","55.8","U","31.6","U"
"USC00358095","STAYTON, OR US","44.7894","-122.815","129.5","2019",,,,,,,,,,,,,,,,,"4842","1",,,,,,,,,,
"US1ORLA0176","NIMROD 0.3 SSW, OR US","44.109859","-122.424842","296.6","2019",,,,,,,,,,,,,"3.10"," ,N,0408, ",,,,,"53.14"," ,N",,,,,,,,
"USR0000OCAB","CABIN LAKE OREGON, OR US","43.5","-121.05","1385.3","2019","42",,,,,,"-8","U,0222, ",,,,,,,"93","U,0828,+","8081","3",,,,,"42.9","U","58.9","U","26.9","U"
"US1ORCY0014","GOLD BEACH 11.1 NNE, OR US","42.5652656","-124.3518815","32.3","2019",,,,,,,,,,,,,"5.15"," ,N,0225, ",,,,,"81.22"," ,N",,,,,,,,
"US1ORCY0016","BROOKINGS 3.4 N, OR US","42.1087","-124.3036","267.6","2019",,,,,,,,,,,,,"7.41"," ,N,0225, ",,,,,"107.75"," ,N",,,,,,,,
"US1ORLA0051","EUGENE 2.5 SW, OR US","44.0231","-123.1403","249.0","2019",,,"       15",,"         4","N",,,"22"," ,N,0227, ","11.4"," ,N,0225, ","2.57"," ,N,0225, ",,,,,"42.37"," ,N","24.6"," ,N",,,,,,
"USR0000OCAI","CALIMUS OREGON, OR US","42.6314","-121.5597","2020.5","2019","104",,,,,,"9","U,0222,+",,,,,,,"85","U,0827, ","8045","6",,,,,"42.5","U","50.4","U","34.6","U"
"USR0000OMUT","MUTTON MOUNTAIN OREGON, OR US","44.9258","-121.1944","1249.7","2019","252",,,,,,"7","U,0303, ",,,,,,,"92","U,0807, ","6852","6",,,,,"46.3","U","54.3","U","38.4","U"
"USC00353522","GRESHAM 2 SW, OR US","45.4803","-122.4663","137.2","2019",,,,,,,,,,,,,,,,,"4334","8",,,,,,,,,,
"USR0000OMTW","MOUNT WILSON OREGON, OR US","45.03","-121.6278","1152.1","2019","93",,,,,,"5","U,0304, ",,,,,,,"94","U,0828,+","7364","9",,,,,"44.7","U","54.6","U","34.8","U"
"USR0000OMTY","MOUNT YONCALLA OREGON, OR US","43.6389","-123.3258","609.6","2019","224",,,,,,"18","U,0304, ",,,,,,,"95","U,0827, ","4683","8",,,,,"51.9","U","61.0","U","42.8","U"
"USC00355945","NATURE PARK BEAVERTON, OR US","45.498","-122.8394","56.4","2019",,,"        0",,"         1","7",,,"0"," ,7,1231,+","1.0"," ,7,0205, ","1.65"," ,7,0212, ",,,,,"29.57"," ,7","1.0"," ,7",,,,,,
"USC00353402","GOVERNMENT CAMP, OR US","45.3008","-121.7425","1213.1","2019","33",,"      155",,"        56","7","7","7,0304,+","83"," ,7,0314, ","13.0"," ,7,0220, ","2.16"," ,7,0406, ","85","7,0829,+","8122","5","63.47"," ,7","188.4"," ,7","42.0","7","49.5","7","34.5","7"
"US1ORLA0068","COTTAGE GROVE 6.8 SSE, OR US","43.7088","-122.9808","273.7","2019",,,,,,,,,,,,,"2.69"," ,N,0225, ",,,,,"42.47"," ,N",,,,,,,,
"USR0000OEDE","EDEN OREGON, OR US","45.9267","-117.5883","1280.2","2019","369",,,,,,"0","U,0207, ",,,,,,,"97","U,0806, ","6678","1",,,,,"47.2","U","57.5","U","36.9","U"
"US1ORBN0062","CORVALLIS 6.5 N, OR US","44.6644325256348","-123.292030334473","145.1","2019",,,,,,,,,,,,,,,,,,,"44.47"," ,N",,,,,,,,
"USR0000OILL","ILLINOIS VALLEY AIRPORT OREGON, OR US","42.1039","-123.6853","423.4","2019","450",,,,,,"19","U,0102, ",,,,,,,"105","U,0827, ","4499","4",,,,,"53.3","U","67.1","U","39.4","U"
"US1ORLA0180","SPRINGFIELD 2.8 SW, OR US","44.0283088684082","-123.022666931152","137.5","2019",,,,,,,,,,,,,"2.44"," ,N,0225, ",,,,,"38.96"," ,N",,,,,,,,
"USR0000OECK","ELK CREEK OREGON, OR US","44.7578","-117.9711","2004.4","2019","83",,,,,,"1","U,0207,+",,,,,,,"86","U,0828,+","9091","7",,,,,"39.8","U","47.9","U","31.7","U"
"US1ORLN0012","LYONS 1.6 SSW, OR US","44.757059","-122.624461","518.2","2019",,,,,,,,,,,,,"1.77"," ,N,0407, ",,,,,"48.08"," ,N",,,,,,,,
"USR0000OOWY","OWYHEE RIDGE OREGON, OR US","43.5833","-117.2333","1341.1","2019","624",,,,,,"9","U,0207, ",,,,,,,"94","U,0722, ","6515","5",,,,,"48.5","U","56.9","U","40.2","U"
"USS0020E02S","OCHOCO MEADOWS, OR US","44.43","-120.33","1655.1","2019","46",,"      150",,,,"2","T,0210, ","56"," ,T,0227,+",,,"1.40"," ,T,0224, ","85","T,0807, ","7963","2","29.25"," ,T",,,"42.8","T","51.1","T","34.4","T"
"USC00355638","MITCHELL 2 E, OR US","44.5681","-120.1156","1011.9","2019","167",,,,,,"5","7,0304, ",,,,,"1.35"," ,7,0520, ","92","7,0808, ","6700","4","19.78"," ,7",,,"46.8","7","58.1","7","35.5","7"
"USS0018F01S","ROCK SPRINGS, OR US","44.01","-118.84","1612.4","2019","134",,"      136",,,,"1","T,0207, ","37"," ,T,0226, ",,,"1.30"," ,T,0526, ","89","T,0828, ","7725","8","24.85"," ,T",,,"43.8","T","53.5","T","34.1","T"
"US1ORLA0114","COTTAGE GROVE 2.6 E, OR US","43.8031","-123.0032","247.2","2019",,,,,,,,,,,,,"3.45"," ,N,0225, ",,,,,"44.70"," ,N",,,,,,,,
"USS0018D19S","HIGH RIDGE, OR US","45.7","-118.11","1499.6","2019","40",,"      219",,,,"1","T,0206, ","94"," ,T,0225,+",,,"2.00"," ,T,1019, ","85","T,0806, ","8337","5","47.14"," ,T",,,"41.8","T","49.0","T","34.7","T"
"USS0018E16S","BLUE MOUNTAIN SPRING, OR US","44.25","-118.52","1789.2","2019","49",,"      180",,,,"-1","T,0207, ","83"," ,T,0225, ",,,"1.40"," ,T,0224, ","88","T,0828, ","8412","2","34.93"," ,T",,,"41.7","T","51.8","T","31.6","T"
"USR0000OHIG","HIGH POINT OREGON, OR US","43.9064","-123.3794","589.8","2019","170",,,,,,"18","U,0304, ",,,,,,,"95","U,0612, ","5243","9",,,,,"50.3","U","58.1","U","42.5","U"
"USS0021E07S","MCKENZIE, OR US","44.21","-121.87","1453.9","2019","0",,"      188",,,,"-6","T,1130, ","118"," ,T,0225, ",,,"4.40"," ,T,0407, ","87","T,0828, ","8500","0","75.67"," ,T",,,"41.3","T","53.3","T","29.3","T"
"USC00350197","ANTELOPE 6 SSW, OR US","44.8197","-120.7533","923.5","2019","270",,,,,,"6","7,0207, ",,,,,"0.95"," ,7,0520, ","97","7,0808, ","6592","2","15.87"," ,7",,,"46.7","7","58.2","7","35.2","7"
"USC00357823","SILVERTON, OR US","45.0058","-122.7739","124.4","2019","312",,"        0",,"         1","7","21","7,0305,+","0"," ,7,1231,+","2.0"," ,7,0205, ","1.29"," ,7,0407, ","99","7,0828, ","4620","6","36.24"," ,7","2.3"," ,7","52.4","7","61.2","7","43.6","7"
"USW00024221","EUGENE MAHLON SWEET FIELD, OR US","44.1278","-123.2206","107.6","2019","334",,"        5",,"         3","W","20","W,1129, ","9"," ,H,0228, ","9.5"," ,W,0225, ","2.34"," ,W,0407, ","101","W,0827, ","4476","5","36.32"," ,W","19.1"," ,W","53.0","W","63.8","W","42.3","W"
"US1ORLN0020","LYONS 2.1 S, OR US","44.747519","-122.606872","507.8","2019",,,,,"        17","N",,,,,"8.0"," ,N,0309, ","2.56"," ,N,0407, ",,,,,"59.22"," ,N","51.9"," ,N",,,,,,
"USC00352374","DORENA, OR US","43.7822","-122.963","249.9","2019","175",,,,,,"20","7,0131, ",,,,,,,"97","7,0827, ",,,,,,,"51.2","7","62.0","7","40.5","7"
"USW00024229","PORTLAND INTERNATIONAL AIRPORT, OR US","45.5958","-122.6093","5.8","2019","542",,"        5",,"         1","W","23","W,0207,+","3"," ,W,0209, ","4.9"," ,W,0209, ","1.11"," ,W,0118, ","98","W,0828,+","3993","3","26.70"," ,W","7.0"," ,W","54.8","W","63.2","W","46.3","W"
"USW00024225","MEDFORD INTERNATIONAL AIRPORT, OR US","42.37505","-122.8771","400.2","2019","902",,"        1",,"         2","W","23","W,0219, ","1"," ,W,0217, ","4.1"," ,W,0226, ","1.58"," ,W,0119, ","105","W,0827, ","4099","4","20.35"," ,W","6.8"," ,W","55.8","W","68.0","W","43.6","W"
"US1ORLA0129","SPRINGFIELD 2.1 NW, OR US","44.0717","-123.0101","137.5","2019",,,,,,,,,,,,,"2.22"," ,N,0225, ",,,,,"41.06"," ,N",,,,,,,,
"US1ORLA0007","EUGENE 3.2 NNE, OR US","44.0975","-123.0936","119.2","2019",,,,,,,,,,,,,"1.78"," ,N,0918, ",,,,,"40.37"," ,N",,,,,,,,
"USS0018D08S","CO LINE, OR US","45.19","-118.55","1472.2","2019","85",,"      121",,,,"6","T,0207, ","36"," ,T,0226,+",,,"1.10"," ,T,0526, ","89","T,0806, ","7584","2","23.43"," ,T",,,"44.0","T","52.6","T","35.4","T"
"US1ORLA0122","SPRINGFIELD 1.5 SE, OR US","44.0344","-122.9579","149.0","2019",,,,,,,,,,,,,"2.33"," ,N,0225, ",,,,,"38.48"," ,N",,,,,,,,
"US1ORUM0027","PENDLETON 4.0 SSE, OR US","45.618483","-118.795004","378.3","2019",,,,,,,,,,,,,"1.36"," ,N,0812, ",,,,,"15.61"," ,N",,,,,,,,
"USS0018E05S","BOURNE, OR US","44.83","-118.19","1783.1","2019","60",,"      169",,,,"4","T,0207, ","74"," ,T,0225, ",,,"1.00"," ,T,0407, ","83","T,0828, ","8267","8","31.34"," ,T",,,"42.0","T","49.9","T","34.1","T"
"USS0021E06S","HOGG PASS, OR US","44.42","-121.86","1460.0","2019","13",,"      167",,,,"5","T,0222, ","97"," ,T,0225, ",,,"2.50"," ,T,0407, ","85","T,0828, ","8101","8","54.06"," ,T",,,"42.2","T","50.2","T","34.2","T"
"USS0019E07S","STARR RIDGE, OR US","44.26","-119.02","1600.2","2019","149",,"      138",,,,"2","T,0207, ","43"," ,T,0226, ",,,"0.90"," ,T,0408, ","91","T,0828, ","7528","1","22.55"," ,T",,,"44.3","T","53.9","T","34.7","T"
"US1ORMT0024","RALEIGH HILLS 2.1 ESE, OR US","45.468982","-122.716503","143.3","2019",,,,,,,,,,,,,"1.19"," ,N,0407, ",,,,,"32.46"," ,N",,,,,,,,
"US1ORCC0008","OREGON CITY 5.5 ESE, OR US","45.3131","-122.4928","130.1","2019",,,,,,,,,,,,,"1.59"," ,N,0407, ",,,,,"39.97"," ,N",,,,,,,,
"USC00355971","NEHALEM 9 NE, OR US","45.8127","-123.7752","42.7","2019",,,,,,,,,,,,,"3.83"," ,7,0212, ",,,,,"79.74"," ,7",,,,,,,,
"US1ORMT0020","TROUTDALE 4.2 ESE, OR US","45.510864","-122.31335","128.3","2019",,,,,,,,,,,,,"1.52"," ,N,0119, ",,,,,"42.06"," ,N",,,,,,,,
"USR0000OGER","GERBER RESERVOIR OREGON, OR US","42.2056","-121.1389","1499.6","2019","175",,,,,,"-3","U,0222, ",,,,,,,"94","U,0827, ","7039","4",,,,,"46.0","U","59.1","U","32.9","U"
"US1ORCC0003","CANBY 0.2 S, OR US","45.2008","-122.6375","57.3","2019",,,,,,,,,,,,,,,,,,,"34.02"," ,N",,,,,,,,
"US1ORLA0019","DEXTER 1 W, OR US","43.9172","-122.8244","202.4","2019",,,,,"         2","N",,,,,"2.0"," ,N,0205, ","2.65"," ,N,0408, ",,,,,"39.27"," ,N","4.3"," ,N",,,,,,
"USC00354403","KENO, OR US","42.09454","-121.90211","1258.2","2019","208",,"       42",,"        21","7","3","7,0222, ","9"," ,7,1201, ","9.0"," ,7,0227, ","1.15"," ,7,0214, ","94","7,0729,+","6744","7","18.26"," ,7","63.1"," ,7","46.8","7","61.3","7","32.2","7"
"USC00355734","MORO, OR US","45.4825","-120.7236","570.0","2019","285",,,,,,"0","7,0209,+",,,,,"0.75"," ,7,0119, ","98","7,0807, ",,,"9.52"," ,7",,,"47.6","7","58.4","7","36.8","7"
"USS0021G03S","TAYLOR BUTTE, OR US","42.69","-121.43","1533.1","2019","16",,"      137",,,,"-2","T,0222, ","32"," ,T,0227,+",,,"1.10"," ,T,0213, ","89","T,0827, ","7453","5","24.35"," ,T",,,"44.2","T","57.8","T","30.6","T"
"US1ORLA0013","EUGENE 3.2 N, OR US","44.099","-123.1222","121.3","2019",,,,,,,,,,,,,,,,,,,"36.81"," ,N",,,,,,,,
"USR0000OLOG","LOG CREEK OREGON, OR US","45.51","-121.9031","762.0","2019","87",,,,,,"14","U,0304,+",,,,,,,"90","U,0828,+","6557","8",,,,,"46.7","U","54.0","U","39.3","U"
"US1ORLA0130","MCKENZIE BRIDGE 1 N, OR US","44.1783","-122.1625","417.0","2019",,,,,,,,,,,,,"3.63"," ,N,0408, ",,,,,"60.05"," ,N",,,,,,,,
"USC00352112","DALLAS 2 NE, OR US","44.9464","-123.2911","88.4","2019","262",,"        4",,"         4","7","19","7,1130, ","3"," ,7,0225, ","3.0"," ,7,0225, ","1.56"," ,7,0407, ","97","7,0828, ","4557","7","34.18"," ,7","7.5"," ,7","52.6","7","62.7","7","42.4","7"
"US1ORLN0001","LEBANON 4.8 E, OR US","44.544","-122.807","131.7","2019",,,,,"         5","N",,,,,"2.3"," ,N,0225, ","2.08"," ,N,0224, ",,,,,"43.60"," ,N","10.3"," ,N",,,,,,
"USS0017D02S","ANEROID LAKE NUMBER 2, OR US","45.21","-117.19","2255.5","2019","0",,"      280",,,,"-9","T,0207, ","76"," ,T,0328, ",,,"1.20"," ,T,0420, ","76","T,0722, ","10691","5","43.03"," ,T",,,"35.4","T","44.3","T","26.5","T"
"US1ORCC0019","COLTON 1 E, OR US","45.1725","-122.4375","214.0","2019",,,,,,,,,,,,,"1.36"," ,N,0408, ",,,,,"40.16"," ,N",,,,,,,,
"US1ORMT0033","PORTLAND 0.8 ENE, OR US","45.541609","-122.64009","48.2","2019",,,,,,,,,,,,,"1.23"," ,N,0119, ",,,,,"31.69"," ,N",,,,,,,,
"US1ORLN0008","BROWNSVILLE 3.0 NW, OR US","44.418729","-123.030401","123.1","2019",,,,,,,,,,,,,"1.94"," ,N,0224, ",,,,,"37.40"," ,N",,,,,,,,
"USC00357809","SILVER CREEK FALLS, OR US","44.8727","-122.6486","411.5","2019",,,,,,,,,,,,,,,,,"5934","7",,,,,,,,,,
"US1ORLN0006","SWEET HOME 1.0 ESE, OR US","44.396808","-122.683994","196.9","2019",,,"        7",,"         3","N",,,"9"," ,N,0227, ","8.0"," ,N,0225, ","2.19"," ,N,0407, ",,,,,"45.74"," ,N","12.8"," ,N",,,,,,
"US1ORLN0007","SWEET HOME 5.0 SW, OR US","44.3486","-122.771","175.0","2019",,,,,,,,,,,,,,,,,,,"44.34"," ,N",,,,,,,,
"US1ORLN0004","SCIO 4.2 SW, OR US","44.669439","-122.918402","85.6","2019",,,,,,,,,,,,,"1.59"," ,N,0224, ",,,,,"35.96"," ,N",,,,,,,,
"US1ORLN0005","SCIO 2.3 SW, OR US","44.6833","-122.8833","190.2","2019",,,,,,,,,,,,,"3.30"," ,N,0408, ",,,,,"36.53"," ,N",,,,,,,,
"US1ORLN0003","ALBANY 0.5 SE, OR US","44.611","-123.0853","69.5","2019",,,"        4",,"         2","N",,,"4"," ,N,0227, ","3.3"," ,N,0227, ","1.65"," ,N,0224, ",,,,,"32.99"," ,N","6.1"," ,N",,,,,,
"USS0022G06S","ANNIE SPRINGS, OR US","42.87","-122.17","1831.8","2019","0",,"      201",,,,"2","T,0222, ","135"," ,T,0227, ",,,"2.40"," ,T,0407, ","80","T,0827, ","8767","5","60.76"," ,T",,,"40.4","T","50.5","T","30.2","T"
"USS0018E03S","EILERTSON MEADOWS, OR US","44.87","-118.11","1679.4","2019","2",,"      159",,,,"-5","T,0207, ","62"," ,T,0225, ",,,"1.40"," ,T,0407, ","84","T,0806, ","9249","4","28.94"," ,T",,,"39.5","T","50.6","T","28.4","T"
"USS0023G09S","KING MOUNTAIN, OR US","42.72","-123.2","1322.8","2019","62",,"      134",,,,"20","T,0209, ","53"," ,T,0226, ",,,"2.60"," ,T,0407, ","87","T,0827, ","6304","2","59.54"," ,T",,,"47.1","T","53.7","T","40.6","T"
"US1ORLA0024","PLEASANT HILL 3 SE, OR US","43.9499","-122.8852","199.3","2019",,,,,,,,,,,,,"2.42"," ,N,0225, ",,,,,"39.15"," ,N",,,,,,,,
"USS0018D06S","LUCKY STRIKE, OR US","45.27","-118.85","1514.9","2019","20",,"      158",,,,"2","T,0206, ","52"," ,T,0225, ",,,"1.10"," ,T,0408, ","81","T,0828, ","8160","6","30.24"," ,T",,,"42.2","T","50.4","T","34.1","T"
"US1ORLN0055","LEBANON 2.3 E, OR US","44.535","-122.858","150.3","2019",,,,,,,,,,,,,,,,,,,"39.34"," ,N",,,,,,,,
"USR0000OPEB","PEBBLE OREGON, OR US","44.2333","-121.9833","1085.1","2019","50",,,,,,"6","U,0304, ",,,,,,,"93","U,0828, ","6611","7",,,,,"46.5","U","58.4","U","34.5","U"
"USR0000ORID","RIDDLE MOUNTAIN OREGON, OR US","43.1006","-118.4981","1936.1","2019","305",,,,,,"7","U,0207, ",,,,,,,"90","U,0804, ",,,,,,,"44.5","U","52.8","U","36.2","U"
"US1ORLN0054","LEBANON 6.0 SE, OR US","44.481496","-122.808504","126.5","2019",,,,,,,,,,,,,"2.07"," ,N,0224, ",,,,,"41.19"," ,N",,,,,,,,
"US1ORCB0023","VERNONIA 7.2 SW, OR US","45.780514","-123.28036","221.9","2019",,,,,,,,,,,,,"3.70"," ,N,0212, ",,,,,"43.22"," ,N",,,,,,,,
"USC00356883","PRINEVILLE, OR US","44.30048","-120.84063","876.6","2019",,,"       34",,"         8","7",,,"16"," ,7,0227, ","9.9"," ,7,0225, ","1.02"," ,7,0225, ","97","7,0809, ","6183","1","14.38"," ,7","36.7"," ,7",,,"62.2","7",,
"USW00024130","BAKER CITY AIRPORT, OR US","44.8428","-117.8086","1024.4","2019","279",,,,,,"0","W,1130, ",,,,,"0.32"," ,W,0324, ","101","W,0806, ","6777","3","7.59"," ,W",,,"46.9","W","60.6","W","33.2","W"
"US1ORCC0067","MOLALLA 7.5 S, OR US","45.042419","-122.60105","308.2","2019",,,,,,,,,,,,,"1.51"," ,N,0407, ",,,,,"38.39"," ,N",,,,,,,,
"US1ORCC0066","HAPPY VALLEY 1.7 ESE, OR US","45.434","-122.503623","180.4","2019",,,"        7",,"         5","N",,,"3"," ,N,0209, ","3.4"," ,N,0209, ","1.39"," ,N,0119, ",,,,,"36.89"," ,N","11.4"," ,N",,,,,,
"US1ORBN0108","MONROE 1.4 W, OR US","44.314837","-123.326155","159.1","2019",,,,,,,,,,,,,"2.00"," ,N,0224, ",,,,,"40.31"," ,N",,,,,,,,
"US1ORLN0058","SCIO 7.2 SSE, OR US","44.6153450012207","-122.77473449707","150.0","2019",,,,,,,,,,,,,"2.05"," ,N,0909, ",,,,,"44.43"," ,N",,,,,,,,
"USC00356405","OWYHEE DAM, OR US","43.6501","-117.2466","731.5","2019","552",,"        7",,"         3","7","8","7,1103, ","5"," ,7,1202, ","3.2"," ,7,1202, ","2.27"," ,7,0613, ","102","7,0724,+","5925","5","11.80"," ,7","8.7"," ,7","49.8","7","65.0","7","34.6","7"
"USC00355681","MOLALLA 7 NE, OR US","45.1783","-122.5063","197.2","2019","340",,,,,,"21","7,0304, ",,,,,"1.35"," ,7,0910, ","102","7,0827, ","4443","4","34.73"," ,7",,,"52.9","7","61.8","7","44.0","7"
"USW00094236","KLAMATH FALLS INTERNATIONAL AIRPORT, OR US","42.14694","-121.72417","1244.8","2019","151",,,,,,"0","W,1130, ",,,,,"0.83"," ,W,0214, ","94","W,0827, ","6687","9","12.46"," ,W",,,"46.8","W","61.1","W","32.5","W"
"US1ORDG0010","GLIDE 1.1 SE, OR US","43.2957","-123.0787","283.5","2019",,,,,,,,,,,,,"2.15"," ,N,0225, ",,,,,"41.09"," ,N",,,,,,,,
"USC00352292","DETROIT DAM, OR US","44.7241","-122.2547","371.9","2019","238",,,,,,"23","7,0305, ",,,,,"3.25"," ,7,0408, ","98","7,0828, ","4614","5","67.40"," ,7",,,"52.0","7","59.6","7","44.4","7"
"USR0000OAGN","AGNESS OREGON, OR US","42.5522","-124.0578","75.3","2019","593",,,,,,"27","U,1030, ",,,,,,,"104","U,0611, ","3502","8",,,,,"56.7","U","68.1","U","45.3","U"
"US1ORCB0031","RAINIER 6.2 W, OR US","46.1082706600428","-123.073782920837","191.4","2019",,,,,,,,,,,,,"3.25"," ,N,0212, ",,,,,"39.69"," ,N",,,,,,,,
"USC00355204","MAPLETON, OR US","44.0366","-123.8627","5.2","2019",,,,,,,,,,,,,,,,,"3478","2",,,,,,,,,,
"US1ORBN0117","CORVALLIS 2.5 NE, OR US","44.594184","-123.2371","67.4","2019",,,,,,,,,,,,,"2.15"," ,N,0407, ",,,,,"36.76"," ,N",,,,,,,,
"US1ORLN0062","SCIO 7.3 SSE, OR US","44.616","-122.771","152.4","2019",,,,,,,,,,,,,"2.17"," ,N,0909, ",,,,,"45.35"," ,N",,,,,,,,
"USC00356532","PELTON DAM, OR US","44.7275","-121.2505","429.8","2019",,,,,,,,,,,,,,,,,,,,,,,,,,,,
"US1ORBN0113","PHILOMATH 1.0 WNW, OR US","44.547774","-123.37561","134.4","2019",,,,,,,,,,,,,"1.98"," ,N,0407, ",,,,,"38.17"," ,N",,,,,,,,
"US1ORCC0076","ESTACADA 5.2 WNW, OR US","45.332074","-122.425032","102.1","2019",,,,,,,,,,,,,"1.58"," ,N,0407, ",,,,,"38.94"," ,N",,,,,,,,
"USS0020G09S","STRAWBERRY, OR US","42.13","-120.84","1758.7","2019","78",,"      139",,,,"5","T,0222, ","26"," ,T,0310,+",,,"1.00"," ,T,0408, ","89","T,0827, ","7291","4","26.44"," ,T",,,"44.8","T","55.0","T","34.5","T"
"US1ORDG0027","OAKLAND 0.1 NNE, OR US","43.4248","-123.2942","141.7","2019",,,,,,,,,,,,,"2.54"," ,N,0225, ",,,,,"41.17"," ,N",,,,,,,,
"USR0000OGRM","GRASSY MOUNTAIN OREGON, OR US","42.6261","-117.395","1389.9","2019","649",,,,,,"6","U,0207, ",,,,,,,"97","U,0805,+","6410","4",,,,,"48.8","U","59.3","U","38.4","U"
"USW00094224","ASTORIA AIRPORT PORT OF, OR US","46.1569","-123.8825","2.7","2019","20",,,,,,"24","W,1129,+",,,,,"3.42"," ,W,1220, ","91","W,0827, ","4819","0","51.54"," ,W",,,"51.5","W","58.7","W","44.3","W"
"US1ORDG0022","OAKLAND 4.5 W, OR US","43.425632","-123.385616","278.9","2019",,,,,,,,,,,,,"2.02"," ,N,0408, ",,,,,"44.63"," ,N",,,,,,,,
"USW00094107","ROME STATE AIRPORT, OR US","42.59056","-117.86444","1234.4","2019","627",,,,,,"-1","W,1030, ",,,,,"0.65"," ,W,0910, ","102","W,0805,+",,,"10.49"," ,W",,,"49.2","W","63.7","W","34.6","W"
"USS0018D20S","BOWMAN SPRINGS, OR US","45.36","-118.47","1380.7","2019","62",,"      157",,,,"3","T,0303, ","60"," ,T,0225, ",,,"1.10"," ,T,0411, ","87","T,0806, ","7724","3","30.24"," ,T",,,"43.5","T","52.8","T","34.2","T"
"USW00024232","SALEM AIRPORT MCNARY FIELD, OR US","44.905","-123.0011","62.5","2019","342",,,,,,"20","W,1130,+",,,,,"1.21"," ,W,0406, ","100","W,0827, ","4256","6","30.87"," ,W",,,"53.2","W","63.2","W","43.2","W"
"USW00094261","PORTLAND HILLSBORO AIRPORT, OR US","45.54056","-122.94861","62.2","2019","255",,,,,,"19","W,1130, ",,,,,"1.90"," ,W,0212, ","98","W,0828, ","4737","6","26.48"," ,W",,,"52.2","W","62.7","W","41.7","W"
"USC00351058","BROOKINGS, OR US","42.0463","-124.2877","25.0","2019","28",,,,,,"31","7,0205, ",,,,,,,"82","7,1025, ",,,"76.00"," ,7",,,"54.3","7","60.9","7","47.7","7"
"USW00024230","REDMOND AIRPORT, OR US","44.2558","-121.1392","927.5","2019","279",,,,,,"-8","W,0228, ",,,,,"0.90"," ,W,0225, ","100","W,0828,+","6381","8","10.66"," ,W",,,"48.0","W","62.4","W","33.6","W"
"USC00353356","GOLD BEACH RANGER STATION, OR US","42.4036","-124.4242","15.2","2019",,,,,,,,,,,,,,,,,"3893","9",,,,,,,,,,
"USW00024231","ROSEBURG REGIONAL AIRPORT, OR US","43.23889","-123.35472","160.0","2019","654",,,,,,"26","W,1130,+",,,,,"2.25"," ,W,0224, ","103","W,0827, ","3772","4","31.70"," ,W",,,"55.8","W","65.9","W","45.7","W"
"USR0000OSIG","SIGNAL TREE OREGON, OR US","43.0019","-123.7803","1004.0","2019","63",,,,,,"22","U,0228,+",,,,,,,"91","U,0827, ","5814","8",,,,,"48.3","U","55.3","U","41.3","U"
"USC00353232","GERBER DAM, OR US","42.20516","-121.13136","1484.4","2019",,,,,,,,,,,,,,,"94","H,0828, ",,,,,,,,,"59.3","H",,
"US1ORUM0011","PENDLETON 1.0 WNW, OR US","45.674519","-118.807906","349.3","2019",,,,,,,,,,,,,"0.60"," ,N,0409, ",,,,,"12.63"," ,N",,,,,,,,
"USR0000OSIL","SILVER BUTTE OREGON, OR US","42.8589","-123.3783","1211.0","2019","99",,,,,,"18","U,0225,+",,,,,,,"91","U,0827, ","5907","8",,,,,"48.1","U","56.2","U","40.0","U"
"US1ORWS0097","HILLSBORO 3.0 WNW, OR US","45.541464","-122.99869","56.7","2019",,,,,,,,,,,,,"2.62"," ,N,0212, ",,,,,"30.17"," ,N",,,,,,,,
"USC00356749","PORTLAND KGW TV, OR US","45.5181","-122.6894","48.5","2019","375",,"        0",,"         0","7","25","7,0227, ","0","T,7,0225,+","0.6"," ,7,0205, ","1.27"," ,7,0212, ","97","7,0612, ","4130","5","30.96"," ,7","1.8"," ,7","54.0","7","61.6","7","46.5","7"
"USC00354329","JOSEPH, OR US","45.34982","-117.22419","1275.3","2019",,,,,"        13","7",,,,,"8.0"," ,7,0204, ","0.72"," ,7,0408, ",,,,,"17.00"," ,7","49.8"," ,7",,,,,,
"US1ORWS0096","SHERWOOD 2.0 NW, OR US","45.3799743652344","-122.871597290039","86.9","2019",,,,,,,,,,,,,"1.56"," ,N,1221, ",,,,,"35.30"," ,N",,,,,,,,
"USW00024235","SEXTON SUMMIT, OR US","42.6003","-123.3641","1168.0","2019","181",,,,,,"20","W,0209,+",,,,,"2.39"," ,W,0119, ","92","W,0827, ","5826","9","47.04"," ,W",,,"49.0","W","56.8","W","41.2","W"
"USR0000OEMI","EMIGRANT OREGON, OR US","43.4675","-122.2175","1170.4","2019","344",,,,,,"18","U,0228,+",,,,,,,"99","U,0827, ","5419","7",,,,,"50.7","U","60.9","U","40.5","U"
"USR0000OCIN","CINNAMON OREGON, OR US","43.3208","-122.1067","1473.4","2019","63",,,,,,"4","U,0222, ",,,,,,,"92","U,0827, ","7075","6",,,,,"45.2","U","57.7","U","32.7","U"
"US1ORJC0011","JACKSONVILLE 10 S, OR US","42.169","-122.9912","583.7","2019",,,,,,,,,,,,,"1.69"," ,N,0120, ",,,,,"25.18"," ,N",,,,,,,,
"USR0000OFOR","FORT ROCK OREGON, OR US","43.425","-120.8417","1350.3","2019","124",,,,,,"-6","U,0210, ",,,,,,,"93","U,0827,+","7381","7",,,,,"44.8","U","59.2","U","30.5","U"
"USR0000OUMA","UMATILLA NWR OREGON, OR US","45.9167","-119.5667","82.3","2019","870",,,,,,"2","U,0305, ",,,,,,,"104","U,0806, ","5136","3",,,,,"52.5","U","63.8","U","41.3","U"
"USR0000OFOS","FOSTER FLAT OREGON, OR US","42.9736","-119.2461","1524.0","2019","108",,,,,,"-14","U,1128, ",,,,,,,"93","U,0804, ","8111","2",,,,,"43.0","U","58.0","U","28.0","U"
"US1ORJC0013","ASHLAND 1 WNW, OR US","42.1943981","-122.7184665","602.9","2019",,,,,,,,,,,,,,,,,,,"22.35"," ,N",,,,,,,,
"USC00356634","PILOT ROCK 1 SE, OR US","45.4756","-118.8253","524.3","2019","506",,"       26",,,,"-2","7,0206, ","12"," ,7,0228,+",,,"1.07"," ,7,0420, ","101","7,0807, ","5695","0","16.30"," ,7",,,"50.3","7","63.4","7","37.2","7"
"US1ORLN0042","ALBANY 1.1 SSE, OR US","44.602222","-123.084444","72.5","2019",,,"        4",,"         4","N",,,"3"," ,N,0227, ","3.0"," ,N,0227, ","1.53"," ,N,0407, ",,,,,"34.37"," ,N","7.0"," ,N",,,,,,
"USW00024242","PORTLAND TROUTDALE AIRPORT, OR US","45.55111","-122.40889","8.8","2019","433",,,,,,"22","W,0206, ",,,,,"0.92"," ,W,0118, ","97","W,0828,+","4171","1","28.07"," ,W",,,"54.2","W","62.6","W","45.8","W"
"USC00356750","PORTLAND WEATHER FORECAST OFFICE, OR US","45.5605","-122.5383","6.4","2019","427",,"        4",,"         1","7","23","7,1129, ","3"," ,7,0209, ","4.9"," ,7,0209, ","1.18"," ,7,0118, ","98","7,0612, ","4280","9","29.95"," ,7","7.3"," ,7","53.8","7","62.2","7","45.4","7"
"US1ORCB0018","RAINIER 5.7 WNW, OR US","46.11395","-123.0606833","167.9","2019",,,,,,,,,,,,,"2.61"," ,N,0212, ",,,,,"37.59"," ,N",,,,,,,,
"US1ORWS0081","HILLSBORO 1.3 W, OR US","45.5271377563477","-122.96541595459","55.8","2019",,,,,,,,,,,,,"2.25"," ,N,0212, ",,,,,"32.35"," ,N",,,,,,,,
"US1ORLN0047","ALBANY 2.1 S, OR US","44.5873336791992","-123.095756530762","72.8","2019",,,,,,,,,,,,,"1.59"," ,N,0224, ",,,,,"31.19"," ,N",,,,,,,,
"USR0000OPAR","PARKER MOUNTAIN OREGON, OR US","42.1058","-122.2781","1609.3","2019","287",,,,,,"14","U,0222, ",,,,,,,"92","U,0827, ","6326","3",,,,,"47.6","U","56.5","U","38.7","U"
"USR0000OPAT","PATJENS OREGON, OR US","45.3222","-120.925","679.7","2019","577",,,,,,"9","U,0305, ",,,,,,,"100","U,0807,+","5611","0",,,,,"50.4","U","59.4","U","41.5","U"
"USR0000OCHI","CHILOQUIN OREGON, OR US","42.5769","-121.8936","1347.2","2019","176",,,,,,"3","U,0222, ",,,,,,,"94","U,0827, ","6728","8",,,,,"46.4","U","59.1","U","33.7","U"
"USR0000OREB","RED BOX OREGON, OR US","45.0275","-121.9211","990.6","2019","91",,,,,,"6","U,0303, ",,,,,,,"94","U,0828, ","6889","4",,,,,"45.8","U","55.7","U","35.9","U"
"USR0000ORED","RED BUTTE OREGON, OR US","43.5361","-117.8347","1359.4","2019","339",,,,,,"-4","U,1217,+",,,,,,,"97","U,0828, ","7403","7",,,,,"45.5","U","58.8","U","32.2","U"
"US1ORCS0011","BANDON 7.1 NNE, OR US","43.214167","-124.37111","51.5","2019",,,,,,,,,,,,,"2.60"," ,N,0225, ",,,,,"61.00"," ,N",,,,,,,,
"US1ORCS0014","COOS BAY 1.7 WNW, OR US","43.383496","-124.263873","67.1","2019",,,,,,,,,,,,,"2.69"," ,N,0225, ",,,,,"60.30"," ,N",,,,,,,,
"USC00356200","OAKLAND, OR US","43.4227","-123.3002","131.1","2019",,,,,,,,,,,,,"2.00"," ,7,0409,+",,,,,"35.14"," ,7",,,,,,,,
"USR0000OTIM","TIMOTHY OREGON, OR US","43.2433","-121.3583","1834.9","2019","23",,,,,,"-1","U,0222, ",,,,,,,"86","U,0827, ","8387","4",,,,,"41.4","U","53.5","U","29.3","U"
"USW00004201","SCAPPOOSE INDUSTRIAL AIRPORT, OR US","45.77278","-122.86111","16.8","2019","308",,,,,,"20","W,1201,+",,,,,"1.77"," ,W,1220, ","98","W,0827, ","4333","0","30.12"," ,W",,,"53.1","W","63.2","W","43.1","W"
"USR0000OREM","RED MOUND OREGON, OR US","42.1233","-124.3006","534.3","2019","343",,,,,,"28","U,0205, ",,,,,,,"98","U,0610, ","3964","0",,,,,"54.8","U","62.0","U","47.5","U"
"US1ORLC0002","TOLEDO 0.2 W, OR US","44.621","-123.937","27.4","2019",,,,,,,,,,,,,"2.67"," ,N,1221, ",,,,,"55.96"," ,N",,,,,,,,
"US1ORLC0001","NEWPORT 5.1 N, OR US","44.689808","-124.065527","35.1","2019",,,,,,,,,,,,,"2.44"," ,N,1019, ",,,,,"49.17"," ,N",,,,,,,,
"US1ORJC0075","MEDFORD 0.5 SSE, OR US","42.3337516784668","-122.849166870117","452.0","2019",,,,,,,,,,,,,"1.76"," ,N,0120, ",,,,,"22.31"," ,N",,,,,,,,
"USR0000OGOO","GOODWIN PEAK OREGON, OR US","43.9281","-123.8903","556.6","2019","106",,,,,,"22","U,0304, ",,,,,,,"96","U,0827, ","4816","4",,,,,"51.4","U","59.1","U","43.8","U"
"US1ORBN0030","MONROE 5.7 WNW, OR US","44.3337","-123.4056","151.5","2019",,,,,,,,,,,,,"2.64"," ,N,0407, ",,,,,"45.07"," ,N",,,,,,,,
"USC00356213","OAKRIDGE FISH HATCHERY, OR US","43.7428","-122.4433","388.6","2019","163",,"       20",,"         5","7","22","7,0305, ","10"," ,7,0226, ","8.5"," ,7,0225, ","1.91"," ,7,0408, ","99","7,0828, ","5405","9","40.77"," ,7","14.7"," ,7","50.3","7","61.0","7","39.7","7"
"USC00356334","OREGON CITY, OR US","45.3558","-122.6047","50.9","2019",,,,,,,,,,,,,"1.55"," ,7,0211, ","96","7,0828,+","3959","7","32.97"," ,7",,,,,"64.0","7",,
"USS0019D03S","MADISON BUTTE, OR US","45.11","-119.5","1569.7","2019","67",,"      149",,,,"4","T,0206, ","43"," ,T,0227, ",,,"1.10"," ,T,0411, ","86","T,0806, ","7779","8","23.34"," ,T",,,"43.3","T","50.8","T","35.9","T"
"USC00358634","TROUTDALE, OR US","45.5533","-122.3886","10.1","2019","349",,,,,,"26","7,0306,+",,,,,,,"97","7,0829, ","4547","3","35.65"," ,7",,,"52.8","7","61.1","7","44.6","7"
"USC00358997","WALLOWA, OR US","45.5722","-117.5314","890.9","2019","246",,"      129",,"        20","7","-13","7,0207, ","25"," ,7,0226,+","14.0"," ,7,0211, ","1.95"," ,7,0526, ","100","7,0806, ","7336","8","19.57"," ,7","88.7"," ,7","45.2","7","58.8","7","31.7","7"
"USS0017D20S","MILK SHAKES, OR US","45.98","-117.95","1700.8","2019","25",,"      248",,,,"-5","T,0206, ","116"," ,T,0313,+",,,"3.90"," ,T,1019, ","82","T,0807,+","8826","3","62.24"," ,T",,,"40.4","T","47.3","T","33.4","T"
"US1ORBN0040","CORVALLIS 0.6 ENE, OR US","44.574476","-123.265443","69.8","2019",,,,,,,,,,,,,"1.69"," ,N,0407, ",,,,,"36.48"," ,N",,,,,,,,
"US1ORBN0041","CORVALLIS 4.0 NNE, OR US","44.6225","-123.2375","81.4","2019",,,,,,,,,,,,,"1.58"," ,N,0224, ",,,,,"37.12"," ,N",,,,,,,,
"US1ORJC0085","ROGUE RIVER 4.1 NNW, OR US","42.492582","-123.186792","353.3","2019",,,,,,,,,,,,,"2.95"," ,N,0408, ",,,,,"39.14"," ,N",,,,,,,,
"US1ORJC0088","ASHLAND 0.5 N, OR US","42.1974563598633","-122.700393676758","568.5","2019",,,,,,,,,,,,,"0.86"," ,N,0409, ",,,,,"19.69"," ,N",,,,,,,,
"US1ORJC0087","MEDFORD 5.7 S, OR US","42.258976","-122.869686","618.7","2019",,,,,,,,,,,,,"1.79"," ,N,0120, ",,,,,"19.37"," ,N",,,,,,,,
"USC00358726","UKIAH, OR US","45.13586","-118.93888","1016.8","2019",,,,,,,,,,,,,,,,,,,,,,,,,,,,
"USW00024155","PENDLETON E OR REGIONAL AIRPORT, OR US","45.6983","-118.8547","452.9","2019","615",,"       32",,"        10","W","1","W,0305, ","9"," ,W,0307,+","8.9"," ,W,0211, ","0.63"," ,W,0408, ","101","W,0807,+","5661","3","12.38"," ,W","35.9"," ,W","50.6","W","61.6","W","39.6","W"
"US1ORCB0041","CLATSKANIE 6.1 W, OR US","46.1157","-123.3313","4.6","2019",,,,,,,,,,,,,,,,,,,"46.46"," ,N",,,,,,,,
"USC00354003","HOOD RIVER EXPERIMENT STATION, OR US","45.6847","-121.5175","152.4","2019",,,,,,,,,,,,,,,,,"5458","3",,,,,,,,,,
"USC00356542","PENDLETON SOUTH HILL, OR US","45.663","-118.802","353.9","2019",,,,,,,,,,,,,,,,,,,,,,,,,,,,
"USC00356784","PORT ORFORD NUMBER 2, OR US","42.7519","-124.5011","12.8","2019",,,,,,,,,,,,,,,,,"3986","7",,,,,,,,,,
"USR0000OHOY","HOYT CREEK OREGON, OR US","42.9764","-121.4219","1659.6","2019","73",,,,,,"3","U,0222, ",,,,,,,"89","U,0827, ","7297","8",,,,,"44.3","U","56.9","U","31.8","U"
"USW00024152","MEACHAM, OR US","45.51139","-118.42472","1134.8","2019","30",,,,,,"-14","W,0207, ",,,,,"1.49"," ,W,0411, ","92","W,0806, ","8212","1","35.55"," ,W",,,"42.5","W","54.8","W","30.2","W"
"USC00356540","PENDLETON BRANCH EXPERIMENTAL STATION, OR US","45.7206","-118.6264","453.2","2019","380",,,,,,"-6","7,0305, ",,,,,"0.91"," ,7,0324, ","101","7,0807, ","6178","1","16.22"," ,7",,,"48.5","7","61.1","7","36.0","7"
"US1ORCC0088","WEST LINN 0.7 NW, OR US","45.374947","-122.649106","206.3","2019",,,,,,,,,,,,,"1.58"," ,N,0407, ",,,,,"35.18"," ,N",,,,,,,,
"USS0019D02S","ARBUCKLE MOUNTAIN, OR US","45.19","-119.25","1758.7","2019","24",,"      170",,,,"3","T,0210, ","76"," ,T,0225, ",,,"1.40"," ,T,0411, ","80","T,0723, ","8672","9","38.15"," ,T",,,"40.7","T","47.9","T","33.5","T"
"US1ORJS0001","O BRIEN 2 SW, OR US","42.0525","-123.7136","449.6","2019",,,,,,,,,,,,,"3.99"," ,N,0225, ",,,,,"69.84"," ,N",,,,,,,,
"USR0000ORCK","ROCKHOUSE 1 OREGON, OR US","44.925","-123.4694","609.6","2019","344",,,,,,"18","U,0304, ",,,,,,,"100","U,0828, ","5047","9",,,,,"51.6","U","60.0","U","43.3","U"
"USR0000OSEL","SELDOM CREEK OREGON, OR US","42.4075","-122.1914","1485.9","2019","36",,,,,,"-1","U,0222, ",,,,,,,"90","U,0827, ","7476","4",,,,,"44.1","U","56.7","U","31.6","U"
"USS0020G06S","QUARTZ MOUNTAIN, OR US","42.32","-120.83","1743.5","2019","88",,"      122",,,,"7","T,0101, ","22"," ,T,0312, ",,,"1.00"," ,T,0226, ","88","T,0827, ","7138","8","21.96"," ,T",,,"45.2","T","54.8","T","35.6","T"
"USR0000OFLA","FLAGSTAFF HILL OREGON, OR US","44.8142","-117.7289","1202.4","2019","493",,,,,,"7","U,0207, ",,,,,,,"98","U,0806, ","6679","4",,,,,"47.5","U","56.7","U","38.2","U"
"USR0000OCED","CEDAR OREGON, OR US","45.2117","-123.7719","682.8","2019","69",,,,,,"18","U,0210, ",,,,,,,"91","U,0827, ","5721","4",,,,,"48.8","U","55.7","U","41.9","U"
"US1ORJC0051","MEDFORD 3.5 SSW, OR US","42.2954063415527","-122.885528564453","456.0","2019",,,,,,,,,,,,,"1.59"," ,N,0120, ",,,,,"18.57"," ,N",,,,,,,,
"USC00356550","PENDLETON WEATHER FORECAST OFFICE, OR US","45.691","-118.8523","460.2","2019","794",,"       31",,"        12","7","1","7,0305, ","10"," ,7,0228,+","7.5"," ,7,0211, ","0.65"," ,7,0324,+","104","7,0808, ","5529","9","13.03"," ,7","35.2"," ,7","51.3","7","61.7","7","40.9","7"
"US1ORCB0040","CLATSKANIE 8.8 SW, OR US","46.0069167","-123.3245355","194.2","2019",,,,,,,,,,,,,,,,,,,"39.73"," ,N",,,,,,,,
"USR0000OHOR","HORSE CREEK OREGON, OR US","44.9406","-122.4003","609.6","2019","76",,,,,,"14","U,0226,+",,,,,,,"88","U,0827, ","6276","7",,,,,"47.0","U","54.0","U","40.1","U"
"USS0018D21S","WOLF CREEK, OR US","45.07","-118.15","1716.0","2019","82",,"      170",,,,"6","T,0207,+","75"," ,T,0225, ",,,"1.60"," ,T,0209, ","85","T,0806, ","8471","1","31.63"," ,T",,,"41.5","T","48.4","T","34.5","T"
"USC00353047","FOSTER DAM, OR US","44.4139","-122.6728","167.6","2019","209",,,,,,"19","7,0305,+",,,,,"2.21"," ,7,0408, ","100","7,0828, ","4692","5","44.50"," ,7",,,"52.0","7","62.9","7","41.1","7"
"US1ORBN0013","BLODGETT 1 N, OR US","44.63833","-123.57722","263.0","2019",,,,,,,,,,,,,"2.11"," ,N,0407, ",,,,,"52.32"," ,N",,,,,,,,
"USW00024162","ONTARIO, OR US","44.0206","-117.0128","668.4","2019","1118",,,,,,"9","W,1030, ",,,,,"0.72"," ,W,0214, ","103","W,0804,+",,,"12.78"," ,W",,,"53.7","W","66.0","W","41.3","W"
"USC00356795","PORT ORFORD 5 E, OR US","42.73872","-124.40307","45.7","2019",,,,,,,,,,,,,"6.67"," ,7,0408, ",,,,,"110.41"," ,7",,,,,,,,
"USW00024284","NORTH BEND SOUTHWEST OREGON REGIONAL AIRPORT, OR US","43.41333","-124.24361","5.2","2019","8",,,,,,"27","W,1129, ",,,,,"3.53"," ,W,0224, ","79","W,0611, ","4434","3","58.82"," ,W",,,"52.8","W","59.8","W","45.8","W"
"USC00357641","SEASIDE, OR US","45.9869","-123.9236","3.0","2019",,,"        0",,"         0","7",,,"0"," ,7,1231,+","0.0"," ,7,1231,+",,,,,,,"54.31"," ,7","0.0"," ,7",,,,,,
"USC00355221","MARION FORKS FISH HATCHERY, OR US","44.6125","-121.9486","754.4","2019","101",,"       71",,"        25","7","7","7,0305, ","32"," ,7,0227,+","13.0"," ,7,0211, ","3.50"," ,7,0407, ","96","7,0829, ","6614","5","54.90"," ,7","97.4"," ,7","46.6","7","58.2","7","35.0","7"
"US1ORCC0093","SANDY 1.4 NE, OR US","45.414151","-122.245471","132.6","2019",,,,,,,,,,,,,"1.94"," ,N,0119, ",,,,,"46.10"," ,N",,,,,,,,
"USR0000OJRI","J RIDGE OREGON, OR US","45.1139","-118.4039","1578.9","2019","216",,,,,,"3","U,0207, ",,,,,,,"95","U,0723, ","7373","4",,,,,"44.9","U","54.7","U","35.0","U"
"US1ORDG0047","DILLARD 0.3 N, OR US","43.1067607551813","-123.42827104032","157.0","2019",,,,,,,,,,,,,"2.67"," ,N,0225, ",,,,,"34.78"," ,N",,,,,,,,
"US1ORHR0005","HOOD RIVER 9.8 S, OR US","45.570404","-121.554115","472.1","2019",,,,,,,,,,,,,"1.49"," ,N,0408, ",,,,,"24.08"," ,N",,,,,,,,
"US1ORJC0062","GOLD HILL 5.4 NNW, OR US","42.5069","-123.089","598.3","2019",,,,,,,,,,,,,"2.67"," ,N,0120, ",,,,,"37.63"," ,N",,,,,,,,
"USC00355593","MILTON FREEWATER, OR US","45.9428","-118.4089","295.7","2019","923",,,,,,"5","7,0207, ",,,,,"1.13"," ,7,0122, ","101","7,0808, ","4978","7","18.25"," ,7",,,"53.0","7","62.7","7","43.4","7"
"US1ORUN0001","ELGIN 9.8 N, OR US","45.7056","-117.9083","875.7","2019",,,,,,,,,,,,,"1.94"," ,N,1020, ",,,,,"29.07"," ,N",,,,,,,,
"US1ORHR0007","HOOD RIVER 0.8 SW, OR US","45.700275","-121.532128","160.6","2019",,,,,,,,,,,,,"1.17"," ,N,0407, ",,,,,"22.69"," ,N",,,,,,,,
"USW00004128","RILEY 10 WSW, OR US","43.4711","-119.6917","1396.9","2019","273",,,,,,"-9","R,0207, ",,,,,,,"94","R,0804, ","7703","3",,,,,"44.3","R","57.5","R","31.1","R"
"USR0000OTUP","TUPPER OREGON, OR US","45.0708","-119.49","1219.2","2019","212",,,,,,"4","U,0206, ",,,,,,,"92","U,0828, ","7150","1",,,,,"45.6","U","55.7","U","35.6","U"
"USC00356366","OTIS 2 NE, OR US","45.0333","-123.9238","45.7","2019","47",,,,,,"24","7,0305, ",,,,,"3.90"," ,7,0212, ","93","7,0611, ","4879","8","69.86"," ,7",,,"51.4","7","59.0","7","43.8","7"
"USS0021D33S","BLAZED ALDER, OR US","45.43","-121.86","1112.5","2019","43",,"      171",,,,"12","T,0304, ","91"," ,T,0313, ",,,"3.20"," ,T,0407, ","86","T,0828, ","7259","8","85.38"," ,T",,,"44.4","T","50.4","T","38.4","T"
"USR0000OBRI","BRER RABBIT OREGON, OR US","44.3231","-119.7669","1798.3","2019","165",,,,,,"3","U,0210, ",,,,,,,"88","U,0828, ","7903","5",,,,,"43.2","U","51.3","U","35.2","U"
"USW00004125","JOHN DAY 35 WNW, OR US","44.556","-119.6459","684.3","2019","647",,,,,,"8","R,0226, ",,,,,"1.12"," ,R,0519, ","102","R,0806, ","5401","4","11.34"," ,R",,,"51.6","R","64.0","R","39.3","R"
"USR0000ODUN","DUNES OREGON, OR US","43.9578","-124.1197","6.1","2019","8",,,,,,"28","U,1129, ",,,,,,,"83","U,0827, ","4749","1",,,,,"52.1","U","58.8","U","45.4","U"
"US1ORPK0021","DALLAS 0.3 NE, OR US","44.924534","-123.308382","101.8","2019",,,,,,,,,,,,,"1.61"," ,N,0407, ",,,,,"34.48"," ,N",,,,,,,,
"US1ORPK0020","MONMOUTH 12.1 WSW, OR US","44.7701","-123.4482","105.2","2019",,,,,,,,,,,,,"2.47"," ,N,0407, ",,,,,"49.84"," ,N",,,,,,,,
"USC00351914","COUGAR DAM, OR US","44.1308","-122.2419","384.0","2019",,,,,,,"23","7,0305,+",,,,,"4.96"," ,7,0408, ",,,,,"58.58"," ,7",,,,,,,"47.0","7"
"USS0022E10S","BEAR GRASS, OR US","44.33","-122.09","1438.7","2019","39",,"      189",,,,"12","T,0209, ","138"," ,T,0225, ",,,"4.50"," ,T,0407, ","83","T,0828, ","7230","8","85.96"," ,T",,,"44.6","T","51.6","T","37.7","T"
"USS0022F43S","ROARING RIVER, OR US","43.9","-122.03","1508.8","2019","34",,"      180",,,,"10","T,0228, ","96"," ,T,0225, ",,,"3.50"," ,T,0407, ","86","T,0827, ","7346","3","53.77"," ,T",,,"44.4","T","53.5","T","35.2","T"
"USC00356252","ODELL LAKE EAST, OR US","43.5491","-121.9638","1463.0","2019",,,,,,,,,,,,,,,,,"8317","8",,,,,,,,,,
"USW00004236","CORVALLIS 10 SSW, OR US","44.4185","-123.3257","95.1","2019","191",,,,,,"19","R,1130, ",,,,,"2.11"," ,R,0407, ","99","R,0827, ","4813","9","36.52"," ,R",,,"51.7","R","62.4","R","41.0","R"
"USW00004113","HERMISTON MUNICIPAL AIRPORT, OR US","45.82583","-119.26111","195.4","2019","904",,,,,,"-1","W,0206, ",,,,,,,"103","W,0806, ","5150","3",,,,,"52.4","W","64.3","W","40.5","W"
"USR0000OCRO","CROW FLAT OREGON, OR US","43.8333","-118.95","1563.6","2019","40",,,,,,"-14","U,0207, ",,,,,,,"94","U,0804, ","8753","0",,,,,"41.1","U","55.8","U","26.3","U"
"US1ORWS0028","TIGARD 0.7 SSW, OR US","45.414413","-122.777268","100.0","2019",,,,,,,,,,,,,"1.26"," ,N,0407, ",,,,,"30.16"," ,N",,,,,,,,
"USS0022F42S","HOLLAND MEADOWS, OR US","43.67","-122.57","1502.7","2019","31",,"      170",,,,"13","T,0206, ","92"," ,T,0227,+",,,"3.40"," ,T,0407, ","85","T,0827, ","7018","1","64.03"," ,T",,,"45.2","T","52.0","T","38.3","T"
"USR0000OANT","ANTELOPE OREGON, OR US","44.0397","-118.4164","1969.0","2019","200",,,,,,"4","U,0206, ",,,,,,,"88","U,0804, ","8356","5",,,,,"41.5","U","48.5","U","34.5","U"
"USC00355050","LOOKOUT POINT DAM, OR US","43.9139","-122.76","217.0","2019","249",,,,,,"22","7,0305,+",,,,,"2.42"," ,7,0408, ","94","7,0613, ","4315","1","37.01"," ,7",,,"53.1","7","61.4","7","44.9","7"
"USC00358407","THE DALLES, OR US","45.6069","-121.2047","45.7","2019",,,,,,,,,,,,,"0.95"," ,7,0119, ",,,,,"10.28"," ,7",,,,,,,,
"USR0000OEVA","EVANS CREEK OREGON, OR US","42.5978","-123.1033","975.4","2019","535",,,,,,"21","U,1129,+",,,,,,,"99","U,0827, ","4826","0",,,,,"52.6","U","61.6","U","43.5","U"
"USC00357554","SANTIAM JUNCTION, OR US","44.4355","-121.9428","1143.0","2019","29",,,,,,"-3","7,0301, ",,,,,,,"90","7,0829, ",,,,,,,"42.0","7","53.4","7","30.5","7"
"USR0000OCRA","CRANE PRAIRIE OREGON, OR US","44.1667","-118.4667","1676.4","2019","26",,,,,,"-13","U,1217, ",,,,,,,"92","U,0828, ","9284","6",,,,,"39.4","U","54.3","U","24.4","U"
"USC00357310","ROME 2 NW, OR US","42.8592","-117.6569","1037.8","2019",,,,,,,,,,,,,"0.66"," ,7,0203, ",,,,,"11.70"," ,7",,,,,,,,
"USC00358884","VERNONIA NUMBER 2, OR US","45.8652","-123.1902","190.5","2019","67",,,,,,"15","7,1130,+",,,,,"2.75"," ,7,0211, ","96","7,0828,+","5437","5","39.36"," ,7",,,"49.4","7","60.4","7","38.4","7"
"USR0000OSQU","SQUAW PEAK OREGON, OR US","42.0667","-123.0167","1513.0","2019","220",,,,,,"15","U,0205, ",,,,,,,"90","U,0827, ","6004","4",,,,,"48.6","U","56.1","U","41.0","U"
"USR0000OROU","ROUND MOUNTAIN OREGON, OR US","43.7639","-121.7167","1798.3","2019","79",,,,,,"4","U,0210, ",,,,,,,"90","U,0828, ","8012","9",,,,,"42.3","U","50.6","U","34.0","U"
"USW00004141","COOS BAY 8 SW, OR US","43.2718","-124.3186","3.7","2019",,,,,,,,,,,,,"3.75"," ,R,0407, ",,,"5240","1","65.17"," ,R",,,,,,,,
"USR0000OMER","MERLIN SEED ORCHARD OREGON, OR US","42.4947","-123.3972","378.0","2019","737",,,,,,"23","U,0207,+",,,,,,,"108","U,0827, ","4371","5",,,,,"54.6","U","67.6","U","41.7","U"
"USR0000OMET","METOLUIS ARM OREGON, OR US","44.6275","-121.6147","1048.5","2019","311",,,,,,"8","U,0228, ",,,,,,,"97","U,0828, ",,,,,,,"47.8","U","58.1","U","37.6","U"
"US1ORWS0134","VERNONIA 7.8 SW, OR US","45.76938","-123.2794","281.0","2019",,,,,,,,,,,,,"3.18"," ,N,0212, ",,,,,"45.21"," ,N",,,,,,,,
"USC00355020","LONG CREEK, OR US","44.7135","-119.1018","1140.0","2019","143",,,,,,"-2","7,0207, ",,,,,,,"96","7,0807, ","7155","3",,,,,"45.7","7","58.3","7","33.1","7"
"USR0000OROB","ROBERTS BUTTE OREGON, OR US","45.6817","-117.2064","1299.4","2019","300",,,,,,"-4","U,0207, ",,,,,,,"95","U,0807,+","7198","7",,,,,"45.5","U","56.3","U","34.7","U"
"USR0000OROC","ROCK CREEK OREGON, OR US","42.5475","-119.6564","1719.1","2019","185",,,,,,"0","U,0207, ",,,,,,,"90","U,0805, ","7522","7",,,,,"44.6","U","55.9","U","33.3","U"
"USR0000OBOU","BOULDER CREEK OREGON, OR US","44.7219","-122.0031","1088.1","2019","43",,,,,,"1","U,0304, ",,,,,,,"93","U,0828, ","7029","1",,,,,"45.3","U","57.3","U","33.2","U"
"USC00354291","JOHN DAY, OR US","44.4233","-118.9594","933.6","2019","198",,,,,,"2","7,0101, ",,,,,"0.85"," ,7,0409, ","96","7,0807, ","7054","2","10.47"," ,7",,,"46.0","7","59.6","7","32.5","7"
"USC00355026","LOOKINGGLASS, OR US","43.1922","-123.469","225.6","2019",,,,,,,,,,,,,,,,,,,"43.41"," ,7",,,,,,,,
"USR0000OTRO","TROUT CREEK OREGON, OR US","44.1111","-122.575","731.5","2019","257",,,,,,"21","U,0210, ",,,,,,,"98","U,0827, ","5146","2",,,,,"51.1","U","59.1","U","43.2","U"
"USR0000OBOC","BOARD CREEK OREGON, OR US","44.5933","-119.2778","1524.0","2019","148",,,,,,"-1","U,0207, ",,,,,,,"94","U,0806, ","7564","4",,,,,"44.4","U","55.7","U","33.1","U"
"USS0022F45S","TOKETEE AIRSTRIP, OR US","43.23","-122.43","987.6","2019",,,"       98",,,,"13","T,0222, ","33"," ,T,0226, ",,,"3.50"," ,T,0407, ",,,,,"48.86"," ,T",,,,,,,"36.9","T"
"USC00351902","COTTAGE GROVE DAM, OR US","43.7178","-123.0578","253.3","2019","258",,,,,,"19","7,0305, ",,,,,,,"98","7,0828,+","4708","8",,,,,"52.1","7","62.7","7","41.5","7"
"USS0022D03S","SOUTH FORK BULL RUN, OR US","45.45","-122.03","819.9","2019","47",,"       94",,,,"18","T,0304, ","47"," ,T,0308, ",,,"2.40"," ,T,0408, ","87","T,0612, ","6346","4","84.56"," ,T",,,"46.9","T","53.6","T","40.2","T"
"US1ORWL0009","LOSTINE 2.5 SE, OR US","45.462","-117.391","1048.8","2019",,,,,,,,,,,,,"0.79"," ,N,0420, ",,,,,"16.78"," ,N",,,,,,,,
"USC00358536","TOKETEE FALLS, OR US","43.275","-122.4497","627.9","2019","301",,"       46",,"        15","7","19","7,0222,+","11"," ,7,0227,+","7.0"," ,7,0209, ","2.63"," ,7,0408, ","98","7,0611, ","5598","9","43.37"," ,7","41.4"," ,7","50.0","7","60.5","7","39.5","7"
"US1ORWS0124","CORNELIUS 5.1 SSE, OR US","45.45041666667","-123.01106666667","60.0","2019",,,"        0",,"         0","N",,,"1"," ,N,0227,+","0.6"," ,N,0227, ","2.61"," ,N,0212, ",,,,,"30.78"," ,N","2.0"," ,N",,,,,,
"USR0000OALL","ALLISON OREGON, OR US","43.9247","-119.5944","1621.5","2019","33",,,,,,"-12","U,0207, ",,,,,,,"90","U,0828, ","8561","3",,,,,"41.3","U","55.2","U","27.5","U"
"USS0022E11S","SMITH RIDGE, OR US","44.3","-122.04","996.7","2019","171",,"       73",,,,"16","T,0304, ","58"," ,T,0225, ",,,"4.20"," ,T,0407, ","95","T,0828, ","5629","3","58.93"," ,T",,,"49.6","T","58.8","T","40.3","T"
"US1ORWS0007","RALEIGH HILLS 0.8 WSW, OR US","45.4788","-122.7692","78.0","2019",,,,,"         0","N",,,,,"0.9"," ,N,0205, ","1.19"," ,N,0212, ",,,,,"27.43"," ,N","2.1"," ,N",,,,,,
"USS0022D02S","NORTH FORK, OR US","45.55","-122.0","932.7","2019","21",,"      158",,,,"14","T,0210, ","77"," ,T,0313, ",,,"3.50"," ,T,0407, ","85","T,0828, ","7385","9","98.65"," ,T",,,"44.0","T","50.6","T","37.3","T"
"US1ORWS0005","BEAVERTON 1.9 NNE, OR US","45.500323","-122.801443","75.9","2019",,,,,,,,,,,,,"1.46"," ,N,0212, ",,,,,"30.81"," ,N",,,,,,,,
"USC00358420","THE POPLARS, OR US","43.2644","-120.9447","1313.7","2019","105",,,,,,"-7","7,1129,+",,,,,"0.96"," ,7,0227, ","94","7,0805, ","7568","7","12.44"," ,7",,,"44.1","7","58.8","7","29.5","7"
"USR0000OSPA","SPARTA BUTTE OREGON, OR US","44.9083","-117.375","1303.9","2019","288",,,,,,"1","U,0207, ",,,,,,,"94","U,0806,+","7265","1",,,,,"45.1","U","55.4","U","34.8","U"
"USS0021D35S","MUD RIDGE, OR US","45.25","-121.74","1240.5","2019","29",,"      170",,,,"6","T,0304, ","76"," ,T,0226,+",,,"2.30"," ,T,0407, ","84","T,0806, ","7729","2","52.46"," ,T",,,"43.0","T","50.2","T","35.8","T"
"USC00355392","MCNARY DAM NUMBER 2, OR US","45.9306","-119.2955","110.0","2019","835",,,,,,"7","7,0207, ",,,,,"0.50"," ,7,0121, ","98","7,0808, ","5064","1","8.36"," ,7",,,"52.5","7","61.8","7","43.2","7"
"USC00354060","HOWARD PRAIRIE DAM, OR US","42.2292","-122.3814","1392.0","2019","34",,"      146",,"        42","7","2","7,0223, ","46"," ,7,0227, ","12.0"," ,7,1127, ","1.35"," ,7,0227, ","91","7,0828, ","7653","8","31.96"," ,7","141.9"," ,7","43.5","7","54.7","7","32.3","7"
"USS0023D02S","SEINE CREEK, OR US","45.53","-123.3","627.9","2019","61",,"       43",,,,"17","T,0210, ","18"," ,T,0309,+",,,"2.70"," ,T,0212, ","88","T,0828, ","5926","5","50.64"," ,T",,,"48.1","T","54.8","T","41.3","T"
"USR0000OLAG","LAGRANDE 1 OREGON, OR US","45.5528","-118.0119","944.9","2019","409",,,,,,"1","U,0207, ",,,,,,,"97","U,0806, ","6487","7",,,,,"48.0","U","58.0","U","38.0","U"
"USC00358466","THREE LYNX, OR US","45.1219","-122.07","341.4","2019",,,,,,,,,,,,,"2.35"," ,7,0408, ",,,"5523","1","47.28"," ,7",,,,,,,,
"USC00351836","COQUILLE CITY, OR US","43.17513","-124.19387","7.0","2019","79",,,,,,"24","7,1130, ",,,,,"3.24"," ,7,0225, ","93","7,0612,+","4218","4","53.88"," ,7",,,"53.5","7","63.9","7","43.1","7"
"US1ORWS0075","HILLSBORO 1.3 SSE, OR US","45.509119","-122.931603","46.9","2019",,,,,,,,,,,,,"1.64"," ,N,0212, ",,,,,"28.17"," ,N",,,,,,,,
"USC00359316","WICKIUP DAM, OR US","43.6825","-121.6874","1328.3","2019","117",,"      126",,"        27","7","1","7,0210, ","38"," ,7,0301,+","12.0"," ,7,0225, ","1.38"," ,7,0225, ","94","7,0829, ","7375","5","20.11"," ,7","81.0"," ,7","44.7","7","57.3","7","32.0","7"
"USC00352800","FALLS CITY 2 SSW, OR US","44.8358","-123.4525","210.3","2019","128",,,,,,"17","7,0304, ",,,,,"2.64"," ,7,0407, ","96","7,0828, ","5064","6","52.91"," ,7",,,"50.3","7","60.5","7","40.2","7"
"USC00350501","BARNES STATION, OR US","43.9456","-120.2169","1210.1","2019","399",,,,,,"-5","7,0207, ",,,,,"0.81"," ,7,0526, ","100","7,0807, ",,,"13.57"," ,7",,,"48.5","7","62.2","7","34.9","7"
"USW00094281","AURORA STATE AIRPORT, OR US","45.24861","-122.76861","59.7","2019","419",,,,,,"21","W,1130, ",,,,,"1.09"," ,W,0118, ","100","W,0827, ","4098","8","26.57"," ,W",,,"54.1","W","63.5","W","44.6","W"
"USR0000OCOL","COLGATE OREGON, OR US","44.3158","-121.6056","999.7","2019","68",,,,,,"-7","U,0228, ",,,,,,,"98","U,0828, ","7365","7",,,,,"44.7","U","59.6","U","29.7","U"
"USW00094273","MCMINNVILLE MUNICIPAL AIRPORT, OR US","45.19472","-123.13389","48.5","2019","267",,,,,,"20","W,1130, ",,,,,"1.37"," ,W,0118, ","99","W,0827, ","4608","2","28.81"," ,W",,,"52.5","W","62.9","W","42.1","W"
"USS0023D03S","MILLER WOODS, OR US","45.25","-123.28","128.0","2019","182",,"        4",,,,"26","T,0210, ","6"," ,T,0209, ",,,"2.20"," ,T,0212, ","94","T,0827, ","4563","0","37.08"," ,T",,,"52.3","T","60.3","T","44.4","T"
"USR0000OPHI","P HILL FRENCHGLEN OREGON, OR US","42.8264","-118.9361","1481.3","2019","418",,,,,,"-5","U,1130, ",,,,,,,"95","U,0828, ","6825","8",,,,,"47.0","U","58.6","U","35.3","U"
"USR0000OCOD","COLD SPRINGS OREGON, OR US","44.35","-120.13","1431.0","2019","58",,,,,,"-12","U,1130, ",,,,,,,"93","U,0828, ","8238","5",,,,,"42.4","U","56.2","U","28.6","U"
"USR0000OBLU","BLUE CANYON OREGON, OR US","44.67","-117.9336","1280.2","2019","224",,,,,,"-6","U,0207, ",,,,,,,"95","U,0828,+","7547","0",,,,,"44.7","U","56.6","U","32.8","U"
"USW00094185","BURNS MUNICIPAL AIRPORT, OR US","43.595","-118.9564","1261.9","2019","257",,,,,,"-10","W,1130, ",,,,,"0.97"," ,W,0519, ","98","W,0828, ","7558","8","14.73"," ,W",,,"45.6","W","60.1","W","31.0","W"
"USR0000OTOK","TOKETEE OREGON, OR US","43.2397","-122.4","1024.1","2019","123",,,,,,"12","U,0222, ",,,,,,,"97","U,0827, ","6101","6",,,,,"48.2","U","60.6","U","35.9","U"
"USC00355055","LOST CREEK DAM, OR US","42.6722","-122.675","481.6","2019","523",,,,,,"18","7,1130, ",,,,,"2.10"," ,7,0408, ","106","7,0828, ","4647","7","33.72"," ,7",,,"52.9","7","67.2","7","38.6","7"
"USR0000OBLA","BLACK ROCK OREGON, OR US","43.5233","-121.8133","1487.4","2019","134",,,,,,"3","U,0210, ",,,,,,,"92","U,0828, ","7018","0",,,,,"45.5","U","57.4","U","33.7","U"
"USR0000OBKL","BALD KNOB LOOKOUT OREGON, OR US","42.7","-124.0333","1106.4","2019","122",,,,,,"20","U,0205,+",,,,,,,"98","U,0827,+","5577","3",,,,,"49.3","U","57.4","U","41.2","U"
"USC00356033","NEWPORT 1 SE, OR US","44.6247","-124.0469","2.4","2019","0",,"        0",,"         0","7","28","7,0306,+","0"," ,7,1231,+","0.5"," ,7,0204, ","2.52"," ,7,1221, ","79","7,0513,+","4900","5","52.83"," ,7","0.5"," ,7","51.5","7","58.0","7","45.0","7"
"USS0023D01S","SADDLE MOUNTAIN, OR US","45.54","-123.37","947.9","2019","37",,"       75",,,,"15","T,0304, ","38"," ,T,0308,+",,,"3.60"," ,T,1220, ","84","T,0828, ","6630","3","72.34"," ,T",,,"46.1","T","52.3","T","39.9","T"
"USC00357127","REX 1 S, OR US","45.3033","-122.9133","157.0","2019","312",,,,,,"22","7,0210, ",,,,,"1.43"," ,7,0918, ","95","7,0828,+","4578","2","30.19"," ,7",,,"52.5","7","60.8","7","44.2","7"
"USR0000OSLI","SLIDE MOUNTAIN OREGON, OR US","44.4625","-120.2944","1737.4","2019","41",,,,,,"0","U,0210, ",,,,,,,"86","U,0828, ","8539","8",,,,,"41.3","U","50.7","U","32.0","U"
"USC00356035","NEWPORT 3 N, OR US","44.6833","-124.0552","67.1","2019","4",,"        0",,"         0","7","26","7,1129, ","0"," ,7,1231,+","0.1"," ,7,0227, ",,,"79","7,0511, ","4462","7",,,"0.1"," ,7","52.8","7","59.8","7","45.9","7"
"USC00351946","CRATER LAKE NPS HQ, OR US","42.89765","-122.13387","1976.6","2019","0",,,,,,"1","7,0222, ",,,,,"2.75"," ,7,0408, ","78","7,0830, ","9459","0","65.78"," ,7",,,"37.7","7","47.0","7","28.5","7"
"USC00350858","BOARDMAN, OR US","45.8472","-119.6933","85.3","2019","904",,,,,,"2","7,0305, ",,,,,"0.90"," ,7,0328, ","100","7,0809,+","5281","0","10.19"," ,7",,,"52.1","7","63.5","7","40.7","7"
"USR0000OMOO","MOON HILL OREGON, OR US","42.8597","-118.6706","1859.3","2019","230",,,,,,"0","U,0207, ",,,,,,,"89","U,0828,+","7469","5",,,,,"44.4","U","54.8","U","33.9","U"
"USR0000OMOR","MORGAN MOUNTAIN OREGON, OR US","44.5167","-117.2833","1097.3","2019","611",,,,,,"6","U,0207, ",,,,,,,"97","U,0805, ","6604","0",,,,,"47.7","U","56.0","U","39.5","U"
"USR0000OFAL","FALL MOUNTAIN OREGON, OR US","44.2939","-119.0333","1813.3","2019","162",,,,,,"4","U,0207, ",,,,,,,"90","U,0828,+","8236","8",,,,,"42.5","U","51.3","U","33.7","U"
"USR0000OMOU","MOUNT STELLA OREGON, OR US","42.9372","-122.4353","1437.1","2019","415",,,,,,"14","U,0222, ",,,,,,,"94","U,0827,+",,,,,,,"49.6","U","59.4","U","39.8","U"
"USS0017D07S","TAYLOR GREEN, OR US","45.08","-117.55","1749.6","2019","95",,"      181",,,,"-1","T,0207, ","80"," ,T,0227,+",,,"1.70"," ,T,0203, ","84","T,0828, ","8179","9","40.14"," ,T",,,"42.4","T","49.9","T","34.9","T"
"US1ORYM0019","NEWBERG 0.3 N, OR US","45.310251","-122.960836","63.1","2019",,,,,,,,,,,,,,,,,,,"29.41"," ,N",,,,,,,,
"USC00350304","ASHLAND, OR US","42.21306","-122.71478","527.0","2019","309",,,,,,"17","7,1129, ",,,,,"0.84"," ,7,0403, ","99","7,0828, ","4861","8","16.85"," ,7",,,"52.0","7","66.1","7","37.8","7"
"USS0018E09S","TIPTON, OR US","44.66","-118.43","1569.7","2019","102",,"      165",,,,"2","T,0207, ","61"," ,T,0225, ",,,"0.80"," ,T,0810,+","90","T,0828, ","8010","9","24.64"," ,T",,,"42.9","T","52.2","T","33.6","T"
"USS0022F04S","SALT CREEK FALLS, OR US","43.61","-122.12","1286.3","2019","31",,"      168",,,,"10","T,0222, ","82"," ,T,0225, ",,,"5.10"," ,T,0407, ","86","T,0611, ","7387","9","63.85"," ,T",,,"44.2","T","52.9","T","35.6","T"
"USS0022G13S","BILLIE CREEK DIVIDE, OR US","42.41","-122.27","1609.3","2019","8",,"      163",,,,"4","T,0222, ","81"," ,T,0226, ",,,"1.60"," ,T,0408,+","87","T,0827, ","7840","5","47.15"," ,T",,,"42.9","T","53.7","T","32.2","T"
"US1ORJF0001","MADRAS 6.6 NNW, OR US","44.7203","-121.1736","727.3","2019",,,,,,,,,,,,,"0.93"," ,N,0225, ",,,,,"12.33"," ,N",,,,,,,,
"USS0022E07S","JUMP OFF JOE, OR US","44.39","-122.17","1072.9","2019","59",,"      121",,,,"17","T,0226, ","54"," ,T,0226,+",,,"3.60"," ,T,0407, ","87","T,0828, ","6495","4","65.69"," ,T",,,"46.8","T","53.9","T","39.6","T"
"USR0000ORYE","RYE MOUNTAIN OREGON, OR US","45.2172","-123.5356","609.6","2019","97",,,,,,"17","U,0304, ",,,,,,,"91","U,0828,+","5575","0",,,,,"49.4","U","57.0","U","41.7","U"
"USS0018G02S","FISH CREEK, OR US","42.71","-118.63","2334.8","2019","5",,"      204",,,,"-1","T,0222, ","99"," ,T,0411, ",,,,,"78","T,0828, ","9087","6",,,,,"39.4","T","47.8","T","31.0","T"
"USR0000OLMC","LITTLE MCCOY CREEK OREGON, OR US","42.7081","-118.51","1548.4","2019",,,,,,,,,,,,,,,,,"6174","1",,,,,,,,,,
"USS0018E08S","GOLD CENTER, OR US","44.76","-118.31","1649.0","2019",,,"      156",,,,,,"65"," ,T,0225, ",,,"1.10"," ,T,0224, ",,,"8006","9","28.76"," ,T",,,,,,,,
"USS0021F12S","SILVER CREEK, OR US","42.96","-121.18","1749.6","2019","70",,"      147",,,,"5","T,0222, ","54"," ,T,0227, ",,,"1.20"," ,T,0225, ","86","T,0805,+","7461","9","26.75"," ,T",,,"44.2","T","55.3","T","33.2","T"
"USC00353818","HERMISTON 2 NW, OR US","45.8619","-119.3119","140.2","2019","616",,,,,,"1","7,0305,+",,,,,"0.47"," ,7,0121, ","102","7,0808,+","5547","9","8.28"," ,7",,,"50.7","7","63.4","7","38.0","7"
"US1ORYM0017","SHERIDAN 2.1 NNW, OR US","45.123747","-123.409084","279.8","2019",,,,,,,,,,,,,"1.28"," ,N,1221, ",,,,,"33.87"," ,N",,,,,,,,
"US1ORYM0013","MCMINNVILLE 0.1 NW, OR US","45.2123184204102","-123.191314697266","48.5","2019",,,,,,,,,,,,,"1.36"," ,N,1221,+",,,,,"34.15"," ,N",,,,,,,,
"USR0000OHEH","HEHE 1 OREGON, OR US","44.9661","-121.4908","804.7","2019","229",,,,,,"-4","U,1130, ",,,,,,,"97","U,0828,+","6883","0",,,,,"46.4","U","58.0","U","34.8","U"
"USR0000ONPR","NORTH POLE RIDGE OREGON, OR US","45.0375","-120.5306","1060.7","2019","374",,,,,,"8","U,0303,+",,,,,,,"94","U,0807, ","6456","5",,,,,"47.6","U","55.4","U","39.8","U"
"US1ORYM0009","SHERIDAN 5.2 NW, OR US","45.155387","-123.459732","293.8","2019",,,,,,,,,,,,,"2.43"," ,N,0212, ",,,,,"43.15"," ,N",,,,,,,,
"US1ORYM0008","GRAND RONDE 3.5 NW, OR US","45.090474","-123.667138","122.2","2019",,,,,,,,,,,,,"2.96"," ,N,1221, ",,,,,"54.10"," ,N",,,,,,,,
"USS0017D08S","SCHNEIDER MEADOWS, OR US","45.0","-117.17","1645.9","2019","20",,"      227",,,,"-7","T,0207, ","121"," ,T,0227, ",,,"1.60"," ,T,0519,+","87","T,0804, ","8997","4","52.63"," ,T",,,"40.0","T","51.2","T","28.7","T"
"USC00353705","HASKINS DAM, OR US","45.3127","-123.35","230.4","2019",,,"        6",,"         5","7",,,"8"," ,7,0210, ","5.5"," ,7,0210, ","3.72"," ,7,0212, ",,,,,"50.91"," ,7","15.8"," ,7",,,,,,
"USS0021F10S","NEW CRESCENT LAKE, OR US","43.51","-121.98","1496.6","2019","18",,"      150",,,,"6","T,0210, ","68"," ,T,0227, ",,,"2.80"," ,T,0407, ","88","T,0828, ","7526","1","36.94"," ,T",,,"43.9","T","55.4","T","32.5","T"
"USS0022G12S","FOURMILE LAKE, OR US","42.44","-122.23","1819.7","2019","23",,"      193",,,,"9","T,0222, ","91"," ,T,0312, ",,,"2.60"," ,T,0119, ","81","T,0827, ","7895","1","48.75"," ,T",,,"42.8","T","50.1","T","35.5","T"
"USC00353827","HEPPNER, OR US","45.3653","-119.5639","574.5","2019","366",,"       44",,"        15","7","6","7,0305, ","13"," ,7,0301,+","5.5"," ,7,0224, ","0.62"," ,7,0324, ","95","7,0808, ","5881","3","13.00"," ,7","40.5"," ,7","49.1","7","59.8","7","38.3","7"
"USC00351407","CASCADE LOCKS, OR US","45.6778","-121.8736","43.3","2019","348",,"       31",,"         9","7","20","7,0306,+","17"," ,7,0213, ","8.1"," ,7,0213, ",,,"95","7,0829,+","4889","0",,,"39.5"," ,7","51.8","7","60.5","7","43.1","7"
"USS0022F03S","CASCADE SUMMIT, OR US","43.59","-122.06","1554.5","2019","10",,"      181",,,,"6","T,0228, ","110"," ,T,0312,+",,,"3.00"," ,T,0407, ","85","T,0828, ","7911","3","53.94"," ,T",,,"42.7","T","51.8","T","33.6","T"
"USS0022G24S","COLD SPRINGS CAMP, OR US","42.53","-122.18","1810.5","2019","26",,"      166",,,,"9","T,0222, ","83"," ,T,0227,+",,,"2.00"," ,T,0119, ","83","T,0827, ","7618","2","45.85"," ,T",,,"43.5","T","51.8","T","35.2","T"
"USC00351643","CLATSKANIE, OR US","46.1081","-123.2058","6.7","2019","93",,"        0",,"         2","7","18","7,1130,+","0"," ,7,1231,+","2.0"," ,7,0209, ","3.26"," ,7,1220, ","93","7,0828, ","5135","7","38.50"," ,7","3.0"," ,7","50.6","7","60.2","7","41.1","7"
"USC00352973","FLORENCE NUMBER 2, OR US","44.0039","-124.0948","22.9","2019","9",,,,,,"26","7,0205,+",,,,,"2.12"," ,7,0212, ","88","7,0827, ","5383","5","64.85"," ,7",,,"50.3","7","57.8","7","42.7","7"
"US1ORDS0047","BEND 2.5 NW, OR US","44.0878219604492","-121.350799560547","1121.4","2019",,,,,,,,,,,,,"1.43"," ,N,0225, ",,,,,"18.01"," ,N",,,,,,,,
"USR0000OWAG","WAGONTIRE OREGON, OR US","43.34","-119.8814","1956.8","2019","133",,,,,,"6","U,0210, ",,,,,,,"84","U,0807,+","8376","4",,,,,"41.6","U","49.2","U","34.0","U"
"US1ORDS0048","SISTERS 2.6 WNW, OR US","44.311561","-121.592007","995.5","2019",,,"       82",,"        17","N",,,"31"," ,N,0227, ","17.2"," ,N,0225, ","1.60"," ,N,0225, ",,,,,"21.01"," ,N","83.1"," ,N",,,,,,
"USR0000OYEL","YELLOWSTONE MOUNTAIN OREGON, OR US","44.5922","-122.4278","938.8","2019","149",,,,,,"14","U,0304, ",,,,,,,"94","U,0827, ","5793","6",,,,,"48.9","U","57.3","U","40.6","U"
"USR0000OWAM","WAMIC MILL OREGON, OR US","45.2406","-121.453","1011.9","2019","340",,,,,,"7","U,0305,+",,,,,,,"94","U,0807, ","6392","2",,,,,"47.8","U","57.0","U","38.6","U"
"US1ORYM0001","GASTON 3.2 SW, OR US","45.4","-123.183","89.9","2019",,,,,"         4","N",,,,,"3.5"," ,N,0209, ","2.61"," ,N,0212, ",,,,,"38.06"," ,N","8.8"," ,N",,,,,,
"USC00358246","SUNRIVER, OR US","43.8933","-121.4117","1274.1","2019","52",,,,,,"-3","7,0301, ",,,,,,,"97","7,0829, ","7400","1","20.51"," ,7",,,"43.7","7","58.4","7","29.0","7"
"US1ORTL0001","NEHALEM 4.1 ESE, OR US","45.695","-123.814","22.9","2019",,,,,,,,,,,,,"4.61"," ,N,0212, ",,,,,"79.55"," ,N",,,,,,,,
"USS0022E09S","LITTLE MEADOWS, OR US","44.61","-122.23","1225.3","2019","22",,"      168",,,,"10","T,0304, ","91"," ,T,0312, ",,,"4.10"," ,T,0407, ","85","T,0827, ","7338","5","82.67"," ,T",,,"44.2","T","52.0","T","36.5","T"
"USS0022F18S","DIAMOND LAKE, OR US","43.19","-122.14","1609.3","2019","9",,"      159",,,,"2","T,0222, ","66"," ,T,0227,+",,,"3.00"," ,T,0407, ","86","T,0827, ","7648","9","44.95"," ,T",,,"43.4","T","54.8","T","32.1","T"
"USR0000OQUA","QUAIL PRAIRIE LOOKOUT OREGON, OR US","42.2167","-124.0333","924.5","2019","337",,,,,,"21","U,0205,+",,,,,,,"94","U,0827, ","4767","5",,,,,"52.3","U","60.2","U","44.3","U"
"US1ORDS0035","SISTERS 2.0 WNW, OR US","44.30611111","-121.5825","986.0","2019",,,,,,,,,,,,,"1.65"," ,N,0225, ",,,,,"21.25"," ,N",,,,,,,,
"USC00359461","WINCHESTER, OR US","43.2827","-123.3536","140.2","2019","545",,,,,,"23","7,1029, ",,,,,"1.83"," ,7,0225, ","102","7,0829,+",,,"35.81"," ,7",,,"54.6","7","66.0","7","43.2","7"
"USC00358494","TILLAMOOK, OR US","45.454","-123.8519","3.7","2019",,,"        0",,"         1","7",,,"0"," ,7,1231,+","3.0"," ,7,0209, ",,,,,"4817","0",,,"3.0"," ,7",,,,,,
"USS0018E18S","LAKE CREEK RANGER STATION, OR US","44.21","-118.64","1597.2","2019","26",,"      150",,,,"-9","T,0207, ","62"," ,T,0226, ",,,"1.00"," ,T,0203, ","90","T,0828, ","8631","9","25.15"," ,T",,,"41.2","T","53.8","T","28.7","T"
"US1ORMN0009","SALEM 3.3 SSW, OR US","44.879","-123.042","135.9","2019",,,,,,,,,,,,,"1.81"," ,N,0407, ",,,,,"35.30"," ,N",,,,,,,,
"USS0018D09S","BEAVER RESERVOIR, OR US","45.15","-118.22","1569.7","2019","46",,"      169",,,,"1","T,0207, ","59"," ,T,0225, ",,,"0.90"," ,T,0519, ","88","T,0828, ","8210","1","31.72"," ,T",,,"42.1","T","51.4","T","32.9","T"
"US1ORMN0008","SALEM 3.7 SSW, OR US","44.87682","-123.05757","163.1","2019",,,,,"         4","N",,,,,"1.5"," ,N,0227,+","1.88"," ,N,0407, ",,,,,"39.95"," ,N","5.7"," ,N",,,,,,
"USS0021E05S","SANTIAM JCT., OR US","44.44","-121.95","1140.0","2019","36",,"      128",,,,"0","T,0228, ","62"," ,T,0224, ",,,"3.00"," ,T,0407, ","91","T,0828, ","7386","4","59.56"," ,T",,,"44.3","T","55.3","T","33.4","T"
"USR0000OGAD","GRANDAD OREGON, OR US","43.4158","-122.5772","883.9","2019","353",,,,,,"19","U,0207, ",,,,,,,"98","U,0827, ","4942","8",,,,,"51.5","U","62.3","U","40.8","U"
"USS0021D08S","MOUNT HOOD TEST SITE, OR US","45.32","-121.72","1636.8","2019","20",,"      231",,,,"7","T,0210, ","124"," ,T,0313, ",,,"2.60"," ,T,0407, ","78","T,0828, ","8634","8","72.28"," ,T",,,"40.5","T","46.4","T","34.7","T"
"USR0000OPRO","PROVOLT SEED ORCHARD OREGON, OR US","42.2897","-123.2303","359.7","2019","407",,,,,,"20","U,1030, ",,,,,,,"104","U,0827, ","4665","9",,,,,"53.0","U","67.1","U","38.9","U"
"USC00357169","RIDDLE, OR US","42.95094","-123.35733","207.3","2019","594",,"        5",,"         4","7","20","7,1030, ","5"," ,7,0227, ","5.0"," ,7,0227, ","1.51"," ,7,0120, ","104","7,0828, ","3683","9","31.39"," ,7","15.0"," ,7","56.2","7","68.5","7","43.8","7"
"USS0017D06S","MOSS SPRINGS, OR US","45.27","-117.69","1755.6","2019","2",,"      239",,,,"-11","T,0207, ","86"," ,T,0225,+",,,"2.30"," ,T,1019, ","82","T,0807,+","9687","9","54.44"," ,T",,,"38.4","T","48.8","T","28.0","T"
"USS0017D18S","MOUNT HOWARD, OR US","45.27","-117.17","2411.0","2019","0",,"      249",,,,"-7","T,0206, ","63"," ,T,0412, ",,,"1.40"," ,T,0420, ","74","T,0722, ","10669","1","43.63"," ,T",,,"35.2","T","44.0","T","26.4","T"
"USC00358498","TILLAMOOK 6 SE, OR US","45.4294","-123.7619","42.7","2019","15",,,,,,"26","7,1130,+",,,,,,,"85","7,0510, ","5200","1","61.04"," ,7",,,"50.6","7","58.3","7","43.0","7"
"USC00359588","YACHATS, OR US","44.33","-124.0981","15.2","2019","2",,"        0",,"         0","7","28","7,0309, ","0"," ,7,1231,+","0.2"," ,7,0227, ","2.69"," ,7,1221, ","78","7,0318, ","4668","5","57.63"," ,7","0.3"," ,7","52.1","7","58.4","7","45.7","7"
"USS0022G14S","FISH LK., OR US","42.38","-122.35","1420.4","2019","56",,"      151",,,,"6","T,0222, ","51"," ,T,0313,+",,,"1.70"," ,T,0408, ","90","T,0827, ","6918","3","41.44"," ,T",,,"45.7","T","55.0","T","36.3","T"
"USC00350652","BELKNAP SPRINGS 8 N, OR US","44.2867","-122.0388","655.9","2019","186",,"       54",,"        18","7","14","7,0304, ","46"," ,7,0301,+","16.0"," ,7,0226,+","3.25"," ,7,0408, ","97","7,0829, ","6209","6","55.28"," ,7","94.1"," ,7","47.5","7","57.3","7","37.7","7"
"USS0022E08S","DALY LAKE, OR US","44.52","-122.09","1124.7","2019","82",,"      114",,,,"17","T,0209, ","61"," ,T,0225, ",,,"3.50"," ,T,0407, ","86","T,0828, ","6316","2","63.85"," ,T",,,"47.3","T","53.7","T","40.8","T"
"USC00351862","CORVALLIS STATE UNIVERSITY, OR US","44.6341","-123.19","68.6","2019","259",,,,"         2","7","16","7,1129, ",,,"2.8"," ,7,0227, ","1.78"," ,7,0407, ","99","7,0828, ","4616","5","33.65"," ,7","5.5"," ,7","52.3","7","63.4","7","41.1","7"
"USS0022F05S","RAILROAD OVERPASS, OR US","43.66","-122.21","816.9","2019","123",,"       43",,,,"19","T,0228, ","18"," ,T,0227, ",,,"2.70"," ,T,0407, ","94","T,0912, ","5359","5","49.56"," ,T",,,"50.6","T","59.4","T","41.9","T"
"USS0022G26S","HOWARD PRAIRIE, OR US","42.22","-122.37","1396.0","2019","34",,"      147",,,,"7","T,0222, ","33"," ,T,0312, ",,,"1.20"," ,T,0119, ","87","T,0827, ","6959","4","30.07"," ,T",,,"45.6","T","54.9","T","36.3","T"
"USC00350897","BONNEVILLE DAM, OR US","45.6354","-121.9523","18.9","2019","278",,"       15",,"         6","7","21","7,0306, ","12"," ,7,0209, ","12.0"," ,7,0209, ","2.32"," ,7,0119, ","95","7,0829,+","4815","9","54.23"," ,7","30.7"," ,7","51.7","7","59.5","7","43.8","7"
"US1ORMN0016","STAYTON 6 ENE, OR US","44.8353","-122.6836","331.9","2019",,,"       13",,"        10","N",,,"4"," ,N,0227, ","2.6"," ,N,0204, ","1.79"," ,N,0407, ",,,,,"54.19"," ,N","22.4"," ,N",,,,,,
"USR0000OHAY","HAYSTACK OREGON, OR US","44.4503","-121.13","987.6","2019","317",,,,,,"8","U,1130,+",,,,,,,"95","U,0807, ","6258","8",,,,,"48.1","U","58.5","U","37.8","U"
"USS0018G01S","SILVIES, OR US","42.75","-118.69","2130.6","2019","21",,"      174",,,,"-2","T,0222, ","60"," ,T,0312, ",,,"1.10"," ,T,0519,+","82","T,0828, ","8679","7","27.61"," ,T",,,"40.8","T","49.9","T","31.7","T"
"USS0021E04S","MARION FORKS, OR US","44.59","-121.97","789.4","2019",,,"      116",,,,,,"43"," ,T,0225, ",,,"3.70"," ,T,0407, ",,,"6912","9","58.16"," ,T",,,,,,,,
"US1ORDS0029","BEND 1.5 WSW, OR US","44.0598","-121.339429","1127.5","2019",,,,,,,,,,,,,"1.36"," ,N,0225, ",,,,,"17.26"," ,N",,,,,,,,
"USC00353971","HOLLEY, OR US","44.3525","-122.7842","185.9","2019",,,"       11",,"         3","7",,,"8"," ,7,0228,+","7.5"," ,7,0225, ","2.01"," ,7,0407, ",,,,,"43.07"," ,7","13.5"," ,7",,,,,,
"USS0021D01S","GREENPOINT, OR US","45.62","-121.7","1008.9","2019","40",,"      162",,,,"8","T,0305, ","58"," ,T,0226,+",,,"2.50"," ,T,1219, ","88","T,0806, ","7263","3","50.64"," ,T",,,"44.2","T","50.8","T","37.5","T"
"USS0022G33S","SEVENMILE MARSH, OR US","42.7","-122.14","1737.4","2019","40",,"      190",,,,"11","T,0222, ","105"," ,T,0226, ",,,"2.10"," ,T,0408, ","84","T,0827, ","7696","5","54.64"," ,T",,,"43.3","T","51.0","T","35.6","T"
"US1ORMN0026","TURNER 6.6 S, OR US","44.7504","-122.9359","93.9","2019",,,,,,,,,,,,,"1.40"," ,N,0224, ",,,,,"36.54"," ,N",,,,,,,,
"USR0000OBUS","BUCKHORN SPRINGS OREGON, OR US","42.1197","-122.5633","847.3","2019",,,,,,,"22","U,1129, ",,,,,,,,,"4104","3",,,,,,,,,"43.4","U"
"USS0021D14S","PEAVINE RIDGE, OR US","45.04","-121.93","1042.4","2019","32",,"      137",,,,"11","T,0304, ","59"," ,T,0226,+",,,"2.50"," ,T,0407, ","87","T,0828, ","7315","1","52.42"," ,T",,,"44.4","T","52.8","T","35.9","T"
"US1ORLA0072","SPRINGFIELD 1.3 N, OR US","44.0717","-122.9814","142.6","2019",,,,,,,,,,,,,"1.55"," ,N,0408, ",,,,,"38.02"," ,N",,,,,,,,
"US1ORLA0191","JUNCTION CITY 8.6 SW, OR US","44.132372","-123.328529","139.0","2019",,,,,,,,,,,,,"2.51"," ,N,0407, ",,,,,"43.22"," ,N",,,,,,,,
"USC00351682","CLOVERDALE, OR US","45.205","-123.8925","3.7","2019","21",,"        0",,"         1","7","27","7,1010, ","0"," ,7,1231,+","2.0"," ,7,0203, ","3.50"," ,7,1220,+","88","7,0509, ","4523","9","60.39"," ,7","3.5"," ,7","52.5","7","60.7","7","44.4","7"
"USR0000OBUE","BUCKEYE OREGON, OR US","43.0361","-122.6553","998.2","2019","506",,,,,,"20","U,1129,+",,,,,,,"104","U,0827, ","4786","9",,,,,"52.8","U","64.7","U","40.8","U"
"USC00350471","BANDON 2 NNE, OR US","43.14989","-124.40051","7.0","2019",,,,,,,,,,,,,,,,,"4053","6",,,,,,,,,,
"USS0021D12S","CLEAR LAKE, OR US","45.19","-121.69","1161.3","2019","42",,"      160",,,,"10","T,0305, ","51"," ,T,0226, ",,,"2.50"," ,T,0407, ","86","T,0806, ","7628","9","33.85"," ,T",,,"43.6","T","50.1","T","37.0","T"
"USC00352654","EMIGRANT SPRINGS, OR US","45.5575","-118.4638","1168.0","2019",,,,,,,,,,,,,"1.44"," ,7,0412, ",,,,,"35.30"," ,7",,,,,,,,
"USC00354835","LEMOLO LAKE 3 NNW, OR US","43.35947","-122.22033","1243.6","2019","80",,"      142",,"        36","7","8","7,0228,+","88"," ,7,0301,+","22.0"," ,7,0226, ","3.45"," ,7,0408, ","91","7,0829,+","6967","6","56.56"," ,7","202.8"," ,7","45.7","7","56.1","7","35.3","7"
"US1ORDS0001","REDMOND 5.4 NNW, OR US","44.3358","-121.1997","877.2","2019",,,,,,,,,,,,,"1.24"," ,N,0225, ",,,,,"13.77"," ,N",,,,,,,,
"USS0021D13S","CLACKAMAS LAKE, OR US","45.1","-121.75","1036.3","2019","11",,"      151",,,,"2","T,0305, ","59"," ,T,0226,+",,,"2.60"," ,T,0407, ","89","T,0828, ","7870","3","42.25"," ,T",,,"42.9","T","52.7","T","33.1","T"
"USS0023G15S","BIGELOW CAMP, OR US","42.08","-123.34","1563.6","2019","45",,"      154",,,,"14","T,0205, ","69"," ,T,0227, ",,,"2.20"," ,T,0408,+","87","T,0827, ","6741","9","66.73"," ,T",,,"45.9","T","54.2","T","37.5","T"
"US1ORKL0018","KENO 0.6 SSE, OR US","42.1182833","-121.9236166","1252.4","2019",,,,,,,,,,,,,"0.94"," ,N,0409, ",,,,,"19.08"," ,N",,,,,,,,
"US1ORKL0016","KLAMATH FALLS 0.5 NNW, OR US","42.228588","-121.774503","1255.5","2019",,,,,,,,,,,,,"1.02"," ,N,0214, ",,,,,"18.16"," ,N",,,,,,,,
"USR0000OPOL","POLLYWOG OREGON, OR US","45.4586","-121.4464","1011.9","2019","197",,,,,,"7","U,0305, ",,,,,,,"93","U,0806, ","6761","4",,,,,"46.1","U","55.2","U","37.1","U"
"USR0000OKEL","KELSAY BUTTE OREGON, OR US","43.9014","-117.9858","1581.0","2019","409",,,,,,"7","U,0207, ",,,,,,,"92","U,0805, ","7352","6",,,,,"45.4","U","54.2","U","36.7","U"
"USS0021F21S","IRISH TAYLOR, OR US","43.8","-121.95","1688.6","2019","3",,"      215",,,,"-3","T,0228, ","111"," ,T,0226, ",,,"3.00"," ,T,0407, ","86","T,0731, ","9081","0","52.55"," ,T",,,"39.6","T","48.6","T","30.6","T"
"USC00352867","FERN RIDGE VENETA, OR US","44.0494","-123.3702","147.8","2019",,,,,,,,,,,,,,,,,"5035","3",,,,,,,,,,
"USS0022F14S","SUMMIT LAKE, OR US","43.45","-122.14","1709.9","2019","0",,"      230",,,,"-4","T,0228, ","121"," ,T,0227, ",,,"3.50"," ,T,0224, ","80","T,0828, ","8958","9","66.15"," ,T",,,"39.8","T","48.9","T","30.6","T"
"US1ORPK0045","DALLAS 1.5 WNW, OR US","44.93191","-123.33915","124.1","2019",,,,,,,,,,,,,"1.60"," ,N,0407, ",,,,,"38.76"," ,N",,,,,,,,
"USC00351897","COTTAGE GROVE 2 E, OR US","43.7916","-123.0275","181.4","2019","219",,"       16",,"         4","7","21","7,1030,+","18"," ,7,0227, ","8.6"," ,7,0225, ","3.07"," ,7,0225, ","100","7,0613, ","4873","4","42.19"," ,7","21.8"," ,7","51.9","7","62.6","7","41.2","7"
"US1ORPK0042","SALEM 2.5 WNW, OR US","44.94377","-123.06589","47.5","2019",,,,,,,,,,,,,"1.71"," ,N,0407, ",,,,,"35.37"," ,N",,,,,,,,
"USC00358173","SUMMER LAKE 1 S, OR US","42.9592","-120.7897","1277.7","2019","468",,,,,,"4","7,1130, ",,,,,"0.68"," ,7,0526, ","99","7,0805, ","5823","1","15.25"," ,7",,,"49.8","7","63.5","7","36.0","7"
"USS0021F22S","CHEMULT ALTERNATE, OR US","43.23","-121.81","1478.3","2019","13",,"      145",,,,"-3","T,0222, ","64"," ,T,0227, ",,,"1.60"," ,T,0224, ","87","T,0827, ","7821","2","28.84"," ,T",,,"43.2","T","56.1","T","30.3","T"
"USR0000OSUG","SUGARLOAF OREGON, OR US","43.6728","-122.6564","1082.0","2019","128",,,,,,"15","U,0210, ",,,,,,,"96","U,0827, ","6238","8",,,,,"47.4","U","55.9","U","38.9","U"
"USS0021E13S","THREE CREEKS MEADOW, OR US","44.14","-121.64","1734.3","2019","13",,"      162",,,,"-3","T,0304, ","72"," ,T,0226, ",,,"3.30"," ,T,0407, ","82","T,0807, ","7955","6","40.44"," ,T",,,"42.8","T","51.4","T","34.2","T"
"USS0021D04S","RED HILL, OR US","45.46","-121.7","1344.2","2019","35",,"      204",,,,"5","T,0305, ","110"," ,T,0225, ",,,"3.90"," ,T,0407, ","84","T,0828, ","7916","8","80.24"," ,T",,,"42.8","T","49.5","T","36.1","T"
"USR0000OMID","MIDDLE MOUNTAIN OREGON, OR US","45.5833","-121.5833","792.5","2019","286",,,,,,"12","U,0303, ",,,,,,,"92","U,0805, ","6399","9",,,,,"47.7","U","55.3","U","40.0","U"
"USR0000OSUM","SUMMIT OREGON, OR US","42.2322","-120.2456","1873.6","2019","178",,,,,,"4","U,0222, ",,,,,,,"88","U,0828, ","7420","4",,,,,"44.6","U","54.2","U","35.0","U"
"USC00350694","BEND, OR US","44.0569","-121.285","1115.6","2019",,,,,,,,,,,,,,,,,,,,,,,,,,,,
"USR0000OSTR","STRAWBERRY OREGON, OR US","42.1894","-120.8464","1703.8","2019","97",,,,,,"0","U,0222, ",,,,,,,"92","U,0827, ","7410","8",,,,,"44.6","U","56.6","U","32.5","U"
"USR0000OPO2","POINT PROM II OREGON, OR US","45.3547","-117.7044","2013.8","2019","80",,,,,,"-3","U,0207, ",,,,,,,"86","U,0806, ","8872","9",,,,,"39.9","U","47.8","U","32.1","U"
"USC00353604","HALFWAY, OR US","44.8773","-117.1095","808.6","2019","456",,"       97",,"        15","7","-1","7,0101, ","21"," ,7,0212,+","10.8"," ,7,0211, ","1.32"," ,7,0119, ","98","7,0807, ","6848","6","20.63"," ,7","48.8"," ,7","47.1","7","59.6","7","34.6","7"
"USR0000OKE2","KEENEY TWO OREGON, OR US","44.6661","-118.9208","1560.6","2019","218",,,,,,"4","U,0210, ",,,,,,,"91","U,0828,+","7388","3",,,,,"44.8","U","54.0","U","35.6","U"
"USC00352632","ELKTON 1 SW, OR US","43.64258","-123.58328","38.1","2019","396",,"        2",,"         2","7","23","7,1031,+","13"," ,7,0226, ","10.0"," ,7,0225, ","2.00"," ,7,0226, ","103","7,0828, ","3988","8","44.82"," ,7","12.0"," ,7","54.6","7","66.7","7","42.6","7"
"USC00352997","FOREST GROVE, OR US","45.5247","-123.1025","54.9","2019","281",,,,,,"19","7,1201,+",,,,,,,"98","7,0829, ","4921","0",,,,,"51.7","7","61.8","7","41.6","7"
"USC00354811","LEABURG 1 SW, OR US","44.1013","-122.6886","205.7","2019","276",,,,,,"22","7,0304, ",,,,,"2.84"," ,7,0225, ","96","7,0829,+","4416","1","51.63"," ,7",,,"52.9","7","63.7","7","42.1","7"
"US1ORPK0033","MONMOUTH 0.9 SE, OR US","44.8419246822596","-123.215292915702","57.3","2019",,,,,,,,,,,,,"1.52"," ,N,0407, ",,,,,"33.04"," ,N",,,,,,,,
"US1ORPK0031","MONMOUTH 6.3 S, OR US","44.759065","-123.232464","107.3","2019",,,,,"         2","N",,,,,"3.0"," ,N,0227, ","1.63"," ,N,0407, ",,,,,"31.17"," ,N","5.2"," ,N",,,,,,
"USR0000OBRO","BROWNS WELL OREGON, OR US","43.5611","-120.2486","1389.9","2019","164",,,,,,"-9","U,0207, ",,,,,,,"94","U,0828,+","7393","4",,,,,"45.0","U","58.2","U","31.9","U"
"USS0022G21S","BIG RED MOUNTAIN, OR US","42.05","-122.85","1844.0","2019","7",,"      200",,,,"12","T,0204, ","101"," ,T,0227, ",,,"2.60"," ,T,0225, ","78","T,0827, ","7993","5","56.86"," ,T",,,"42.2","T","48.0","T","36.3","T"
"USR0000OBRU","BRUSH CREEK OREGON, OR US","44.2844","-122.8494","701.0","2019","190",,,,,,"20","U,0304, ",,,,,,,"93","U,0827, ","4976","4",,,,,"51.2","U","59.1","U","43.3","U"
"US1ORMN0050","SALEM 4.0 NE, OR US","44.96494","-122.9635467","58.8","2019",,,,,,,,,,,,,"1.30"," ,N,0911,+",,,,,"35.49"," ,N",,,,,,,,
"USC00359390","WILLIAMS 1 NW, OR US","42.2283","-123.2858","450.2","2019",,,,,,,,,,,,,"2.67"," ,7,0408, ",,,,,"32.53"," ,7",,,,,,,,
