"STATION","NAME","LATITUDE","LONGITUDE","ELEVATION","DATE","CDSD","CDSD_ATTRIBUTES","DSND","DSND_ATTRIBUTES","DSNW","DSNW_ATTRIBUTES","EMNT","EMNT_ATTRIBUTES","EMSD","EMSD_ATTRIBUTES","EMSN","EMSN_ATTRIBUTES","EMXP","EMXP_ATTRIBUTES","EMXT","EMXT_ATTRIBUTES","HDSD","HDSD_ATTRIBUTES","PRCP","PRCP_ATTRIBUTES","SNOW","SNOW_ATTRIBUTES","TAVG","TAVG_ATTRIBUTES","TMAX","TMAX_ATTRIBUTES","TMIN","TMIN_ATTRIBUTES"
"US1PABR0002","READING 3.5 SW, PA US","40.316251","-75.988661","97.5","2008",,,,,"         4","N",,,,,"3.1"," ,N,1217, ","3.04"," ,N,0907, ",,,,,"51.14"," ,N","11.5"," ,N",,,,,,
"USC00361838","COWANESQUE DAM, PA US","41.99059","-77.15655","350.5","2008","324",,"       46",,"        14","0","-8","0,0301,+","7"," ,0,1214,+","6.0"," ,0,1212, ","1.46"," ,0,0305, ","91","0,0607, ","6791","0","33.38"," ,0","38.9"," ,0","46.7","0","58.5","0","34.8","0"
"USC00360868","BRADFORD 4 SW RES 5, PA US","41.89801","-78.71431","506.0","2008","224",,"      104",,"        40","0","-9","0,0229, ","15"," ,0,1126, ","8.0"," ,0,1122, ","1.50"," ,0,0206, ","89","0,0610,+","7323","4","46.90"," ,0","97.1"," ,0","44.4","0","55.9","0","33.0","0"
"US1PABR0008","READING 1.2 SW, PA US","40.3277","-75.9432","64.0","2008",,,,,,,,,,,,,"2.80"," ,N,0907, ",,,,,"46.74"," ,N",,,,,,,,
"USC00369318","WASHINGTON 3 NE, PA US","40.1789","-80.1889","396.2","2008","429",,"       32",,"        10","0","-8","0,0120, ","3"," ,0,1214,+","2.2"," ,0,1212,+","1.67"," ,0,0614, ","89","0,0610, ","5971","0","43.81"," ,0","24.5"," ,0","48.2","0","59.3","0","37.1","0"
"USC00367931","SELINSGROVE 2 S, PA US","40.7831","-76.8617","128.0","2008","650",,"       20",,"         6","0","5","0,0212,+","3"," ,0,1121,+","2.7"," ,0,0213, ","3.20"," ,0,0305, ","97","0,0610, ","5808","6","45.68"," ,0","14.2"," ,0","50.2","0","60.6","0","39.7","0"
"USC00368469","STEVENSON DAM, PA US","41.4039","-78.0183","284.1","2008","462",,"       77",,"        18","0","0","0,0301,+","7"," ,0,1124,+","6.5"," ,0,1121, ","1.30"," ,0,0928, ","92","0,0610,+","6201","8","38.66"," ,0","46.2"," ,0","48.3","0","59.7","0","37.0","0"
"USR0000PALL","ALLEGHENY PENNSYLVANIA, PA US","41.4864","-79.1025","539.5","2008","241",,,,,,"-7","U,0221, ",,,,,,,"89","U,0609, ",,,,,,,"45.9","U","56.7","U","35.0","U"
"USC00366289","NEW PARK, PA US","39.73427","-76.50399","243.8","2008",,,"       13",,"         5","0",,,"3"," ,0,0117, ","3.1"," ,0,0117, ","3.96"," ,0,0906, ",,,,,"46.93"," ,0","10.3"," ,0",,,,,,
"USW00014736","ALTOONA BLAIR CO AIRPORT, PA US","40.29639","-78.32028","451.1","2008","491",,,,,,"2","X,0211, ",,,,,"1.40"," ,X,0828,+","89","X,0607, ","5959","4","33.31"," ,X",,,"49.4","X","58.9","X","39.9","X"
"USC00363451","GRAYS LANDING, PA US","39.7833","-79.9167","243.8","2008","609",,"       23",,"         8","0","5","0,1223,+","2"," ,0,0222,+","2.0"," ,0,0102, ","1.82"," ,0,0601, ","92","0,0613, ","5341","3","44.99"," ,0","14.6"," ,0","51.3","0","62.6","0","40.1","0"
"USW00014737","ALLENTOWN LEHIGH VALLEY INTERNATIONAL AIRPORT, PA US","40.64985","-75.44771","118.9","2008","763",,"       14",,"         6","0","8","0,0211, ","4"," ,0,0223, ","4.5"," ,0,0222, ","3.83"," ,0,0928, ","96","0,0610, ","5459","6","51.54"," ,0","17.4"," ,0","51.5","0","62.0","0","40.9","0"
"USC00367938","SELLERSVILLE, PA US","40.35515","-75.31313","92.0","2008","742",,,,"         4","0","7","0,0211, ",,,"2.0"," ,0,0222, ","2.07"," ,0,0907, ","95","0,0611,+","5428","6","51.02"," ,0","5.0"," ,0","51.3","0","62.3","0","40.4","0"
"USC00368905","TOWANDA 1 S, PA US","41.7511","-76.443","231.6","2008","468",,,,"         8","0","-1","0,0301,+",,,"6.1"," ,0,1220, ","2.09"," ,0,0305, ","94","0,0610,+","6395","6","43.55"," ,0","24.6"," ,0","48.1","0","59.1","0","37.0","0"
"USC00360861","BRADDOCK LOCK 2, PA US","40.3916","-79.8594","222.5","2008",,,"        7",,"         4","0",,,"3"," ,0,0212, ","3.5"," ,0,0212, ","1.95"," ,0,0701, ",,,,,"39.39"," ,0","8.0"," ,0",,,,,,
"US1PABK0015","FURLONG 0.7 SW, PA US","40.289325","-75.093096","78.0","2008",,,,,,,,,,,,,"2.54"," ,N,0604, ",,,,,"50.93"," ,N",,,,,,,,
"USC00363698","HARRISBURG 1 NE, PA US","40.28171","-76.87049","128.0","2008","862",,"       15",,"         6","0","8","0,0212,+","2"," ,0,0223,+","2.0"," ,0,0213, ","2.77"," ,0,0305, ","96","0,0801,+","5376","5","45.26"," ,0","10.1"," ,0","52.1","0","61.1","0","43.0","0"
"USC00360867","BRADFORD CENTRAL FIR, PA US","41.95","-78.65","457.2","2008",,,,,,,,,,,,,,,,,,,,,,,,,,,,
"USC00361833","COVINGTON 2 WSW, PA US","41.7375","-77.1158","531.9","2008",,,"       75",,"        24","0",,,"8"," ,0,1214,+","7.0"," ,0,1220,+","1.65"," ,0,0305, ",,,,,"36.90"," ,0","48.7"," ,0",,,,,,
"US1PACB0018","LEHIGHTON 3.3 WSW, PA US","40.811925","-75.773578","182.9","2008",,,,,,,,,,,,,"3.28"," ,N,1026, ",,,,,"50.78"," ,N",,,,,,,,
"US1PABK0005","PERKASIE 1.6 SSE, PA US","40.348328","-75.286222","120.1","2008",,,,,,,,,,,,,,,,,,,"48.48"," ,N",,,,,,,,
"USC00361726","CONNELLSVILLE 2 SSW, PA US","39.9969","-79.5963","274.3","2008",,,"       23",,"        11","0",,,"7"," ,0,0103, ","6.0"," ,0,0102, ","1.80"," ,0,0615, ",,,,,"50.76"," ,0","21.1"," ,0",,,,,,
"USC00368361","SPRINGBORO 3 WNW, PA US","41.8162","-80.4249","306.3","2008","385",,"       94",,"        41","0","-6","0,0228, ","15"," ,0,0309, ","14.9"," ,0,1121, ","1.98"," ,0,0709, ","91","0,0610, ","6678","3","55.48"," ,0","159.4"," ,0","46.9","0","56.9","0","36.9","0"
"US1PACB0012","BOWMANSTOWN 3.0 WSW, PA US","40.778972","-75.711283","159.1","2008",,,"       32",,"         7","N",,,"5"," ,N,1221, ","4.2"," ,N,1220, ","3.21"," ,N,0305, ",,,,,"54.26"," ,N","21.4"," ,N",,,,,,
"USC00363343","GLENWILLARD DASHIELDS LOCK AND DAM, PA US","40.54886","-80.20578","216.4","2008",,,,,"        12","0",,,,,"5.0"," ,0,0214, ","1.34"," ,0,0913, ",,,,,"33.47"," ,0","44.1"," ,0",,,,,,
"USC00364432","KANE 1 NNE, PA US","41.67697","-78.80358","533.4","2008","174",,"      112",,"        35","0","-8","0,0301,+","15"," ,0,0301, ","9.2"," ,0,1121, ","1.26"," ,0,0206, ","89","0,0610,+","7576","7","48.13"," ,0","110.7"," ,0","43.8","0","55.4","0","32.2","0"
"USC00367029","PLEASANT MOUNT 1 W, PA US","41.7394","-75.4465","548.6","2008",,,,,"        24","0",,,,,"7.2"," ,0,1220, ","2.30"," ,0,0714, ","89","0,0610, ",,,"51.67"," ,0","68.2"," ,0",,,"54.1","0",,
"US1PAEL0001","ST. MARYS 1.7 SE, PA US","41.410693","-78.534767","554.1","2008",,,,,"        26","N",,,,,"11.1"," ,N,1121, ","1.33"," ,N,0829, ",,,,,"44.81"," ,N","93.1"," ,N",,,,,,
"USC00362013","DANVILLE, PA US","40.9591","-76.6176","145.7","2008",,,"       28",,,,,,"4"," ,0,1221,+",,,,,,,,,,,,,,,,,,
"USW00093778","YORK AIRPORT, PA US","39.91806","-76.87417","148.1","2008","755",,,,,,"6","W,0220, ",,,,,"3.56"," ,W,0906, ","96","W,0608,+","4952","4","49.61"," ,W",,,"52.5","W","63.6","W","41.4","W"
"USW00014860","ERIE INTERNATIONAL AIRPORT, PA US","42.0803","-80.1824","222.2","2008","712",,"       89",,"        40","0","3","0,0221, ","17"," ,0,0309, ","15.2"," ,0,0308, ","2.01"," ,0,0723, ","93","0,0609, ","5877","3","49.47"," ,0","165.7"," ,0","50.4","0","58.1","0","42.7","0"
"USW00013739","PHILADELPHIA INTERNATIONAL AIRPORT, PA US","39.87327","-75.22678","3.0","2008","1315",,"        2",,"         3","0","11","0,0211, ","2"," ,0,0222, ","3.2"," ,0,0222, ","2.72"," ,0,1211, ","98","0,0610, ","4335","1","40.35"," ,0","6.1"," ,0","56.4","0","65.0","0","47.8","0"
"USC00366151","NATRONA LOCK 4, PA US","40.6141","-79.7193","231.6","2008",,,,,"         7","0",,,,,"3.0"," ,0,0212, ","3.00"," ,0,0913, ",,,,,"44.68"," ,0","17.2"," ,0",,,,,,
"US1PACB0002","PALMERTON 3.9 NE, PA US","40.845937","-75.571412","321.0","2008",,,,,,,,,,,,,,,,,,,"55.15"," ,N",,,,,,,,
"USC00368692","SUSQUEHANNA, PA US","41.9478","-75.6047","277.4","2008",,,,,,,,,,,,,,,,,,,,,,,,,,,,
"USC00368449","STATE COLLEGE, PA US","40.79326","-77.86712","356.6","2008","660",,"       43",,"        16","0","2","0,0212,+","7"," ,0,0216,+","5.0"," ,0,0213, ","2.34"," ,0,0305, ","93","0,0610, ","5845","0","41.13"," ,0","38.5"," ,0","50.2","0","59.2","0","41.2","0"
"USC00363311","GLEN HAZEL 2 NE DAM, PA US","41.56067","-78.59943","524.3","2008","211",,"       99",,"        27","0","-9","0,0229, ","14"," ,0,0302,+","9.0"," ,0,1121, ","1.51"," ,0,0328, ","88","0,0610,+","7239","8","43.54"," ,0","83.3"," ,0","44.9","0","55.8","0","33.9","0"
"USC00364763","LANCASTER 2 NE FILT PLANT, PA US","40.0499","-76.2742","82.3","2008","911",,"        7",,"         4","0","9","0,0211, ","2"," ,0,0222,+","3.0"," ,0,0117, ","3.35"," ,0,0927, ","96","0,0610, ","5038","8","42.54"," ,0","9.5"," ,0","53.1","0","62.9","0","43.3","0"
"USW00014711","MIDDLETOWN HARRISBURG INTERNATIONAL AIRPORT, PA US","40.1962","-76.7724","95.1","2008","1049",,"       11",,"         7","0","9","0,0211, ","2"," ,0,1217,+","3.6"," ,0,1216, ","2.59"," ,0,0906, ","95","0,0720, ","5039","3","46.28"," ,0","16.5"," ,0","53.5","0","62.7","0","44.4","0"
"USW00014712","READING REGIONAL AIRPORT, PA US","40.37338","-75.95924","104.9","2008","961",,,,,,"8","Z,0211, ",,,,,"2.70"," ,Z,0213, ","97","W,0610, ","5144","9","42.62"," ,Z",,,"53.1","Z","63.2","W","43.0","Z"
"USC00366022","MOUNT DAVIS, PA US","39.7996","-79.1884","832.1","2008",,,,,,,,,,,,,,,,,,,,,,,,,,,,
"USC00367477","RIDGWAY, PA US","41.4196","-78.74921","414.5","2008","226",,"       65",,"        25","0","-5","0,0301,+","8"," ,0,0302,+","6.0"," ,0,1029, ","1.58"," ,0,0328, ","89","0,0609,+","7003","5","45.90"," ,0","62.8"," ,0","45.7","0","57.3","0","34.1","0"
"US1PABD0004","RAINSBURG 9.0 SSE, PA US","39.781057","-78.433411","365.2","2008",,,,,"         7","N",,,,,"4.8"," ,N,0118, ","3.09"," ,N,0305, ",,,,,"41.44"," ,N","19.4"," ,N",,,,,,
"USC00361377","CHARLEROI LOCK 4, PA US","40.1468","-79.8986","228.3","2008",,,"        5",,"         5","0",,,"3"," ,0,0222, ","2.5"," ,0,0222, ","1.58"," ,0,1220, ",,,,,"38.71"," ,0","9.8"," ,0",,,,,,
"USC00361139","BUTLER 2 SW, PA US","40.8415","-79.9163","304.8","2008",,,,,"        10","0",,,,,"3.3"," ,0,0213, ",,,,,,,"35.35"," ,0","31.5"," ,0",,,,,,
"USC00361810","COUDERSPORT 7 SE, PA US","41.7391","-77.971","655.3","2008","150",,"      101",,"        33","0","-5","0,0229,+","12"," ,0,0302, ","8.0"," ,0,1212, ","1.38"," ,0,1026, ","87","0,0610, ","7710","3","43.77"," ,0","86.3"," ,0","43.3","0","53.5","0","33.1","0"
"US1PAAL0001","BRIDGEVILLE 1.4 SW, PA US","40.341739","-80.122944","310.0","2008",,,,,"        17","N",,,,,"4.2"," ,N,0212, ","1.49"," ,N,1220, ",,,,,"42.31"," ,N","42.6"," ,N",,,,,,
"USC00361705","CONFLUENCE 1 SW DAM, PA US","39.7994","-79.3665","454.2","2008","367",,"       67",,"        24","0","-4","0,1222, ","8"," ,0,1126,+","7.0"," ,0,1126,+","1.69"," ,0,0601, ","90","0,0720, ","5935","4","52.07"," ,0","60.1"," ,0","48.8","0","60.0","0","37.5","0"
"USC00366042","MOUNT PLEASANT, PA US","40.21556","-79.49944","305.7","2008",,,"       27",,"         9","0",,,"4"," ,0,0102, ","4.0"," ,0,0102, ","2.00"," ,0,0211, ","89","0,0610,+","5390","3","48.05"," ,0","20.0"," ,0",,,"60.8","0",,
"USR0000PERI","ERIE PENNSYLVANIA, PA US","41.6281","-79.9567","548.6","2008","355",,,,,,"-6","U,0221, ",,,,,,,"90","U,0609, ","6471","1",,,,,"47.0","U","56.9","U","37.0","U"
"USC00363321","GLENMOORE, PA US","40.0962","-75.7513","152.4","2008",,,"        9",,"         5","0",,,"2"," ,0,0222,+","3.7"," ,0,0118, ","3.02"," ,0,0907, ",,,,,"51.19"," ,0","12.1"," ,0",,,,,,
"USC00362470","EBENSBURG SEWAGE PLANT, PA US","40.46813","-78.73092","591.3","2008","297",,"       84",,"        31","0","-5","0,0221, ","11"," ,0,0301, ","9.0"," ,0,0301, ","1.65"," ,0,1220, ","88","0,0610,+","6170","6","49.54"," ,0","87.2"," ,0","47.4","0","58.4","0","36.4","0"
"USC00364896","LEBANON 2 W, PA US","40.3333","-76.4667","137.2","2008","690",,"       12",,"         4","0","7","0,0211, ","3"," ,0,0212, ","2.9"," ,0,0212, ","2.56"," ,0,1211, ","93","0,0610,+","5505","1","47.48"," ,0","10.9"," ,0","51.3","0","61.6","0","41.0","0"
"USW00054782","HERITAGE FIELD AIRPORT, PA US","40.23802","-75.55493","87.8","2008","908",,,,,,"9","W,0211, ",,,,,"3.03"," ,W,0906, ","96","W,0610, ","4980","8","46.79"," ,W",,,"53.3","W","63.3","W","43.4","W"
"USC00366955","PINE GROVE FURNACE, PA US","40.03298","-77.30417","269.7","2008",,,"       21",,"         7","0",,,"4"," ,0,0222, ","3.0"," ,0,0222, ","2.73"," ,0,0305, ",,,,,"52.82"," ,0","14.3"," ,0",,,,,,
"USW00054786","DOYLESTOWN AIRPORT, PA US","40.33015","-75.12292","120.1","2008","897",,,,,,"8","W,0211, ",,,,,"3.01"," ,W,0213, ","96","W,0610, ","4882","3","47.77"," ,W",,,"53.2","W","63.0","W","43.4","W"
"USC00364778","LANDISVILLE 2 NW, PA US","40.11903","-76.4265","109.7","2008",,,"        9",,"         3","0","5","0,0221, ","2"," ,0,0117, ","2.1"," ,0,0117, ","2.39"," ,0,0906, ","96","0,0610, ","5160","8","45.09"," ,0","9.9"," ,0","52.6","0","64.2","0","40.9","0"
"USW00004843","MEADVILLE PORT MEADVILLE AIRPORT, PA US","41.62639","-80.215","426.7","2008","429",,,,,,"-2","W,0211, ",,,,,"1.80"," ,W,0206, ","89","W,0609, ","6270","5","46.81"," ,W",,,"47.8","W","56.2","W","39.4","W"
"USW00004726","JOHNSTOWN CAMBRIA CO AIRPORT, PA US","40.31611","-78.83389","696.2","2008","345",,,,,,"-2","W,0211, ",,,,,"2.94"," ,W,0912, ","86","W,0609,+","6268","4","43.66"," ,W",,,"47.6","W","55.9","W","39.3","W"
"US1PAWN0013","HAWLEY 15, PA US","41.502728","-75.159051","323.4","2008",,,,,"         4","N",,,,,"8.5"," ,N,1220, ","2.65"," ,N,1212, ",,,,,"51.48"," ,N","18.3"," ,N",,,,,,
"US1PAWN0012","DYBERRY 19, PA US","41.604779","-75.283316","374.9","2008",,,,,"        24","N",,,,,"9.0"," ,N,1220, ","3.57"," ,N,0724, ",,,,,"55.24"," ,N","79.4"," ,N",,,,,,
"US1PAWN0010","STARRUCCA 27, PA US","41.899224","-75.471787","405.1","2008",,,,,,,,,,,,,"2.00"," ,N,0305, ",,,,,"49.44"," ,N",,,,,,,,
"USC00361080","BUCKSVILLE, PA US","40.49994","-75.20406","118.0","2008",,,,,"         3","0",,,,,"1.7"," ,0,0213, ","3.15"," ,0,0213, ",,,"5343","3","52.86"," ,0","3.7"," ,0",,,,,,
"USC00367732","SAFE HARBOR DAM, PA US","39.92534","-76.38903","59.4","2008","1153",,"        5",,"         4","0","11","0,0211, ","2"," ,0,0222, ","2.0"," ,0,0118, ","4.48"," ,0,0907, ","96","0,0611,+","4707","9","47.07"," ,0","5.7"," ,0","54.8","0","63.4","0","46.2","0"
"US1PAWN0008","MILANVILLE 1.5 SE, PA US","41.633333","-75.05","217.0","2008",,,,,"        14","N",,,,,"8.7"," ,N,1220, ","2.49"," ,N,1212, ",,,,,"52.17"," ,N","55.9"," ,N",,,,,,
"USC00361073","BUCKSTOWN 1 SE, PA US","40.0631","-78.8422","749.8","2008",,,"       75",,"        40","0",,,"11"," ,0,0214, ","8.0"," ,0,0301, ","2.05"," ,0,0913, ",,,,,"44.80"," ,0","93.7"," ,0",,,,,,
"USC00366886","PHILADELPHIA FRANKLIN INSTITUTE, PA US","39.95867","-75.1728","18.3","2008","1579",,"        2",,"         0","0","10","0,0211, ","2"," ,0,0222, ","0.1"," ,0,1219,+","2.00"," ,0,0906, ","99","0,0610,+","4109","7","48.46"," ,0","0.2"," ,0","57.4","0","65.6","0","49.2","0"
"USW00014777","WILKES BARRE SCRANTON INTERNATIONAL AIRPORT, PA US","41.3336","-75.7269","283.5","2008","564",,,,"        11","Z","4","X,0211, ",,,"7.4"," ,Z,1219, ","1.58"," ,X,0909, ","92","X,0609,+","5983","1","43.29"," ,X","32.6"," ,Z","49.6","X","59.3","X","40.0","X"
"USW00014778","WILLIAMSPORT REGIONAL AIRPORT, PA US","41.24295","-76.9218","158.5","2008","695",,"       37",,"         7","0","5","0,0224,+","6"," ,0,1222,+","6.3"," ,0,1219, ","3.00"," ,0,0723, ","97","0,0609, ","5719","5","45.14"," ,0","28.3"," ,0","50.8","0","60.8","0","40.7","0"
"USC00363130","GALETON, PA US","41.7356","-77.6516","410.0","2008",,,"       78",,"        23","0",,,"7"," ,0,1212, ","7.7"," ,0,1212, ","1.37"," ,0,0328, ",,,,,"39.78"," ,0","66.3"," ,0",,,,,,
"USC00367730","SABINSVILLE 3 SE, PA US","41.8422","-77.4759","609.6","2008",,,"       75",,"        25","0",,,"8"," ,0,1213,+","8.0"," ,0,1212, ","1.45"," ,0,0305, ",,,,,"35.14"," ,0","50.9"," ,0",,,,,,
"USC00368145","SINNEMAHONING, PA US","41.3202","-78.0958","249.9","2008",,,"       63",,"        14","0",,,"10"," ,0,0301, ","7.0"," ,0,1121, ","1.20"," ,0,0829,+",,,,,"39.74"," ,0","44.5"," ,0",,,,,,
"USC00360785","BLUE MARSH LAKE, PA US","40.38028","-76.02745","106.7","2008","672",,,,"         5","0","7","0,0212,+",,,"3.5"," ,0,0222, ","2.63"," ,0,0908, ","93","0,0721,+",,,"42.65"," ,0","12.9"," ,0","51.2","0","62.0","0","40.3","0"
"USC00362721","EVERETT, PA US","40.00872","-78.35854","304.8","2008","429",,,,"         5","0","5","0,0222,+",,,"4.7"," ,0,0213, ","3.00"," ,0,0426, ","93","0,0607, ","6004","7","43.26"," ,0","17.9"," ,0","49.1","0","60.6","0","37.5","0"
"USW00014770","SELINSGROVE PENN VALLEY AIRPORT, PA US","40.82056","-76.86417","135.3","2008","664",,,,,,"5","W,0211, ",,,,,"1.98"," ,W,0927, ","96","W,0609,+","5646","9","41.63"," ,W",,,"50.6","W","61.7","W","39.4","W"
"USC00367735","SAGAMORE, PA US","40.7819","-79.2375","353.6","2008",,,,,"        22","0",,,,,"7.0"," ,0,0301, ","1.40"," ,0,1220, ",,,,,"44.57"," ,0","48.5"," ,0",,,,,,
"USC00363018","FRANCIS E WALTER DAM, PA US","41.1184","-75.7277","459.9","2008",,,,,,,,,,,,,,,,,,,"48.93"," ,0",,,,,,,,
"USC00366649","OSWAYO 1 ENE, PA US","41.9245","-78.0072","521.2","2008","200",,"      108",,"        26","0","-11","0,0229, ","9"," ,0,0302,+","5.0"," ,0,1220,+","1.31"," ,0,0206, ","90","0,0610,+","7478","3","41.33"," ,0","74.6"," ,0","44.3","0","56.3","0","32.2","0"
"US1PACD0001","NEWBURG 0.5 WSW, PA US","40.135013","-77.563287","185.0","2008",,,,,,,,,,,,,"3.43"," ,N,1219, ",,,,,"61.84"," ,N",,,,,,,,
"US1PACM0001","WESTMONT 1.1 W, PA US","40.31695","-78.972324","584.9","2008",,,,,"        32","N",,,,,"14.0"," ,N,0301, ","3.52"," ,N,0913, ",,,,,"59.97"," ,N","98.0"," ,N",,,,,,
"US1PAWN0003","DAMASCUS 9, PA US","41.65","-75.083333","355.4","2008",,,,,,,,,,,,,"2.32"," ,N,1025, ",,,,,"52.37"," ,N",,,,,,,,
"USC00365686","MEYERSDALE 2 SSW, PA US","39.7808","-79.041","609.6","2008","184",,"       59",,"        14","0","-8","0,0222, ","4"," ,0,1126,+","3.5"," ,0,1126, ","1.50"," ,0,0731, ","87","0,0719, ","6556","5","45.47"," ,0","34.2"," ,0","46.4","0","57.9","0","34.8","0"
"USC00367863","SCHENLEY LOCK 5, PA US","40.683","-79.6684","238.7","2008",,,"       20",,"         4","0",,,"4"," ,0,0303,+","4.0"," ,0,0213, ","1.87"," ,0,0913, ",,,,,"39.18"," ,0","11.0"," ,0",,,,,,
"USC00362298","DUNLO, PA US","40.2872","-78.7242","719.3","2008",,,"       82",,"        30","0",,,"15"," ,0,0301, ","9.0"," ,0,0301, ","2.40"," ,0,0913, ",,,,,"47.23"," ,0","73.5"," ,0",,,,,,
"USC00361087","BUFFALO MILLS, PA US","39.9459","-78.6458","399.3","2008",,,"       27",,"        10","0",,,"6"," ,0,0213, ","3.2"," ,0,0212, ","1.57"," ,0,0421, ",,,,,"39.80"," ,0","26.6"," ,0",,,,,,
"USC00369367","WAYNESBURG 1 E, PA US","39.8986","-80.1656","286.5","2008","483",,"       20",,"         8","0","2","0,0222, ","3"," ,0,0222, ","2.4"," ,0,0222, ","1.52"," ,0,0601, ","90","0,0613,+","5605","1","45.30"," ,0","24.3"," ,0","50.0","0","62.0","0","38.1","0"
"USW00094823","PITTSBURGH ASOS, PA US","40.4846","-80.2144","366.7","2008","636",,"       24",,"        14","0","2","0,1222, ","6"," ,0,0301,+","5.0"," ,0,0226, ","2.23"," ,0,0626, ","91","0,0609, ","5501","4","39.75"," ,0","44.0"," ,0","50.9","0","60.4","0","41.4","0"
"USC00361526","CLERMONT 1 NW, PA US","41.69965","-78.49783","634.0","2008","152",,"      107",,"        31","0","-6","0,0222,+","18"," ,0,0302, ","5.0"," ,0,1212,+","1.40"," ,0,0206, ","87","0,0610, ","7725","9","46.06"," ,0","94.8"," ,0","43.4","0","53.7","0","33.2","0"
"USC00363028","FRANKLIN, PA US","41.4004","-79.8305","309.4","2008",,,"       55",,"        25","0",,,"7"," ,0,0302,+","6.0"," ,0,0310,+","1.64"," ,0,0206, ",,,"6218","5","48.04"," ,0","73.3"," ,0",,,,,,
"USC00368959","TROY 1 NE, PA US","41.79028","-76.7725","318.5","2008",,,"        0",,"         0","0",,,"0"," ,0,1231,+","0.0"," ,0,1231,+","1.75"," ,0,0305, ",,,,,"35.21"," ,0","0.0"," ,0",,,,,,
"USC00361737","CONSHOHOCKEN, PA US","40.0744","-75.3179","21.3","2008",,,"        0",,"         1","0",,,"0"," ,0,1231,+","2.8"," ,0,0222, ","3.00"," ,0,1211, ",,,,,"44.35"," ,0","2.8"," ,0",,,,,,
"USC00368011","SHAWNEE STATE PARK, PA US","40.03278","-78.63722","388.6","2008",,,"       29",,"        10","0",,,"6"," ,0,0214,+","6.0"," ,0,0213, ","1.60"," ,0,1220, ",,,,,"40.92"," ,0","23.5"," ,0",,,,,,
"USC00366194","NESHAMINY FALLS, PA US","40.14831","-74.95298","12.2","2008","872",,"        2",,"         3","0","9","0,0212,+","4"," ,0,0222, ","4.0"," ,0,0222, ","2.26"," ,0,0906, ","95","0,0719,+","5203","7","50.15"," ,0","7.4"," ,0","52.7","0","63.5","0","42.0","0"
"USC00369464","WEST CHESTER 2 NW, PA US","39.9708","-75.635","114.3","2008","832",,"       11",,"         4","0","8","0,0121, ","4"," ,0,1122,+","3.7"," ,0,1121, ","3.07"," ,0,0907, ","97","0,0611,+","5140","4","46.85"," ,0","12.0"," ,0","52.4","0","64.1","0","40.8","0"
"USC00367040","POCONO PEAK LAKE, PA US","41.2808","-75.3958","640.1","2008",,,,,,,,,,,,,,,,,,,,,,,,,,,,
"US1PABL0004","NEWRY 1.9 SSE, PA US","40.369093","-78.41735","309.1","2008",,,,,,,,,,,,,"2.09"," ,N,0913, ",,,,,"41.27"," ,N",,,,,,,,
"USC00365651","MERCER, PA US","41.2246","-80.2349","371.9","2008",,,,,,,,,,,,,,,,,,,,,"67.3"," ,0",,,,,,
"USC00368244","SOMERSET, PA US","39.997","-79.08334","640.1","2008",,,"       67",,"        36","0",,,"7"," ,0,1126,+","7.8"," ,0,1126, ","1.86"," ,0,1220, ",,,,,"51.20"," ,0","91.1"," ,0",,,,,,
"USC00362942","FORD CITY 4 S DAM, PA US","40.71507","-79.51345","283.5","2008","501",,"       40",,"        14","0","-3","0,0229, ","10"," ,0,0301, ","6.0"," ,0,0301, ","2.38"," ,0,0731, ","92","0,0610,+",,,"42.78"," ,0","33.3"," ,0","48.8","0","60.9","0","36.7","0"
"USC00366508","OCTORARO LAKE, PA US","39.79552","-76.04404","79.2","2008","808",,"        3",,"         1","0","10","0,0211, ","1"," ,0,1206,+","1.1"," ,0,0117, ","2.89"," ,0,0906, ","95","0,0609,+","5067","0","48.33"," ,0","2.2"," ,0","52.7","0","62.9","0","42.5","0"
"USW00094732","NORTHEAST PHILADELPHIA AIRPORT, PA US","40.07892","-75.01341","32.0","2008","1385",,,,,,"11","W,0211, ",,,,,"2.52"," ,W,1211, ","99","W,0610, ","4241","2","42.15"," ,W",,,"57.0","W","66.6","W","47.4","W"
"USC00364325","JAMESTOWN 2 NW, PA US","41.4992","-80.4681","312.4","2008","329",,"       69",,"        29","0","-7","0,0228, ","18"," ,0,1123,+","13.0"," ,0,1121, ","1.63"," ,0,0206, ","89","0,0610,+","6608","9","45.12"," ,0","88.8"," ,0","46.9","0","57.3","0","36.4","0"
"US1PAMT0022","KULPSVILLE 2.6 SSW, PA US","40.20769","-75.35216","82.9","2008",,,,,,,,,,,,,"2.61"," ,N,1212, ",,,,,"46.33"," ,N",,,,,,,,
"USW00014751","HARRISBURG CAPITAL CITY AIRPORT, PA US","40.21722","-76.85139","103.6","2008","976",,,,,,"9","W,0211, ",,,,,"2.53"," ,W,1211, ","96","W,0609, ","5003","7","34.70"," ,W",,,"53.4","W","63.0","W","43.9","W"
"USW00054737","LANCASTER AIRPORT, PA US","40.12028","-76.29444","122.8","2008","796",,,,,,"8","W,0211, ",,,,,"2.49"," ,W,0707, ","93","W,0610,+","5216","6","37.83"," ,W",,,"52.4","W","62.1","W","42.6","W"
"US1PAMT0019","SPRING MOUNT 1.3 N, PA US","40.29191","-75.46685","103.9","2008",,,,,,,,,,,,,"2.67"," ,N,1212, ",,,,,"45.13"," ,N",,,,,,,,
"USC00365790","MILLHEIM, PA US","40.8847","-77.475","341.4","2008","441",,"       59",,"        15","0","0","0,0229,+","7"," ,0,0302,+","5.0"," ,0,1121, ","2.74"," ,0,0305, ","93","0,0610, ",,,"44.90"," ,0","33.1"," ,0","47.0","0","58.4","0","35.7","0"
"US1PAWN0026","CANAAN 11, PA US","41.5901832580566","-75.3590393066406","384.7","2008",,,,,"         5","N",,,,,"7.8"," ,N,1220, ","2.43"," ,N,0724, ",,,,,"49.60"," ,N","16.6"," ,N",,,,,,
"USW00003761","AVONDALE 2 N, PA US","39.8593","-75.7861","121.9","2008","695",,,,,,"9","R,0211, ",,,,,"3.13"," ,R,0906, ","96","R,0607, ","5200","9","44.53"," ,R",,,"52.1","R","61.9","R","42.3","R"
"USC00364214","INDIANA 3 SE, PA US","40.5972","-79.1186","335.9","2008",,,"       43",,"        18","0",,,"5"," ,0,0301, ","6.0"," ,0,0301, ","1.90"," ,0,0913, ",,,"5611","5","47.02"," ,0","39.4"," ,0",,,,,,
"USC00367167","PRINCE GALLITZIN STATE PARK, PA US","40.6515","-78.5551","463.3","2008","289",,"       73",,"        30","0","-3","0,0211, ","7"," ,0,0213, ","6.0"," ,0,0213, ","1.62"," ,0,0913, ","91","0,0610,+","6678","9","42.46"," ,0","70.3"," ,0","46.5","0","58.7","0","34.2","0"
"USC00368379","SPRING GROVE, PA US","39.86952","-76.86321","137.2","2008",,,"       10",,"         5","0",,,"2"," ,0,0222,+","2.5"," ,0,0118, ","3.80"," ,0,0907, ",,,,,"50.02"," ,0","7.2"," ,0",,,,,,
"US1PAMT0016","NORTH WALES 1.3 WSW, PA US","40.206117","-75.2991","100.9","2008",,,,,,,,,,,,,,,,,,,"48.63"," ,N",,,,,,,,
"USC00361505","CLAUSSVILLE, PA US","40.6167","-75.65","204.2","2008",,,"        3",,"         0","0",,,"5"," ,0,0223, ","0.0","T,0,1211, ","2.30"," ,0,0907, ",,,,,"42.96"," ,0","0.0","T,0",,,,,,
"USC00367846","SAXTON 1 W, PA US","40.2173","-78.254","253.0","2008",,,"       16",,"         9","0",,,"5"," ,0,0213, ","3.0"," ,0,0213, ","2.10"," ,0,0305, ",,,,,"43.02"," ,0","16.0"," ,0",,,,,,
"USC00360656","BIGLERVILLE, PA US","39.93468","-77.25459","219.5","2008","851",,"       12",,"         7","0","6","0,0221, ","3"," ,0,0222,+","3.2"," ,0,0222,+","2.36"," ,0,0927, ","94","0,0610,+","5213","4","49.31"," ,0","15.2"," ,0","52.3","0","62.2","0","42.5","0"
"USW00014762","PITTSBURGH ALLEGHENY CO AIRPORT, PA US","40.35472","-79.92167","380.4","2008","684",,,,,,"2","W,1222,+",,,,,"2.05"," ,W,0630, ","91","W,0608, ","5384","1","40.66"," ,W",,,"51.4","W","60.4","W","42.3","W"
"US1PAYR0002","DOVER 4.2 WSW, PA US","39.973363","-76.917826","135.0","2008",,,,,,,,,,,,,"2.83"," ,N,0907, ",,,,,"45.69"," ,N",,,,,,,,
"USC00368073","SHIPPENSBURG, PA US","40.05903","-77.52127","207.3","2008","906",,"       11",,"         6","0","7","0,0211, ","5"," ,0,0212, ","4.7"," ,0,0212, ","2.41"," ,0,0927, ","95","0,0609,+","5185","7","49.29"," ,0","17.5"," ,0","52.7","0","62.8","0","42.7","0"
"US1PASS0006","FOREST CITY 0.2 SE, PA US","41.65","-75.466667","518.2","2008",,,,,"        24","N",,,,,"8.3"," ,N,1220, ","1.40"," ,N,1026, ",,,,,"40.81"," ,N","69.3"," ,N",,,,,,
"US1PASS0007","THOMPSON 3.9 WNW, PA US","41.883333","-75.583333","479.1","2008",,,,,"        27","N",,,,,"6.5"," ,N,0223, ","1.97"," ,N,0305, ",,,,,"48.08"," ,N","69.6"," ,N",,,,,,
"USC00369714","WILLIAMSBURG, PA US","40.4667","-78.2","257.6","2008",,,"       20",,"         7","0",,,"7"," ,0,0213, ","5.2"," ,0,0213, ","1.81"," ,0,0305, ",,,,,"40.20"," ,0","20.7"," ,0",,,,,,
"USC00360582","BENTON 3 NE, PA US","41.2322","-76.3423","333.8","2008",,,"       54",,"        11","0",,,"9"," ,0,0213, ","7.7"," ,0,1220, ","2.38"," ,0,0305, ",,,,,"51.50"," ,0","40.4"," ,0",,,,,,
"USC00369950","YORK HAVEN, PA US","40.11389","-76.71222","94.5","2008",,,"        3",,"         4","0",,,"3"," ,0,0222, ","3.0"," ,0,0222, ","3.11"," ,0,0907, ",,,,,"47.58"," ,0","8.8"," ,0",,,,,,
"US1PAMT0006","HATFIELD 0.1 SSW, PA US","40.2763","-75.3006","106.1","2008",,,,,,,,,,,,,"2.54"," ,N,1212, ",,,,,"49.21"," ,N",,,,,,,,
"US1PAMT0005","POTTSTOWN 0.6 SE, PA US","40.2436","-75.6354","67.1","2008",,,,,,,,,,,,,,,,,,,"48.46"," ,N",,,,,,,,
"USC00365915","MONTROSE, PA US","41.8511","-75.8583","432.8","2008","268",,"       97",,"        20","0","-9","0,0229, ","9"," ,0,0302,+","6.5"," ,0,1220, ","1.89"," ,0,0305, ","89","0,0611,+","7292","4","47.04"," ,0","57.1"," ,0","44.7","0","55.9","0","33.4","0"
"USC00368868","TIOGA HAMMOND DAM, PA US","41.8975","-77.1419","374.9","2008",,,"       60",,"        21","0",,,"8"," ,0,1214,+","7.0"," ,0,1212, ","1.95"," ,0,0714, ",,,,,"34.42"," ,0","42.2"," ,0",,,,,,
"US1PACN0009","PORT MATILDA 5.8 E, PA US","40.8125","-77.9433","406.0","2008",,,,,"        15","N",,,,,"5.2"," ,N,0322, ","2.14"," ,N,0305, ",,,,,"44.83"," ,N","52.9"," ,N",,,,,,
"USC00364839","LAUREL SUMMIT, PA US","40.1692","-79.1411","832.1","2008","172",,"      106",,"        46","0","-5","0,0212,+","17"," ,0,0302,+","10.5"," ,0,1126, ","2.22"," ,0,0910, ","83","0,0609,+","6838","7","56.43"," ,0","165.7"," ,0","44.8","0","53.6","0","36.1","0"
"US1PACN0007","RAMBLEWOOD 3.7 WNW, PA US","40.744167","-78.019067","370.0","2008",,,"       74",,"        18","N",,,"11"," ,N,0214,+","6.0"," ,N,0322, ","2.63"," ,N,0928, ",,,,,"49.09"," ,N","55.9"," ,N",,,,,,
"USC00369298","WARREN, PA US","41.8467","-79.1494","368.8","2008","438",,"       76",,"        39","0","0","0,0212,+","12"," ,0,1122,+","12.0"," ,0,1121, ","1.52"," ,0,0206, ","92","0,0610, ","6587","5","49.48"," ,0","90.1"," ,0","47.4","0","57.7","0","37.0","0"
"USW00004751","BRADFORD REGIONAL AIRPORT, PA US","41.79835","-78.6355","652.9","2008","142",,,,,,"-10","0,0229, ",,,,,"1.58"," ,0,0621, ","86","0,0609,+","7812","9","40.39"," ,0",,,"43.1","0","53.4","0","32.8","0"
"USC00369050","UNIONTOWN 1 NE, PA US","39.915","-79.7191","291.4","2008","636",,"       24",,"        15","0","4","0,0222,+","7"," ,0,0102, ","6.5"," ,0,0102, ","1.62"," ,0,0723, ","93","0,0905,+","5254","0","46.60"," ,0","27.2"," ,0","51.5","0","63.0","0","40.1","0"
"USC00364159","HUNTINGDON, PA US","40.5153","-78.0025","208.8","2008","459",,"       34",,"        11","0","4","0,0229,+","5"," ,0,0322,+","5.3"," ,0,0322, ","2.28"," ,0,0305, ","93","0,0611,+","6215","9","42.04"," ,0","23.5"," ,0","48.7","0","60.8","0","36.6","0"
"USC00368873","TIONESTA 2 SE LAKE, PA US","41.4792","-79.4432","365.8","2008","348",,"       76",,"        25","0","-5","0,0221, ","11"," ,0,0227, ","6.0"," ,0,0322,+","1.36"," ,0,0206, ","90","0,0610,+","6813","0","44.99"," ,0","65.0"," ,0","46.4","0","57.5","0","35.3","0"
"USC00367782","SALINA 3 W, PA US","40.5101","-79.5459","338.0","2008","668",,,,"        10","0","1","0,0211, ",,,"3.0"," ,0,0212, ","2.00"," ,0,0928, ","92","0,0904,+","5506","9","45.09"," ,0","22.8"," ,0","50.8","0","61.8","0","39.8","0"
"US1PAYR0008","VALLEY GREEN 0.8 ENE, PA US","40.16119","-76.7791","121.9","2008",,,,,"         6","N",,,,,"3.3"," ,N,1217, ","3.09"," ,N,0305, ",,,,,"50.16"," ,N","15.4"," ,N",,,,,,
"USC00364835","LAUREL CAVERNS, PA US","39.7925","-79.70167","823.0","2008",,,,,,,,,,,,,,,,,,,,,,,,,,,,
"USC00360475","BEAVER FALLS 1 NE, PA US","40.7628","-80.3133","231.6","2008",,,,,,,,,,,,,"2.00"," ,0,0913, ",,,,,"36.72"," ,0",,,,,,,,
"USC00362537","EISENHOWER NHS, PA US","39.805","-77.2292","164.6","2008","694",,"        9",,"         5","0","1","0,0221, ","3"," ,0,0222,+","3.5"," ,0,0118, ","3.01"," ,0,0929, ","95","0,0721,+","4961","1","41.22"," ,0","11.8"," ,0","51.6","0","63.3","0","39.9","0"
"USC00368758","TAMAQUA, PA US","40.79472","-75.97528","281.9","2008",,,"       46",,"         9","0",,,"4"," ,0,1222,+","4.5"," ,0,0213, ","3.08"," ,0,0305, ",,,,,"49.35"," ,0","26.3"," ,0",,,,,,
"USC00362629","EMPORIUM, PA US","41.50667","-78.2275","317.0","2008",,,,,,,,,,,,,,,,,"6414","2",,,,,,,,,,
"USW00004787","DUBOIS JEFFERSON CO AIRPORT, PA US","41.17947","-78.89326","550.2","2008","300",,,,,,"-3","W,0211, ",,,,,"1.68"," ,W,1224, ","88","W,0609,+","6630","6","43.18"," ,W",,,"46.9","W","56.3","W","37.5","W"
"USC00369022","TYRONE, PA US","40.6645","-78.2191","271.3","2008",,,"       40",,"        14","0",,,"9"," ,0,0301, ","6.0"," ,0,0301, ","1.95"," ,0,0305, ",,,,,"43.27"," ,0","33.7"," ,0",,,,,,
"USC00362071","DEHART DAM, PA US","40.46093","-76.7487","163.7","2008","596",,"       12",,"         6","0","6","0,0211, ","4"," ,0,0222, ","3.5"," ,0,0222, ","3.54"," ,0,0305, ","94","0,0610, ","5556","8","51.36"," ,0","12.1"," ,0","50.5","0","61.3","0","39.7","0"
"USC00362190","DONORA 1 SW, PA US","40.1636","-79.8694","232.3","2008","743",,"       21",,"         9","0","6","0,1222,+","3"," ,0,1213, ","5.0"," ,0,0227, ","2.10"," ,0,0731, ","91","0,0610,+","5162","0","42.70"," ,0","18.1"," ,0","51.9","0","62.2","0","41.4","0"
"USC00369933","YORK 3 SSW PUMP STATION, PA US","39.91667","-76.75","118.9","2008","978",,"       10",,"         4","0","0","0,0221, ","3"," ,0,0117, ","2.5"," ,0,0117, ","2.98"," ,0,0906, ","96","0,0610, ","4581","9","49.40"," ,0","10.7"," ,0","54.4","0","65.9","0","42.9","0"
"USC00362183","DONEGAL 2 NW, PA US","40.1276","-79.4059","548.6","2008",,,,,,,,,,,,,,,,,,,,,,,,,,,,
"USC00360560","BELTZVILLE DAM, PA US","40.862","-75.64291","224.9","2008",,,,,,,,,,,,,,,,,,,"54.06"," ,0",,,,,,,,
"USC00365573","MCKEESPORT, PA US","40.3391","-79.8604","225.6","2008",,,,,,,,,,,,,"2.00"," ,0,0211, ","93","0,0608, ",,,"42.10"," ,0",,,,,"62.4","0",,
"USW00014793","WILLOW GROVE NAS, PA US","40.2","-75.15","110.0","2008",,,,,,,,,,,,,,,,,,,,,,,,,,,,
"USC00366681","PALM 3 SE, PA US","40.38567","-75.5019","91.4","2008",,,"        9",,"         3","0",,,"3"," ,0,0222,+","2.8"," ,0,0222, ","2.76"," ,0,0724, ",,,,,"48.94"," ,0","9.8"," ,0",,,,,,
"USC00363293","GLENCOE, PA US","39.8255","-78.83","485.9","2008",,,"       61",,"        16","0",,,"5"," ,0,0301, ","4.2"," ,0,0301, ","1.61"," ,0,0305, ",,,,,"42.46"," ,0","42.4"," ,0",,,,,,
"USC00365470","MATAMORAS, PA US","41.3913","-74.7173","139.9","2008","509",,"       38",,"        10","0","2","0,0301,+","9"," ,0,1222,+","8.5"," ,0,1220, ","2.70"," ,0,1212, ","94","0,0609,+","6395","6","50.57"," ,0","38.5"," ,0","48.5","0","60.0","0","37.1","0"
"USC00368184","SLIPPERY ROCK 1 SSW, PA US","41.056","-80.0595","384.0","2008","452",,,,,,"0","0,0210, ",,,,,"1.95"," ,0,0912, ","91","0,0621, ","5738","8","46.10"," ,0",,,"49.1","0","60.4","0","37.8","0"
"USC00365344","MAHANOY CITY 2 N, PA US","40.83435","-76.14374","521.2","2008",,,"       60",,"        13","0",,,"5"," ,0,0101, ","3.3"," ,0,0301, ","3.30"," ,0,0305, ",,,,,"51.44"," ,0","28.9"," ,0",,,,,,
"USC00369823","WOLFSBURG, PA US","40.03942","-78.52386","361.2","2008",,,"       26",,"         8","0",,,"4"," ,0,0213, ","2.8"," ,0,0213, ","1.67"," ,0,0305, ",,,,,"42.68"," ,0","22.8"," ,0",,,,,,
"USC00368057","SHICKSHINNY 3 N, PA US","41.1831","-76.1488","208.8","2008",,,"       46",,"         8","0",,,"7"," ,0,1223,+","6.0"," ,0,1220, ","2.10"," ,0,0724, ",,,,,"51.92"," ,0","24.8"," ,0",,,,,,
"USC00366310","NEW STANTON 1 SW, PA US","40.2033","-79.6274","289.6","2008",,,"       12",,"         5","0",,,"2"," ,0,0221,+","5.0"," ,0,0309, ","1.53"," ,0,0614, ",,,,,"39.07"," ,0","16.3"," ,0",,,,,,
"USC00364934","LEHIGHTON 1 SSW, PA US","40.8223","-75.6962","138.7","2008",,,,,"         4","0",,,,,"5.0"," ,0,1220, ",,,,,,,"52.10"," ,0","13.5"," ,0",,,,,,
"USC00365902","MONTGOMERY LOCK AND DAM, PA US","40.6474","-80.3861","210.3","2008",,,"       32",,,,"5","0,0222,+","5"," ,0,0301, ",,,"1.68"," ,0,0913, ",,,,,"37.72"," ,0",,,,,,,"41.8","0"
"USC00367409","RENOVO, PA US","41.3299","-77.7381","201.2","2008","549",,"       57",,"        13","0","3","0,0301,+","5"," ,0,0223, ","5.0"," ,0,1220,+","1.58"," ,0,0305, ","95","0,0610, ","5980","1","38.00"," ,0","39.7"," ,0","49.4","0","60.4","0","38.4","0"
"USC00364815","LAPORTE, PA US","41.4234","-76.4933","599.2","2008","285",,"       80",,"        26","0","-3","0,0212,+","8"," ,0,1222,+","8.0"," ,0,1220, ","2.67"," ,0,0305, ","88","0,0610,+","7042","5","58.37"," ,0","70.1"," ,0","45.5","0","54.0","0","37.1","0"
"USC00360457","BEAR GAP, PA US","40.82086","-76.49831","309.4","2008","561",,"       44",,"        10","0","0","0,0211, ","4"," ,0,0222,+","3.5"," ,0,0222, ","2.05"," ,0,1025, ","94","0,0609,+",,,"49.74"," ,0","23.6"," ,0","49.5","0","59.9","0","39.1","0"
"USC00365109","LOCK HAVEN SEWAGE PLANT, PA US","41.131","-77.4336","172.5","2008","608",,"       34",,"        11","0","3","0,0212,+","6"," ,0,0214,+","5.0"," ,0,0213, ","2.48"," ,0,0305, ","95","0,0610, ","5913","2","36.77"," ,0","28.5"," ,0","49.7","0","60.8","0","38.6","0"
"USW00054789","MOUNT POCONO POCONO MOUNTAINS MUNICIPAL AIRPORT, PA US","41.13889","-75.37944","584.0","2008","245",,,,,,"-1","W,0211, ",,,,,"2.44"," ,W,0928, ","89","W,0609, ","6946","7","48.25"," ,W",,,"45.8","W","54.8","W","36.8","W"
"USC00361350","CHALK HILL 2 ENE, PA US","39.848","-79.5898","603.5","2008","280",,"       85",,"        33","0","-7","0,0221, ","13"," ,0,0103, ","9.4"," ,0,0102, ","2.47"," ,0,0909, ","86","0,0718, ","5879","3","62.62"," ,0","104.2"," ,0","48.5","0","57.9","0","39.0","0"
"USC00366126","MYERSTOWN, PA US","40.3674","-76.3064","146.3","2008",,,"        4",,"         3","0",,,"3"," ,0,1217, ","3.0"," ,0,1217, ","3.65"," ,0,0305, ",,,,,"52.23"," ,0","6.0"," ,0",,,,,,
"USC00367578","RODALE RESEARCH CTR, PA US","40.5515","-75.7222","167.6","2008","610",,,,"         0","0","6","0,0211, ",,,"0.0"," ,0,1231,+","2.86"," ,0,0906, ","94","0,0731,+",,,"47.98"," ,0","0.0"," ,0","50.8","0","61.3","0","40.2","0"
"USC00368668","SUNBURY, PA US","40.8532","-76.7891","175.3","2008","487",,"       38",,"        10","0","4","0,0212,+","5"," ,0,0216,+","4.0"," ,0,1121, ","3.06"," ,0,0305, ","95","0,0610, ","6077","4","46.85"," ,0","23.8"," ,0","48.9","0","59.9","0","37.9","0"
"USC00360140","ALTOONA 3 W, PA US","40.4949","-78.4667","402.3","2008","510",,"       41",,"        10","0","1","0,0211, ","10"," ,0,0229, ","6.6"," ,0,0229, ","1.76"," ,0,1224, ","91","0,0609,+","6077","1","42.13"," ,0","39.4"," ,0","49.0","0","58.3","0","39.7","0"
"USC00360022","ACMETONIA LOCK 3, PA US","40.5361","-79.8152","228.0","2008",,,,,"         6","0",,,,,"5.0"," ,0,0301, ","2.85"," ,0,0913, ",,,,,"40.08"," ,0","14.4"," ,0",,,,,,
"USC00361354","CHAMBERSBURG 1 ESE, PA US","39.9353","-77.6394","195.1","2008","855",,,,"         7","0","8","0,0221,+",,,"4.6"," ,0,0212, ","2.50"," ,0,0420, ","96","0,0720, ","4956","6","48.15"," ,0","17.1"," ,0","53.0","0","62.2","0","43.7","0"
"USC00369510","WEST HICKORY 2, PA US","41.57639","-79.41056","410.0","2008",,,"       89",,"        31","0",,,"12"," ,0,0301, ","7.5"," ,0,1122, ","1.52"," ,0,0206, ",,,,,"48.17"," ,0","92.8"," ,0",,,,,,
"USW00054792","CLEARFIELD LAWRENCE AIRPORT, PA US","41.04667","-78.41167","462.1","2008","355",,,,,,"-4","W,0229, ",,,,,"1.83"," ,W,0828, ","90","W,0609,+","6389","5","41.16"," ,W",,,"47.4","W","57.7","W","37.1","W"
"USC00363417","GRAMPIAN 1 E, PA US","40.96669","-78.58718","460.2","2008",,,"      117",,"        31","0",,,"24"," ,0,0301, ","17.0"," ,0,0301, ","2.38"," ,0,0723, ",,,,,"52.77"," ,0","93.7"," ,0",,,,,,
"USC00362323","DUSHORE, PA US","41.5216","-76.4043","466.3","2008","227",,"       38",,"        16","0","-2","0,0301,+","6"," ,0,1222,+","5.0"," ,0,1220,+","2.50"," ,0,0305, ","90","0,0610,+","7042","0","47.43"," ,0","37.7"," ,0","45.3","0","56.6","0","34.0","0"
"USC00366927","PHOENIXVILLE 1 E, PA US","40.12113","-75.49415","25.9","2008","1111",,"        0",,"         0","0","10","0,0211, ","0"," ,0,1231,+","0.1"," ,0,0331, ","2.74"," ,0,0723, ","100","0,0609, ","4707","9","38.89"," ,0","0.1"," ,0","54.5","0","65.5","0","43.6","0"
"USC00366921","PHILIPSBURG 2 S, PA US","40.87291","-78.21615","524.3","2008",,,"       71",,"        18","0",,,"7"," ,0,0214,+","3.8"," ,0,0322, ","1.63"," ,0,0305, ",,,,,"40.29"," ,0","52.3"," ,0",,,,,,
"USC00365956","MORGANTOWN, PA US","40.158","-75.8862","180.1","2008",,,"       10",,"         5","0",,,"2"," ,0,1121,+","2.2"," ,0,1121, ","3.68"," ,0,0907, ",,,,,"53.11"," ,0","9.5"," ,0",,,,,,
"USC00360821","BOSWELL, PA US","40.1597","-79.0287","570.6","2008",,,"       68",,"        28","0",,,"12"," ,0,0301, ","6.0"," ,0,1126,+","2.39"," ,0,1220, ",,,,,"49.95"," ,0","57.1"," ,0",,,,,,
"USC00368308","SOUTH MOUNTAIN, PA US","39.85072","-77.5039","463.3","2008","403",,"       19",,"         8","0","1","0,0221, ","3"," ,0,0223,+","3.1"," ,0,0118, ","2.51"," ,0,0421, ","89","0,0610,+","5887","6","54.18"," ,0","15.0"," ,0","49.0","0","59.1","0","38.9","0"
"USC00365050","LINESVILLE 1 S, PA US","41.6458","-80.425","313.9","2008","464",,,,"        27","0","-9","0,0228, ",,,"11.0"," ,0,1121, ","2.00"," ,0,0206, ","89","0,0610,+","6447","6","45.74"," ,0","78.2"," ,0","47.4","0","56.7","0","38.0","0"
"USC00364992","LEWISTOWN, PA US","40.5864","-77.5692","140.2","2008",,,,,,,,,,,,,,,,,,,,,,,,,,,,
"USC00361480","CLARENCE, PA US","41.0489","-77.9411","423.7","2008",,,"       75",,"        15","0",,,"7"," ,0,0322, ","6.6"," ,0,0322, ","1.85"," ,0,0305, ",,,,,"42.91"," ,0","49.8"," ,0",,,,,,
"USC00361485","CLARION 3 SW, PA US","41.1922","-79.4361","317.0","2008",,,,,"        22","0",,,,,"8.0"," ,0,0102, ",,,"89","0,0610,+",,,"44.00"," ,0","47.4"," ,0",,,"57.6","0",,
"USC00362574","EMSWORTH L D OHIO RIVER, PA US","40.5044","-80.0889","218.5","2008","726",,"       18",,"         9","0","2","0,1222, ","4"," ,0,0301,+","3.0"," ,0,0222, ","1.17"," ,0,0305, ","93","0,0613, ",,,"35.08"," ,0","16.8"," ,0","51.4","0","60.8","0","42.0","0"
"USC00367103","PORT ALLEGANY, PA US","41.81568","-78.28734","449.6","2008","248",,"       75",,"        30","0","-4","0,0301,+","10"," ,0,0301, ","5.0"," ,0,1212,+","1.28"," ,0,0206, ","90","0,0610,+","7211","2","39.18"," ,0","74.7"," ,0","45.0","0","56.1","0","33.9","0"
"USC00361362","CHANDLERS VALLEY 1 SE, PA US","41.9301","-79.297","454.2","2008","207",,"      100",,"        51","0","-11","0,0301, ","18"," ,0,1122, ","11.0"," ,0,1121, ","2.03"," ,0,0206, ","89","0,0610,+","7573","5","52.81"," ,0","135.8"," ,0","43.9","0","55.7","0","32.0","0"
"USC00361802","COUDERSPORT 1 SW, PA US","41.75845","-78.04077","502.9","2008",,,,,,,,,,,,,,,,,"6945","6",,,,,,,,,,
"USC00363665","HANOVER 4 SW, PA US","39.77047","-77.03255","170.1","2008","830",,"        8",,"         5","0","-1","0,0221, ","2"," ,0,0221,+","4.0"," ,0,0118, ","4.18"," ,0,0907, ","94","0,0610,+","5204","9","47.04"," ,0","12.0"," ,0","52.5","0","62.9","0","42.0","0"
"USC00367229","PUTNEYVILLE 2 SE DAM, PA US","40.9248","-79.2825","390.1","2008",,,,,"         5","0",,,,,"3.0"," ,0,1126, ","1.50"," ,0,1027, ",,,"6030","8","48.24"," ,0","9.3"," ,0",,,,,,
"USC00361920","CARLISLE WATER PLANT, PA US","40.22571","-77.18938","131.1","2008","768",,"       15",,"         7","0","9","0,0222,+","4"," ,0,0213, ","3.0"," ,0,0213,+","2.90"," ,0,0305, ","96","0,0610, ",,,"47.23"," ,0","15.0"," ,0","52.1","0","63.4","0","40.7","0"
"USC00369408","WELLSBORO 4 SW, PA US","41.7004","-77.3871","554.1","2008","232",,"       81",,"        24","0","-3","0,0212,+","7"," ,0,1213,+","7.3"," ,0,1212, ","1.87"," ,0,0305, ","88","0,0610,+","7309","4","44.58"," ,0","59.8"," ,0","44.8","0","55.1","0","34.4","0"
"US1PALZ0006","WEST HAZLETON 3.2 NNE, PA US","41.016667","-76.0","339.9","2008",,,,,"         7","N",,,,,"3.9"," ,N,0222, ","2.20"," ,N,0707, ",,,,,"48.15"," ,N","24.2"," ,N",,,,,,
"US1PAPK0009","DINGMANS FERRY 3.9 WSW, PA US","41.2084","-74.9437","335.9","2008",,,,,,,,,,,,,"4.25"," ,N,0724, ",,,,,"66.44"," ,N",,,,,,,,
"USC00368888","TITUSVILLE WATER WORKS, PA US","41.63098","-79.69304","371.9","2008","297",,"       99",,"        37","0","-18","0,0229, ","13"," ,0,0301, ","7.1"," ,0,0102, ","1.75"," ,0,0629, ","90","0,0610, ","6760","7","48.81"," ,0","109.6"," ,0","46.0","0","57.4","0","34.5","0"
"USC00369735","WILLIAMSPORT 2, PA US","41.2486","-76.9833","160.0","2008","786",,"       38",,"         7","0","5","0,0211, ","6"," ,0,1219, ","6.3"," ,0,1219, ","1.92"," ,0,0723, ","97","0,0609, ","5588","6","41.42"," ,0","28.7"," ,0","51.2","0","61.4","0","40.9","0"
"USC00364047","HONEY BROOK 2 SSE, PA US","40.0881","-75.908","202.7","2008",,,"       16",,"         5","0",,,"3"," ,0,1121, ","3.0"," ,0,1121,+","2.40"," ,0,0907, ",,,,,"50.54"," ,0","11.7"," ,0",,,,,,
"USC00368400","SPRINGTOWN 1 NNE, PA US","40.5711","-75.2781","262.1","2008",,,,,,,,,,,,,,,,,,,,,,,,,,,,
"USC00360482","BEAVERTOWN 1 NE, PA US","40.7741","-77.1574","164.6","2008",,,"       54",,"        17","0",,,"8"," ,0,1122,+","6.0"," ,0,1121, ","3.48"," ,0,0927, ",,,,,"49.44"," ,0","41.0"," ,0",,,,,,
"USC00367312","RAYSTOWN LAKE 2, PA US","40.38139","-78.07528","304.8","2008","724",,"       14",,"         8","0","3","0,0122, ","6"," ,0,0213, ","3.5"," ,0,0213, ","2.06"," ,0,0305, ","93","0,0608, ","5514","4","40.66"," ,0","17.9"," ,0","51.0","0","61.1","0","40.9","0"
"US1PAPK0004","HAWLEY 3.8 NE, PA US","41.50749","-75.1163","414.8","2008",,,,,"        17","N",,,,,"7.5"," ,N,1220, ","2.53"," ,N,1212, ",,,,,"48.76"," ,N","44.6"," ,N",,,,,,
"USC00360488","BECHTELSVILLE 1 ENE, PA US","40.3783","-75.615","140.2","2008",,,"        0",,"         0","0",,,"0"," ,0,1231,+","0.0"," ,0,1231,+","2.72"," ,0,1212, ",,,,,"47.84"," ,0","0.0"," ,0",,,,,,
"USC00363758","HAWLEY 1 E, PA US","41.4764","-75.1652","271.3","2008","327",,"       63",,"         9","0","-2","0,0229, ","10"," ,0,1222,+","8.5"," ,0,1220, ","2.53"," ,0,1212, ","91","0,0721,+","6654","9","49.05"," ,0","30.7"," ,0","46.5","0","57.8","0","35.1","0"
"USC00363632","HAMBURG, PA US","40.55156","-75.99105","112.5","2008",,,,,"         4","0",,,,,"2.7"," ,0,0222, ","2.49"," ,0,0305, ","96","0,0610,+",,,"45.45"," ,0","9.4"," ,0",,,"62.9","0",,
"USC00366238","NEW HOLLAND 2 SE, PA US","40.07528","-76.07147","184.4","2008","984",,"        9",,"         5","0","7","0,0211, ","3"," ,0,0118, ","3.4"," ,0,0118, ","2.16"," ,0,1212, ","97","0,0607, ","4882","2","44.14"," ,0","11.3"," ,0","53.9","0","63.6","0","44.3","0"
"USC00360132","ALTOONA 7 SW, PA US","40.4188","-78.41983","359.7","2008","569",,"       44",,"        10","0","1","0,0211, ","9"," ,0,0302,+","5.8"," ,0,0301, ","1.69"," ,0,0305, ","92","0,0721,+","6152","0","39.48"," ,0","33.7"," ,0","49.1","0","59.5","0","38.7","0"
"USC00366111","MURRYSVILLE 2 SW, PA US","40.412","-79.7245","262.1","2008",,,,,,,,,,,,,,,,,,,,,,,,,,,,
"USC00362671","EQUINUNK, PA US","41.8721","-75.2656","271.3","2008",,,,,,,,,,,,,"2.62"," ,0,0714, ",,,,,"49.44"," ,0",,,,,,,,
"USC00366233","NEW CASTLE 1 N, PA US","41.0172","-80.3615","251.5","2008","727",,"       49",,"        15","0","2","0,1222,+","7"," ,0,0301, ","4.3"," ,0,0213, ","1.40"," ,0,0723, ","94","0,0905,+","5694","6","40.70"," ,0","40.9"," ,0","50.4","0","62.4","0","38.4","0"
"USC00367322","READING 4 NNW, PA US","40.42694","-75.93194","109.7","2008",,,,,,,,,,,,,,,,,,,,,,,,,,,,
"USC00301413","CHEMUNG, NY US","42.0025","-76.6384","250.5","2008",,,"       46",,"         7","0",,,"9"," ,0,1213,+","8.5"," ,0,1212, ","1.81"," ,0,0305, ",,,,,"36.07"," ,0","29.9"," ,0",,,,,,
"US1PAAD0002","ABBOTTSTOWN 2.4 N, PA US","39.919185","-76.989416","139.0","2008",,,,,"         6","N",,,,,"3.2"," ,N,0221, ","3.49"," ,N,0907, ",,,,,"49.43"," ,N","14.2"," ,N",,,,,,
"USC00364611","KITTANNING LOCK 7, PA US","40.81667","-79.53333","240.8","2008",,,,,"         0","0",,,,,"0.3"," ,0,0201, ","1.44"," ,0,0913, ",,,,,"39.93"," ,0","0.3"," ,0",,,,,,
"USC00364976","LEWISBURG, PA US","40.94744","-76.87848","152.4","2008","598",,"       36",,"         9","0","3","0,0212,+","6"," ,0,0213, ","4.0"," ,0,0213, ","3.00"," ,0,0305, ","96","0,0610, ","5911","7","44.81"," ,0","27.6"," ,0","49.4","0","60.4","0","38.4","0"
