"STATION","NAME","LATITUDE","LONGITUDE","ELEVATION","DATE","CDSD","CDSD_ATTRIBUTES","DSND","DSND_ATTRIBUTES","DSNW","DSNW_ATTRIBUTES","EMNT","EMNT_ATTRIBUTES","EMSD","EMSD_ATTRIBUTES","EMSN","EMSN_ATTRIBUTES","EMXP","EMXP_ATTRIBUTES","EMXT","EMXT_ATTRIBUTES","HDSD","HDSD_ATTRIBUTES","PRCP","PRCP_ATTRIBUTES","SNOW","SNOW_ATTRIBUTES","TAVG","TAVG_ATTRIBUTES","TMAX","TMAX_ATTRIBUTES","TMIN","TMIN_ATTRIBUTES"
"USW00014765","PROVIDENCE, RI US","41.7225","-71.4325","16.8","2008","821",,"       14",,"         9","0","7","0,0104, ","8"," ,0,1221, ","8.0"," ,0,1219, ","3.95"," ,0,0906, ","97","0,0609, ","5296","2","57.14"," ,0","30.8"," ,0","52.3","0","61.2","0","43.4","0"
"USW00014787","NEWPORT STATE AIRPORT, RI US","41.53333","-71.28333","52.4","2008","624",,,,,,"9","W,0103, ",,,,,"2.53"," ,W,0926, ","93","W,0609, ","5413","5","43.21"," ,W",,,"51.9","W","59.5","W","44.3","W"
"USC00374266","KINGSTON, RI US","41.4903","-71.543","35.7","2008","616",,"       16",,"         9","0","3","0,0104, ","10"," ,0,1221,+","9.4"," ,0,1220, ","3.53"," ,0,1212, ","95","0,0609, ","5611","3","57.86"," ,0","28.3"," ,0","51.3","0","62.4","0","40.1","0"
"USC00379423","WOONSOCKET, RI US","41.9844","-71.4907","33.5","2008","610",,,,"         9","0","3","0,0105,+",,,"7.5"," ,0,1220, ","4.00"," ,0,1212, ","97","0,0611, ","5823","8","60.18"," ,0","31.5"," ,0","50.1","0","60.7","0","39.5","0"
"USC00377581","TIVERTON, RI US","41.6268","-71.2093","27.4","2008","839",,"       17",,"        10","0","7","0,0104,+","11"," ,0,1220, ","10.0"," ,0,1219, ","2.75"," ,0,0926, ","99","0,0609, ","5349","6","53.44"," ,0","29.5"," ,0","52.3","0","61.4","0","43.1","0"
"USW00054796","KINGSTON 1 NW, RI US","41.4911","-71.5413","35.1","2008","442",,,,,,"4","R,0104, ",,,,,"4.20"," ,R,0906, ","94","R,0609, ",,,"58.15"," ,R",,,"49.5","R","59.0","R","40.0","R"
"USW00054797","KINGSTON 1 W, RI US","41.4782","-71.5417","32.3","2008","428",,,,,,"4","R,0104, ",,,,,"4.08"," ,R,0906, ","92","R,0609, ","6045","5","56.87"," ,R",,,"49.2","R","59.1","R","39.3","R"
"USC00375270","NORTH FOSTER 1 E, RI US","41.8564","-71.7333","192.0","2008","446",,"       52",,"        12","0","0","0,0104, ","13"," ,0,1221, ","10.2"," ,0,1219, ","3.36"," ,0,1212, ","94","0,0610, ","6191","4","60.94"," ,0","52.7"," ,0","49.0","0","58.4","0","39.6","0"
"USW00014794","WESTERLY STATE AIRPORT, RI US","41.34972","-71.79889","24.7","2008","568",,,,,,"7","W,0104, ",,,,,"2.94"," ,W,0906, ","91","W,0610, ","5645","9","48.58"," ,W",,,"51.0","W","59.6","W","42.5","W"
