"STATION","NAME","LATITUDE","LONGITUDE","ELEVATION","DATE","CDSD","CDSD_ATTRIBUTES","DSND","DSND_ATTRIBUTES","DSNW","DSNW_ATTRIBUTES","EMNT","EMNT_ATTRIBUTES","EMSD","EMSD_ATTRIBUTES","EMSN","EMSN_ATTRIBUTES","EMXP","EMXP_ATTRIBUTES","EMXT","EMXT_ATTRIBUTES","HDSD","HDSD_ATTRIBUTES","PRCP","PRCP_ATTRIBUTES","SNOW","SNOW_ATTRIBUTES","TAVG","TAVG_ATTRIBUTES","TMAX","TMAX_ATTRIBUTES","TMIN","TMIN_ATTRIBUTES"
"USW00094085","PIERRE 24 S, SD US","44.0194","-100.353","647.4","2009",,,,,,,,,,,,,"1.48"," ,R,0814, ",,,"7277","9","21.80"," ,R",,,,,,,,
"USW00094081","BUFFALO 13 ESE, SD US","45.516","-103.3017","878.7","2009","241",,,,,,"-29","R,1215, ",,,,,"1.80"," ,R,0703, ","97","R,0723, ","9057","9","15.73"," ,R",,,"40.4","R","53.3","R","27.5","R"
"USC00394516","KENNEBEC, SD US","43.9024","-99.8582","512.4","2009",,,,,,,,,,,,,,,,,,,,,,,,,,,,
"US1SDCP0003","HERREID 6.9 NNE, SD US","45.92417","-100.00528","566.0","2009",,,,,,,,,,,,,"3.10"," ,N,0617, ",,,,,"19.89"," ,N",,,,,,,,
"US1SDCP0004","HERREID 4.6 NW, SD US","45.88194","-100.14639","511.5","2009",,,,,,,,,,,,,"1.35"," ,N,1006, ",,,,,"17.95"," ,N",,,,,,,,
"USW00024090","RAPID CITY REGIONAL AIRPORT, SD US","44.04584","-103.05443","963.2","2009","342",,"       65",,"        22","W","-15","X,0127, ","14"," ,Z,0405, ","12.4"," ,W,0404, ","1.40"," ,Z,0912, ","97","X,0813, ","7686","9","18.69"," ,Z","82.8"," ,W","44.4","X","57.2","X","31.7","X"
"US1SDDG0001","DIMOCK 10.2 W, SD US","43.49747","-98.188757","468.2","2009",,,,,,,,,,,,,"2.58"," ,N,0704, ",,,,,"26.06"," ,N",,,,,,,,
"USC00395281","MARTIN, SD US","43.1802","-101.7386","1015.0","2009","361",,"       56",,"        25","0","-14","0,0127, ","10"," ,0,0405, ","8.0"," ,0,0404, ","1.23"," ,0,0702, ","98","0,0519, ","7288","7","23.33"," ,0","67.4"," ,0","45.4","0","57.8","0","32.9","0"
"USW00094990","WINNER WILEY FIELD, SD US","43.39056","-99.84222","619.4","2009","584",,,,,,"-15","W,0301, ",,,,,"2.34"," ,W,0806, ","99","W,0802,+","6846","4","20.44"," ,W",,,"47.1","W","58.2","W","36.0","W"
"USW00094993","SISSETON MUNICIPAL AIRPORT, SD US","45.66889","-96.99139","353.9","2009","306",,,,,,"-31","W,0115, ",,,,,"2.97"," ,W,0807, ","96","W,0519, ","9004","2","24.35"," ,W",,,"41.3","W","51.4","W","31.2","W"
"US1SDMD0009","FAITH 36.3 W, SD US","44.924953","-102.762833","800.4","2009",,,,,,,,,,,,,,,,,,,"18.98"," ,N",,,,,,,,
"USC00397007","RAYMOND 3 NE, SD US","44.9438","-97.9247","452.6","2009",,,,,"        18","0",,,,,"6.5"," ,0,0331, ","1.27"," ,0,1006, ",,,,,"21.70"," ,0","48.8"," ,0",,,,,,
"USC00390701","BISON, SD US","45.5286","-102.465","847.3","2009","387",,"      107",,"        21","0","-19","0,1215, ","22"," ,0,1231,+","10.0"," ,0,0324,+","1.32"," ,0,0606, ","94","0,0813,+","8381","9","18.95"," ,0","88.2"," ,0","42.9","0","54.5","0","31.3","0"
"USC00392209","DEADWOOD 2 NE, SD US","44.39","-103.7005","1405.7","2009","150",,"      151",,"        43","0","-15","0,1209, ","31"," ,0,1226,+","20.8"," ,0,0330, ","1.99"," ,0,0330, ","95","0,0519, ","7772","8","35.36"," ,0","232.2"," ,0","43.3","0","54.9","0","31.7","0"
"USR0000SBEA","BEAR CREEK SOUTH DAKOTA, SD US","45.0572","-101.4767","698.0","2009","390",,,,,,"-26","U,0115, ",,,,,,,"96","U,0812, ","7947","9",,,,,"43.1","U","54.6","U","31.7","U"
"USC00392446","DUPREE 15 SSE, SD US","44.8658","-101.4672","640.1","2009","430",,"       79",,"        20","0","-18","0,1215, ","20"," ,0,1231,+","9.0"," ,0,1226, ","1.40"," ,0,1005, ","95","0,0813, ","8039","9","21.38"," ,0","68.9"," ,0","43.3","0","54.3","0","32.3","0"
"US1SDMD0011","FAITH 22.7 WSW, SD US","44.875355","-102.448683","801.0","2009",,,,,,,,,,,,,,,,,,,"41.34"," ,N",,,,,,,,
"USC00391474","CARTHAGE, SD US","44.1694","-97.7202","435.9","2009",,,,,,,,,,,,,,,,,,,,,,,,,,,,
"USC00393775","HERMOSA 3 SSW, SD US","43.8069","-103.213","1043.9","2009",,,,,"        22","0",,,,,"6.0"," ,0,0426, ","1.82"," ,0,0703, ",,,,,"20.14"," ,0","53.0"," ,0",,,,,,
"USC00394864","LEMMON, SD US","45.9397","-102.1575","782.4","2009","330",,"      125",,"        26","0","-23","0,0115, ","25"," ,0,1230,+","16.0"," ,0,1226, ","3.92"," ,0,0713, ","95","0,0723, ","8514","1","22.62"," ,0","99.9"," ,0","42.3","0","53.3","0","31.3","0"
"USC00394983","LONG VALLEY, SD US","43.46","-101.4955","752.9","2009","510",,,,"        21","0","-11","0,0115, ",,,"12.0"," ,0,0404, ","1.50"," ,0,0711, ","97","0,0519, ",,,"24.92"," ,0","63.0"," ,0","47.1","0","59.7","0","34.5","0"
"USC00394184","INTERIOR 3 NE, SD US","43.7483","-101.9413","743.7","2009","796",,"       40",,"        21","0","-12","0,0127, ","10"," ,0,0405, ","8.0"," ,0,0404, ","1.54"," ,0,1005, ","100","0,0802, ",,,"17.70"," ,0","55.2"," ,0","48.9","0","61.6","0","36.2","0"
"US1SDBN0003","MARTIN 19.6 ENE, SD US","43.3158","-101.3851","876.9","2009",,,,,,,,,,,,,"2.52"," ,N,0703, ",,,,,"27.41"," ,N",,,,,,,,
"US1SDMD0001","BOX ELDER 8.0 NNE, SD US","44.231776","-103.034516","883.9","2009",,,,,"        24","N",,,,,"10.0"," ,N,0324, ","2.56"," ,N,0615, ",,,,,"24.06"," ,N","89.8"," ,N",,,,,,
"USC00392797","EUREKA, SD US","45.76542","-99.6222","570.3","2009","310",,,,"        17","0","-38","0,0115, ",,,"14.0"," ,0,0226, ","1.43"," ,0,0615, ","94","0,0812, ","9056","0","24.00"," ,0","62.1"," ,0","40.9","0","51.5","0","30.2","0"
"USR0000SCUS","CUSTER SOUTH DAKOTA, SD US","43.75","-103.6333","1585.0","2009","194",,,,,,"-11","U,1209, ",,,,,,,"91","U,0822,+","7754","0",,,,,"43.3","U","54.7","U","31.8","U"
"USC00392557","EDGEMONT, SD US","43.31359","-103.82151","1046.1","2009","617",,,,"        23","0","-26","0,0128, ",,,"3.5"," ,0,0126, ","1.60"," ,0,0324, ","102","0,0814, ",,,"14.97"," ,0","41.1"," ,0","45.9","0","60.7","0","31.2","0"
"USC00391102","BRYANT 1 NE, SD US","44.5547","-97.4686","557.8","2009",,,,,"        19","0",,,,,"8.0"," ,0,1225, ","1.77"," ,0,1002, ",,,,,"30.69"," ,0","57.6"," ,0",,,,,,
"USC00395381","MC INTOSH 6 SE, SD US","45.83825","-101.27683","664.2","2009","340",,"      127",,"        19","0","-27","0,0115, ","23"," ,0,1231,+","15.0"," ,0,0226, ","1.43"," ,0,0713, ","96","0,0723, ","8667","0","18.04"," ,0","84.4"," ,0","42.1","0","53.4","0","30.8","0"
"USC00398472","TYNDALL, SD US","42.99179","-97.87022","432.8","2009","639",,"       65",,"        13","0","-19","0,0116,+","16"," ,0,1227,+","9.5"," ,0,0405, ","1.47"," ,0,0819, ","96","0,0814,+","7202","0","23.74"," ,0","51.1"," ,0","46.7","0","57.7","0","35.7","0"
"USC00399442","WOOD, SD US","43.4989","-100.4814","664.5","2009","387",,"       55",,"        19","0","-18","0,0301, ","16"," ,0,0405, ","12.0"," ,0,0405, ","1.53"," ,0,0618, ","96","0,0520, ","7505","6","21.42"," ,0","60.6"," ,0","45.0","0","57.4","0","32.5","0"
"USC00398116","SUMMIT 1 W, SD US","45.30359","-97.06261","595.9","2009","255",,"      120",,"        28","0","-35","0,0115, ","18"," ,0,1229,+","6.5"," ,0,0226, ","2.58"," ,0,0819, ","92","0,0520,+","9041","9","29.28"," ,0","72.7"," ,0","41.0","0","51.7","0","30.4","0"
"USC00398911","WASTA, SD US","44.06794","-102.44986","709.6","2009","540",,,,"        13","0","-18","0,0127, ",,,"8.0"," ,0,0324, ","1.10"," ,0,1005, ","98","0,0814,+","7292","4","18.61"," ,0","48.1"," ,0","45.9","0","59.0","0","32.9","0"
"USC00390128","ALEXANDRIA, SD US","43.65133","-97.79811","416.1","2009","593",,,,"        12","0","-26","0,0115, ",,,"10.0"," ,0,1225, ","1.86"," ,0,0709, ","96","0,0519, ","7009","2","30.83"," ,0","48.9"," ,0","46.5","0","57.5","0","35.5","0"
"USC00392429","DUPREE, SD US","45.04689","-101.60228","727.9","2009",,,,,,,,,,,,,,,,,,,,,,,,,,,,
"USC00392302","DE SMET, SD US","44.3826","-97.5497","519.7","2009","346",,"      105",,"        17","0","-28","0,0115, ","14"," ,0,0116,+","5.5"," ,0,0331, ","2.30"," ,0,0707, ","94","0,0519, ","8468","4","30.94"," ,0","43.8"," ,0","43.3","0","52.6","0","33.9","0"
"USC00391579","CENTERVILLE 6 SE, SD US","43.04286","-96.90333","388.9","2009","452",,"       71",,"        11","0","-25","0,0116,+","12"," ,0,1231,+","5.0"," ,0,1225, ","1.79"," ,0,0903, ","95","0,0623, ","7798","0","27.28"," ,0","36.8"," ,0","44.8","0","55.6","0","34.1","0"
"USC00390120","ANDOVER NUMBER 2, SD US","45.41335","-97.90673","450.5","2009","232",,"      114",,"        17","0","-35","0,0115, ","17"," ,0,1231,+","10.3"," ,0,0331, ","1.90"," ,0,0921, ","95","0,0520, ","8861","0","27.11"," ,0","51.6"," ,0","40.9","0","50.5","0","31.3","0"
"USC00396227","OGLALA 1 S, SD US","43.175","-102.7458","912.9","2009",,,,,"        20","0",,,,,"17.0"," ,0,1226, ","1.40"," ,0,0816, ",,,,,"19.99"," ,0","94.3"," ,0",,,,,,
"USC00393990","HOSMER 1 E, SD US","45.57972","-99.45944","579.4","2009",,,,,,,,,,,,,,,,,,,,,,,,,,,,
"USC00393076","FORT PIERRE 17 WSW, SD US","44.2444","-100.6591","484.6","2009","676",,"       65",,"        15","0","-24","0,0301, ","15"," ,0,1226, ","6.6"," ,0,1225, ","1.80"," ,0,0816, ","99","0,0802,+","7203","8","21.96"," ,0","46.5"," ,0","46.3","0","59.6","0","33.1","0"
"USR0000SPNN","PINNACLES SOUTH DAKOTA, SD US","43.8822","-102.2042","942.4","2009","548",,,,,,"-11","U,1209, ",,,,,,,"97","U,0813, ","6719","0",,,,,"46.0","U","56.1","U","35.8","U"
"US1SDTR0003","MARION 0.5 NE, SD US","43.428167","-97.2533","440.1","2009",,,,,,,,,,,,,"1.79"," ,N,0704, ",,,,,"27.82"," ,N",,,,,,,,
"US1SDRB0004","SISSETON 10.4 ENE, SD US","45.6948","-96.8348","338.0","2009",,,,,,,,,,,,,"1.90"," ,N,1002, ",,,,,"27.01"," ,N",,,,,,,,
"USC00397551","SENECA, SD US","45.0605","-99.51","582.2","2009",,,,,"        20","0",,,,,"8.0"," ,0,1225, ","1.25"," ,0,0708, ",,,,,"22.07"," ,0","55.8"," ,0",,,,,,
"USC00398767","WAGNER, SD US","43.0833","-98.2894","435.9","2009","738",,"       49",,"        17","0","-18","0,0115, ","17"," ,0,1226, ","11.0"," ,0,1225, ","1.72"," ,0,0815, ","99","0,0802, ","6623","7","27.86"," ,0","45.0"," ,0","47.9","0","59.0","0","36.7","0"
"USC00398528","USTA 8 WNW KELLY RANCH, SD US","45.2539","-102.3122","725.4","2009",,,,,,,,,,,,,,,,,,,,,,,,,,,,
"USC00391049","BRITTON, SD US","45.78861","-97.74881","413.0","2009","436",,,,"        15","0","-35","0,0115, ",,,"14.1"," ,0,1225, ","4.25"," ,0,0616, ","94","0,0812,+","8226","8","34.33"," ,0","58.9"," ,0","42.6","0","52.3","0","32.8","0"
"USC00395406","MC LAUGHLIN, SD US","45.81339","-100.80719","609.9","2009","289",,,,,,"-33","0,0116, ",,,,,"1.62"," ,0,0331, ","98","0,0724, ","8612","4","21.62"," ,0",,,"40.4","0","52.1","0","28.7","0"
"USC00395648","MISSION RIDGE 5 NW, SD US","44.73417","-100.80407","604.1","2009","535",,,,"        15","0","-19","0,0116,+",,,"6.0"," ,0,1226, ","2.90"," ,0,0714, ","95","0,0727,+",,,"19.34"," ,0","31.8"," ,0","44.1","0","54.9","0","33.3","0"
"USC00396736","PORCUPINE 11 N, SD US","43.395","-102.3894","859.5","2009",,,,,,,,,,,,,,,,,,,,,,,,,,,,
"USW00094037","BUFFALO ASOS, SD US","45.60444","-103.54639","915.6","2009","330",,,,,,"-22","W,1215, ",,,,,"0.87"," ,W,0703, ","96","W,0813,+","8565","4","11.19"," ,W",,,"42.4","W","53.6","W","31.2","W"
"USC00392371","DOLAND, SD US","44.89642","-98.10066","411.8","2009",,,,,"        15","0",,,,,"6.4"," ,0,0331, ","1.97"," ,0,0526, ",,,,,"22.50"," ,0","36.7"," ,0",,,,,,
"USR0000SBAK","BAKER PARK SOUTH DAKOTA, SD US","43.9792","-103.425","1424.6","2009","223",,,,,,"-13","U,1209, ",,,,,,,"94","U,0625,+","7337","9",,,,,"44.5","U","56.4","U","32.6","U"
"USW00094950","MITCHELL AIRPORT, SD US","43.77426","-98.03838","396.2","2009","553",,,,,,"-25","W,0115, ",,,,,"1.34"," ,W,0709, ","98","W,0519, ","7467","1","17.50"," ,W",,,"45.9","W","56.4","W","35.3","W"
"US1SDMH0001","SIOUX FALLS 5.0 SE AIRPORT, SD US","43.5236","-96.6678","461.2","2009",,,,,,,,,,,,,"1.75"," ,N,0708, ",,,,,"27.13"," ,N",,,,,,,,
"USC00391043","BRISTOL 7 S, SD US","45.23851","-97.75376","542.2","2009",,,"      105",,"        20","0",,,"12"," ,0,1229,+","8.0"," ,0,0331, ","1.51"," ,0,0617, ",,,,,"28.23"," ,0","49.5"," ,0",,,,,,
"USW00094039","PINE RIDGE AIRPORT, SD US","43.02056","-102.51833","999.1","2009",,,,,,,,,,,,,"0.78"," ,W,0807, ",,,,,"19.10"," ,W",,,,,,,,
"USC00396054","NEWELL, SD US","44.71371","-103.42584","871.7","2009",,,,,,,,,,,,,,,,,,,,,,,,,,,,
"USC00399064","WESSINGTON 2 SE, SD US","44.4247","-98.685","434.6","2009",,,,,"        13","0",,,,,"11.0"," ,0,0331, ","1.35"," ,0,1006, ",,,,,"23.98"," ,0","45.0"," ,0",,,,,,
"USC00396292","ONIDA 4 NW, SD US","44.73234","-100.14479","564.2","2009","442",,"       87",,"        21","0","-27","0,0115, ","11"," ,0,1231,+","3.0"," ,0,1213,+","1.05"," ,0,1005, ","97","0,0625, ","8208","9","18.49"," ,0","44.1"," ,0","43.5","0","55.0","0","31.9","0"
"USC00396170","OAHE DAM, SD US","44.44192","-100.41711","506.9","2009",,,,,,,,,,,,,,,,,,,,,,,,,,,,
"USW00094032","CUSTER CO AIRPORT, SD US","43.73306","-103.61139","1690.1","2009","76",,,,,,"-16","W,1209, ",,,,,"0.82"," ,W,0913, ","91","W,0822, ","8299","4","17.69"," ,W",,,"41.0","W","52.5","W","29.5","W"
"USC00398652","VICTOR 4 N, SD US","45.92019","-96.83078","333.8","2009","280",,,,"        27","0","-29","0,0115, ",,,"10.0"," ,0,0401,+","1.80"," ,0,0909, ","91","0,0813,+","9563","7","25.40"," ,0","91.3"," ,0","39.7","0","49.9","0","29.5","0"
"USC00392927","FAULKTON 1 NW, SD US","45.0363","-99.1342","486.8","2009","348",,,,"        18","0","-27","0,0115, ",,,"8.0"," ,0,0226, ","2.17"," ,0,0816, ","96","0,0520, ","8311","4","25.26"," ,0","44.2"," ,0","42.4","0","53.5","0","31.3","0"
"USC00397326","ROY LAKE, SD US","45.70874","-97.43398","551.7","2009","192",,"      132",,"        29","0","-40","0,0116, ","32"," ,0,0131,+","8.0"," ,0,0331, ","1.86"," ,0,0816, ","89","0,0813, ",,,"27.07"," ,0","81.1"," ,0","38.3","0","47.7","0","29.0","0"
"USC00397569","SHADEHILL RESERVOIR, SD US","45.685","-102.2733","746.8","2009",,,"      127",,"        23","0",,,"21"," ,0,1227, ","19.0"," ,0,1226, ","1.52"," ,0,0324, ",,,,,"18.47"," ,0","120.9"," ,0",,,,,,
"USC00395638","MISSION 14 S, SD US","43.1123","-100.6111","856.5","2009","387",,"       53",,"        21","0","-12","0,1215,+","13"," ,0,0405, ","13.0"," ,0,0405, ","1.49"," ,0,0712, ","96","0,0520, ","7479","0","24.80"," ,0","59.8"," ,0","44.7","0","57.0","0","32.4","0"
"USC00396969","RAUVILLE 2 W, SD US","44.97329","-97.14941","529.4","2009",,,,,"        19","0",,,,,"4.4"," ,0,0226, ","2.31"," ,0,0721, ",,,,,"27.69"," ,0","42.2"," ,0",,,,,,
"USC00393456","GROTON, SD US","45.4469","-98.0952","397.8","2009",,,,,"        16","0",,,,,"10.4"," ,0,0401,+","3.28"," ,0,0624, ",,,,,"27.41"," ,0","58.0"," ,0",,,,,,
"USC00399070","WESSINGTON SPRINGS, SD US","44.07564","-98.57064","522.7","2009","560",,"       85",,"        15","0","-18","0,0116,+","15"," ,0,1231,+","9.0"," ,0,0331, ","1.94"," ,0,0709, ","97","0,0803,+","7705","4","28.80"," ,0","61.0"," ,0","45.2","0","54.8","0","35.7","0"
"USC00393452","GREGORY, SD US","43.23561","-99.43408","658.4","2009",,,,,,,,,,,,,,,,,"7432","8",,,,,,,,,,
"USC00391032","BRIDGEWATER, SD US","43.55239","-97.50164","431.9","2009","459",,,,"         8","0","-27","0,0116,+",,,"3.0"," ,0,0405, ","2.70"," ,0,0708, ","96","0,0520, ","7261","7","32.09"," ,0","10.4"," ,0","44.9","0","56.0","0","33.8","0"
"USC00395870","MOUNT RUSHMORE NATIONAL MEMORIAL, SD US","43.8769","-103.4578","1618.8","2009","235",,"       83",,"        26","0","-10","0,1209, ","9"," ,0,0406,+","6.0"," ,0,0330, ","1.40"," ,0,0524, ","89","0,0625,+","7729","2","27.39"," ,0","68.0"," ,0","43.8","0","52.7","0","34.8","0"
"US1SDCS0001","CUSTER 10.2 E, SD US","43.77083","-103.39639","1321.0","2009",,,,,,,,,,,,,"1.93"," ,N,0711, ",,,,,"23.53"," ,N",,,,,,,,
"US1SDJN0001","DRAPER 4.3 SSE, SD US","43.86564","-100.519454","637.0","2009",,,,,,,,,,,,,"1.15"," ,N,0210, ",,,,,"21.21"," ,N",,,,,,,,
"USW00094943","CHAMBERLAIN MUNICIPAL AIRPORT, SD US","43.76667","-99.31833","519.1","2009","538",,,,,,"-21","W,0115, ",,,,,"1.36"," ,W,1005, ","98","W,0802,+","7261","0","21.93"," ,W",,,"46.0","W","57.0","W","35.1","W"
"USC00396282","ONAKA, SD US","45.1916","-99.4666","570.6","2009",,,,,"        11","0",,,,,"10.5"," ,0,0227, ","1.93"," ,0,1005, ",,,,,"21.59"," ,0","56.5"," ,0",,,,,,
"USC00398307","TIMBER LAKE, SD US","45.4284","-101.0764","662.3","2009",,,,,,,,,,,,,,,,,"8348","0",,,,,,,,,,
"USC00396712","POLLOCK, SD US","45.90338","-100.28765","499.6","2009","353",,"      109",,"        24","0","-47","0,0115, ","20"," ,0,1226, ","15.0"," ,0,0226, ","1.03"," ,0,0209, ","96","0,0813,+","8753","0","20.41"," ,0","80.4"," ,0","41.6","0","53.2","0","29.9","0"
"USC00395620","MISSION, SD US","43.3061","-100.6558","788.5","2009","513",,"       57",,"        21","0","-16","0,0301, ","24"," ,0,1227, ","10.5"," ,0,0405, ","1.55"," ,0,0709, ","100","0,0626, ","7436","3","24.03"," ,0","70.6"," ,0","45.4","0","57.2","0","33.7","0"
"USC00394893","LEOLA SDSU, SD US","45.71869","-98.9384","482.5","2009",,,,,"        18","0",,,,,"10.0"," ,0,0226, ","2.66"," ,0,0815, ","92","0,0812, ",,,"31.08"," ,0","58.3"," ,0",,,"51.4","0",,
"USC00393560","HARDING 3 SE, SD US","45.36","-103.8116","1036.3","2009",,,"      101",,"        24","0",,,"25"," ,0,0406,+","24.0"," ,0,0323, ","0.95"," ,0,0714, ",,,,,"14.22"," ,0","113.9"," ,0",,,,,,
"USC00393681","HAYTI, SD US","44.66334","-97.22663","510.8","2009",,,"      112",,"        16","0",,,"18"," ,0,1231,+","8.7"," ,0,1225, ","1.83"," ,0,0323, ",,,,,"25.24"," ,0","48.5"," ,0",,,,,,
"USS0003E03S","BLIND PARK, SD US","44.11","-103.98","2100.1","2009","6",,"      199",,,,"-20","T,1209, ","38"," ,T,0129, ",,,"1.10"," ,T,0107, ","84","T,0822, ","9373","4","26.93"," ,T",,,"38.5","T","50.9","T","26.2","T"
"US1SDMH0020","SIOUX FALLS 3.4 ESE, SD US","43.5267","-96.6658","462.1","2009",,,"       85",,"        14","N",,,"19"," ,N,1227, ","6.7"," ,N,1225, ","1.61"," ,N,0708, ",,,,,"28.23"," ,N","48.5"," ,N",,,,,,
"USW00094052","MOBRIDGE MUNICIPAL AIRPORT, SD US","45.54639","-100.40778","522.7","2009","342",,,,,,"-33","W,0115, ",,,,,"2.16"," ,W,0209, ","93","W,0723, ","8622","2","21.81"," ,W",,,"42.1","W","53.0","W","31.2","W"
"USS0003E05S","NORTH RAPID CREEK, SD US","44.21","-103.79","1868.4","2009","32",,"      207",,,,"-14","T,1209, ","37"," ,T,0324, ",,,"1.00"," ,T,0912, ","87","T,0813, ","8663","8","26.01"," ,T",,,"40.7","T","51.5","T","29.8","T"
"USW00094056","FAITH MUNICIPAL AIRPORT, SD US","45.03194","-102.01917","786.4","2009","362",,,,,,"-18","W,1215, ",,,,,"1.39"," ,W,0703, ","94","W,0812,+",,,"17.50"," ,W",,,"42.9","W","53.5","W","32.4","W"
"USC00397103","REE HEIGHTS, SD US","44.51673","-99.19891","530.4","2009",,,,,"        15","0",,,,,"20.0"," ,0,0331, ","1.43"," ,0,0709, ",,,,,"20.89"," ,0","68.0"," ,0",,,,,,
"US1SDLY0005","PRESHO 13.8 NW, SD US","44.03854","-100.265563","567.8","2009",,,,,,,,,,,,,"1.70"," ,N,0816, ",,,,,"23.51"," ,N",,,,,,,,
"US1SDLY0004","KENNEBEC 6.2 SSE, SD US","43.817188","-99.830738","545.9","2009",,,,,,,,,,,,,"2.19"," ,N,0703, ",,,,,"28.31"," ,N",,,,,,,,
"US1SDLY0001","PRESHO 0.3 SSW, SD US","43.90271","-100.06081","556.9","2009",,,,,,,,,,,,,"2.00"," ,N,1226, ",,,,,"24.26"," ,N",,,,,,,,
"USC00395738","MONTROSE 8 N, SD US","43.8197","-97.2016","523.6","2009","399",,,,"        12","0","-27","0,0115, ",,,"8.0"," ,0,0404, ","2.08"," ,0,1113, ","95","0,0519, ","7539","3","26.68"," ,0","50.9"," ,0","43.7","0","54.6","0","32.8","0"
"USC00396948","RAPID CITY WEATHER FORECAST OFFICE, SD US","44.0727","-103.2108","1029.9","2009","417",,"       65",,"        27","0","-10","0,1215,+","11"," ,0,0404, ","13.9"," ,0,0404, ","2.17"," ,0,0524, ","96","0,0813, ","7248","6","21.08"," ,0","94.0"," ,0","45.7","0","56.1","0","35.3","0"
"USC00393316","GLAD VALLEY 2 W, SD US","45.40077","-101.81033","758.0","2009","294",,,,"        30","0","-23","0,0114, ",,,"12.0"," ,0,0324, ","2.17"," ,0,0902, ","93","0,0812,+",,,"23.18"," ,0","101.9"," ,0","41.1","0","52.1","0","30.1","0"
"USC00394766","LAKE SHARPE PROJECT, SD US","44.0644","-99.4602","445.3","2009",,,,,,,,,,,,,"2.10"," ,0,0627, ",,,,,"21.65"," ,0",,,,,,,,
"USC00395733","MONTROSE, SD US","43.705","-97.18777","468.2","2009",,,,,"        17","0",,,,,"6.0"," ,0,0404,+","3.00"," ,0,0113, ",,,,,"41.29"," ,0","52.4"," ,0",,,,,,
"USC00390281","ARLINGTON 1 W, SD US","44.363","-97.1702","556.0","2009","306",,,,"        22","0","-33","0,0115, ",,,"9.0"," ,0,1225, ","3.98"," ,0,0323, ","95","0,0519, ","8456","9","31.57"," ,0","46.2"," ,0","42.7","0","52.9","0","32.4","0"
"US1SDBR0011","ABERDEEN 1.5 SSW, SD US","45.446769","-98.49093","396.2","2009",,,,,,,,,,,,,"2.94"," ,N,0617, ",,,,,"28.65"," ,N",,,,,,,,
"USC00397992","STEPHAN 2 NW, SD US","44.2662","-99.4431","550.2","2009",,,,,,,,,,,,,,,,,"8484","3",,,,,,,,,,
"USR0000SPIN","PORCUPINE SOUTH DAKOTA, SD US","43.29","-102.2711","342.0","2009","545",,,,,,"-10","U,1209, ",,,,,,,"97","U,0813,+","6906","6",,,,,"46.6","U","57.1","U","36.0","U"
"USC00399138","WESTPORT 2 NW, SD US","45.67652","-98.53027","420.9","2009",,,,,"        17","0",,,,,"7.0"," ,0,0311, ","3.00"," ,0,0816, ",,,,,"30.86"," ,0","45.9"," ,0",,,,,,
"USR0000SNEM","NEMO SOUTH DAKOTA, SD US","44.1917","-103.5097","1415.5","2009","60",,,,,,"-21","U,1209, ",,,,,,,"93","U,0625,+","8464","4",,,,,"41.2","U","56.2","U","26.3","U"
"US009052008","SIOUX FALLS ENVIRON. CANADA, SD US","43.7333","-96.6333","482.0","2009","332",,,,,,"-27","C,0115, ",,,,,"1.03"," ,C,0707, ","96","C,0519, ",,,"21.64"," ,C",,,"43.3","C","53.7","C","32.8","C"
"USC00393945","HOOVER, SD US","45.11262","-103.2682","845.2","2009","258",,"      110",,"        30","0","-23","0,1215, ","20"," ,0,0406,+","16.0"," ,0,0324, ","1.50"," ,0,0324, ","96","0,0814,+","8816","9","18.69"," ,0","93.7"," ,0","41.4","0","55.1","0","27.7","0"
"USC00390554","BEAR RIDGE, SD US","44.4988","-104.035","1188.7","2009",,,,,,,,,,,,,,,,,,,,,,,,,,,,
"USC00391884","COLUMBIA 1 S, SD US","45.6055","-98.3116","388.0","2009",,,,,,,,,,,,,,,,,,,,,,,,,,,,
"USC00392852","FAITH, SD US","45.0203","-102.0367","790.0","2009","431",,"      118",,"        21","0","-17","0,1215, ","30"," ,0,1231,+","15.0"," ,0,1226, ","1.43"," ,0,0703, ","94","0,0812, ","8124","4","20.95"," ,0","97.9"," ,0","43.8","0","54.6","0","33.0","0"
"USC00393029","FORESTBURG 4 NNE, SD US","44.06844","-98.08333","389.2","2009","490",,"       72",,,,"-28","0,0115, ","10"," ,0,1231,+",,,"1.28"," ,0,0703, ","99","0,0519, ","7464","7","27.66"," ,0",,,"45.3","0","56.8","0","33.8","0"
"USC00395325","MAURINE 12 SW, SD US","44.86559","-102.56571","801.3","2009",,,,,,,,,,,,,,,,,,,,,,,,,,,,
"USC00395567","MILLER 15 S, SD US","44.2919","-99.0044","573.9","2009",,,,,"        13","0",,,,,"13.0"," ,0,0331, ","1.88"," ,0,0721, ",,,,,"28.13"," ,0","51.0"," ,0",,,,,,
"USC00394596","KIRLEY 6 N, SD US","44.6122","-101.3369","658.4","2009","572",,"       77",,"        17","0","-19","0,1215,+","14"," ,0,1229,+","6.0"," ,0,1226, ","1.74"," ,0,0714, ","97","0,0813,+","7791","6","21.74"," ,0","44.7"," ,0","44.9","0","56.5","0","33.4","0"
"USC00395561","MILLER, SD US","44.5177","-98.98148","480.4","2009","347",,,,"        23","0","-22","0,0116,+",,,"14.0"," ,0,0331, ",,,"97","0,0520, ","8310","6",,,"63.0"," ,0","42.9","0","53.8","0","32.0","0"
"USW00094911","YANKTON 2 E, SD US","42.87856","-97.36361","357.2","2009","586",,"       46",,"        14","0","-20","0,0116, ","23"," ,0,1228,+","8.0"," ,0,1226, ","1.98"," ,0,0710, ","97","0,0520, ","7341","4","28.10"," ,0","46.0"," ,0","46.5","0","58.2","0","34.8","0"
"USW00024024","PHILIP AIRPORT, SD US","44.05111","-101.60111","672.4","2009","581",,,,,,"-13","W,0301, ",,,,,"1.34"," ,W,0703, ","100","W,0802, ","7340","9","15.65"," ,W",,,"46.0","W","58.9","W","33.1","W"
"USC00397882","SPEARFISH, SD US","44.49739","-103.87177","1107.3","2009","566",,"       86",,"        32","0","-10","0,1209, ","33"," ,0,0405, ","25.0"," ,0,0330, ","1.20"," ,0,0809,+","95","0,0520,+",,,"20.89"," ,0","135.9"," ,0","48.8","0","60.0","0","37.5","0"
"USC00391519","CASTLEWOOD, SD US","44.727","-97.026","513.6","2009","191",,"      104",,"        17","0","-40","0,0116, ","20"," ,0,0121,+","6.0"," ,0,1226, ","4.30"," ,0,0323, ","93","0,0520, ",,,"30.07"," ,0","40.0"," ,0","38.2","0","49.7","0","26.7","0"
"USW00004990","SIOUX FALLS 14 NNE, SD US","43.7346","-96.6222","485.9","2009","348",,,,,,"-26","R,0115, ",,,,,"1.04"," ,R,0707, ","95","R,0519, ","8186","6","25.09"," ,R",,,"43.5","R","53.9","R","33.1","R"
"US1SDDL0001","CLEAR LAKE 0.6 SSW, SD US","44.75708","-96.683864","551.1","2009",,,,,,,,,,,,,"2.98"," ,N,0323, ",,,,,"26.79"," ,N",,,,,,,,
"USC00391636","CHESTER 2 N, SD US","43.92808","-96.93197","513.3","2009",,,"       85",,"        14","0",,,"18"," ,0,1231,+","8.5"," ,0,1225, ","1.74"," ,0,0708, ",,,,,"27.76"," ,0","43.5"," ,0",,,,,,
"USW00024025","PIERRE REGIONAL AIRPORT, SD US","44.3813","-100.2855","531.0","2009","555",,,,,,"-24","0,0115, ",,,,,"1.64"," ,0,0815, ","97","0,0812,+","7680","6","20.35"," ,0",,,"45.1","0","56.6","0","33.6","0"
"USC00390422","ASTORIA 4 S, SD US","44.5044","-96.5319","576.1","2009","285",,,,,,"-27","0,0115, ",,,,,,,"93","0,0520, ","8691","2",,,,,"41.2","0","50.9","0","31.5","0"
"USC00391873","COLUMBIA 8 N, SD US","45.72302","-98.30299","397.8","2009","313",,"      120",,"        18","0","-39","0,0115, ","23"," ,0,0131,+","6.5"," ,0,0226, ","2.88"," ,0,0816, ","91","0,0813, ","9211","4","32.12"," ,0","52.7"," ,0","40.9","0","51.1","0","30.7","0"
"US1SDPN0002","RAPID CITY 3.4 WNW, SD US","44.0886","-103.2997","1058.9","2009",,,,,,,,,,,,,"1.54"," ,N,0913, ",,,,,"25.23"," ,N",,,,,,,,
"US1SDPN0001","RAPID CITY 4.9 ESE, SD US","44.05","-103.14","954.9","2009",,,,,"        22","N",,,,,"8.2"," ,N,0324, ","1.17"," ,N,0627, ",,,,,"20.45"," ,N","90.8"," ,N",,,,,,
"USC00390662","BIG STONE CITY 2 NW, SD US","45.2995","-96.4997","340.5","2009",,,,,"        17","0",,,,,"8.0"," ,0,0227, ","2.56"," ,0,0807, ",,,,,"29.56"," ,0","49.1"," ,0",,,,,,
"USC00394343","JOHNSON SIDING, SD US","44.08389","-103.43417","1275.3","2009","100",,,,"        24","0","-17","0,1209, ",,,"11.0"," ,0,0330, ","2.16"," ,0,0912, ","92","0,0625,+",,,"22.39"," ,0","87.4"," ,0","43.0","0","56.3","0","29.7","0"
"USC00391076","BROOKINGS 2 NE, SD US","44.32503","-96.76864","499.6","2009","287",,"       94",,"        15","0","-31","0,0115, ","15"," ,0,0112, ","7.5"," ,0,1225, ","1.31"," ,0,1002, ","95","0,0520, ","8889","1","23.53"," ,0","37.3"," ,0","41.6","0","52.0","0","31.3","0"
"USR0000SMRU","MOUNT RUSHMORE SOUTH DAKOTA, SD US","43.875","-103.4583","1645.9","2009","353",,,,,,"-9","U,1209, ",,,,,,,"90","U,0813,+","7060","2",,,,,"45.4","U","54.8","U","36.1","U"
"USR0000SMAG","MAGPIE CREEK SOUTH DAKOTA, SD US","43.3181","-101.1444","865.6","2009",,,,,,,"-10","U,0227,+",,,,,,,"97","U,0519, ","6611","0",,,,,"46.7","U","57.8","U","35.6","U"
"USC00398980","WAUBAY NATIONAL WILD LIFE, SD US","45.42474","-97.32698","556.9","2009","301",,"      112",,"        13","0","-35","0,0115, ","18"," ,0,0130,+","8.6"," ,0,0331, ","1.20"," ,0,0714, ","88","0,0812, ","8918","5","23.91"," ,0","60.4"," ,0","41.3","0","50.7","0","31.9","0"
"US1SDGY0001","DALLAS 8.8 S, SD US","43.113169","-99.496356","678.8","2009",,,,,,,,,,,,,"1.38"," ,N,0816, ",,,,,"27.76"," ,N",,,,,,,,
"USC00398622","VERMILLION 2 SE, SD US","42.7625","-96.9194","346.6","2009","587",,"       51",,"        17","0","-24","0,0115, ","25"," ,0,1228, ","10.0"," ,0,1226, ","2.11"," ,0,0709, ","95","0,0520,+","6964","1","28.48"," ,0","54.1"," ,0","47.3","0","58.7","0","35.9","0"
"USC00397418","SAINT ONGE 2 S, SD US","44.6924","-103.7269","1069.8","2009",,,,,,,,,,,,,,,,,,,,,,,,,,,,
"US1SDGY0004","DALLAS 11.8 S, SD US","43.067993","-99.530788","705.0","2009",,,,,,,,,,,,,"1.52"," ,N,0806, ",,,,,"27.48"," ,N",,,,,,,,
"USC00391621","CHAMBERLAIN 5 S, SD US","43.73519","-99.31239","519.4","2009",,,,,"        16","0","-21","0,0115, ",,,"13.0"," ,0,0331, ","1.53"," ,0,0815, ",,,"7725","5","20.61"," ,0","50.4"," ,0",,,,,"33.3","0"
"USC00395669","MITCHELL, SD US","43.76439","-98.07139","392.3","2009",,,,,,,,,,,,,,,,,,,,,,,,,,,,
"US1SDJK0001","KADOKA 2.8 WNW, SD US","43.8528","-101.5581","721.2","2009",,,,,,,,,,,,,"1.39"," ,N,0704, ",,,,,"19.21"," ,N",,,,,,,,
"US1SDPN0013","SILVER CITY, SD US","44.0848","-103.5634","1413.1","2009",,,,,,,,,,,,,"1.33"," ,N,0913, ",,,,,"21.95"," ,N",,,,,,,,
"USC00395544","MILESVILLE 5 NE, SD US","44.5171","-101.6184","681.8","2009","545",,,,"        13","0","-19","0,1215, ",,,"14.0"," ,0,1226, ","3.13"," ,0,0714, ","97","0,0802,+","7619","8","21.50"," ,0","47.9"," ,0","45.2","0","56.9","0","33.5","0"
"US1SDJK0006","KADOKA 0.3 N, SD US","43.8367","-101.5078","746.2","2009",,,,,,,,,,,,,"2.44"," ,N,0813, ",,,,,"26.06"," ,N",,,,,,,,
"USC00398074","STRATFORD 7 SW, SD US","45.23384","-98.39967","396.2","2009",,,,,"        20","0",,,,,"16.0"," ,0,0331, ","3.05"," ,0,0714, ",,,,,"24.53"," ,0","71.9"," ,0",,,,,,
"US1SDPN0019","WASTA 21.6 SSW, SD US","43.781017","-102.616813","894.0","2009",,,,,,,,,,,,,"1.26"," ,N,0405, ",,,,,"21.44"," ,N",,,,,,,,
"USW00054933","ABERDEEN 35 WNW, SD US","45.71145","-99.12958","596.5","2009",,,,,,,,,,,,,"1.70"," ,R,0808, ",,,,,"25.70"," ,R",,,,,,,,
"USC00391739","CLARK, SD US","44.8818","-97.7325","549.9","2009","268",,,,"        20","0","-30","0,0116, ",,,"5.5"," ,0,1225, ","1.92"," ,0,0708, ","95","0,0520, ","9188","4","28.79"," ,0","49.1"," ,0","40.7","0","50.5","0","30.9","0"
"USC00397545","SELBY, SD US","45.50999","-100.03555","581.6","2009","349",,"       76",,"        10","0","-34","0,0116, ","16"," ,0,1231,+","14.0"," ,0,0226, ","1.64"," ,0,0714, ","96","0,0813, ","8925","1","16.78"," ,0","43.5"," ,0","41.6","0","52.2","0","31.1","0"
"US1SDGY0015","BURKE 4.2 SW, SD US","43.14107","-99.35415","627.9","2009",,,,,,,,,,,,,"2.44"," ,N,0804, ",,,,,"32.04"," ,N",,,,,,,,
"USC00391972","COTTONWOOD 2 E, SD US","43.9611","-101.8605","723.3","2009","582",,"       72",,"        20","0","-17","0,0128,+","14"," ,0,1227, ","7.0"," ,0,1226, ","1.03"," ,0,0324, ","102","0,0813, ","7358","7","17.15"," ,0","48.2"," ,0","45.5","0","60.2","0","30.9","0"
"USC00392822","FAIRFAX NUMBER 2, SD US","43.0311","-98.89","606.6","2009","409",,"       54",,"        19","0","-17","0,0116, ","14"," ,0,1231,+","6.0"," ,0,0405, ","2.40"," ,0,0815, ","93","0,0803,+","7522","9","25.19"," ,0","51.5"," ,0","44.8","0","55.5","0","34.1","0"
"USC00394206","IPSWICH, SD US","45.44719","-99.03853","471.5","2009","265",,"       92",,"        16","0","-29","0,0115, ","10"," ,0,0302,+","10.0"," ,0,0226, ","3.07"," ,0,0615, ","92","0,0812, ","8993","3","28.39"," ,0","39.0"," ,0","41.0","0","51.5","0","30.5","0"
"USC00395536","MILBANK 2 SSW, SD US","45.2837","-96.6689","349.0","2009",,,,,,,,,,,,,,,,,"9088","1",,,,,,,,,,
"USC00390760","BLUNT, SD US","44.5128","-99.9881","494.1","2009",,,,,,,,,,,,,,,,,,,,,,,,,,,,
"USC00391052","BRITTON 13 NW, SD US","45.9217","-97.93297","401.7","2009",,,,,"        14","0",,,,,"14.0"," ,0,1227, ","1.57"," ,0,0909, ",,,,,"26.94"," ,0","66.0"," ,0",,,,,,
"USC00395891","MURDO, SD US","43.8878","-100.7075","705.9","2009","623",,,,"        19","0","-12","0,0115, ",,,"12.0"," ,0,1226, ","2.56"," ,0,0806, ","97","0,0803, ","7308","9","23.94"," ,0","62.8"," ,0","46.3","0","57.3","0","35.2","0"
"US1SDED0005","ROSCOE 0.3 NNW, SD US","45.4547","-99.3363","554.1","2009",,,,,,,,,,,,,"2.36"," ,N,0714, ",,,,,"29.07"," ,N",,,,,,,,
"USC00397277","ROSCOE, SD US","45.45269","-99.33588","559.3","2009","272",,"      114",,"        21","0","-32","0,0115, ","18"," ,0,0302,+","9.2"," ,0,0226, ","2.31"," ,0,0714, ","94","0,0813, ","9220","3","28.96"," ,0","61.1"," ,0","40.5","0","51.0","0","30.0","0"
"USC00399337","WILMOT, SD US","45.40789","-96.86202","366.1","2009",,,"      123",,"        22","0",,,"26"," ,0,0121,+","7.2"," ,0,0227, ","2.05"," ,0,1002, ","96","0,0520, ",,,"29.22"," ,0","66.9"," ,0",,,"50.9","0",,
"USW00014929","ABERDEEN REGIONAL AIRPORT, SD US","45.4433","-98.413","395.3","2009","307",,"       98",,"        14","0","-42","0,0115, ","13"," ,0,1227, ","10.2"," ,0,0331, ","3.02"," ,0,0908, ","96","0,0519, ","9031","3","24.32"," ,0","52.4"," ,0","41.3","0","52.3","0","30.3","0"
"US1SDHK0017","PHILIP 0.4 ENE, SD US","44.043615","-101.657252","679.1","2009",,,,,,,,,,,,,"1.29"," ,N,1005, ",,,,,"15.49"," ,N",,,,,,,,
"USC00393868","HILL CITY, SD US","43.93425","-103.55735","1507.5","2009","119",,"       77",,"        28","0","-21","0,1209, ","10"," ,0,0404, ","8.4"," ,0,1005, ","1.06"," ,0,1005, ","91","0,0813, ","7802","6","20.59"," ,0","95.1"," ,0","43.3","0","56.4","0","30.2","0"
"USC00394834","LEAD, SD US","44.3544","-103.7431","1558.1","2009","148",,"      150",,"        47","0","-12","0,1209, ","41"," ,0,1227, ","30.2"," ,0,0324, ","2.01"," ,0,0324, ","88","0,0823,+","7994","4","35.12"," ,0","291.5"," ,0","42.5","0","53.0","0","32.1","0"
"USC00394956","LODGEPOLE 5 SW, SD US","45.7475","-102.7969","783.3","2009","172",,,,"        19","0","-26","0,1215, ",,,"13.0"," ,0,0324, ","1.40"," ,0,0324, ","95","0,0727, ","9120","5","14.14"," ,0","76.5"," ,0","40.2","0","53.5","0","26.9","0"
"USC00390236","ARDMORE 2 N, SD US","43.03","-103.66","1079.0","2009",,,,,,,,,,,,,,,,,,,,,,,,,,,,
"USC00393069","FORT MEADE, SD US","44.41066","-103.47683","1008.3","2009","387",,"       56",,"        23","0","-15","0,1209, ","16"," ,0,0324, ","10.0"," ,0,0404,+","1.66"," ,0,0714, ","93","0,0823,+","7093","8","21.99"," ,0","75.7"," ,0","45.9","0","57.6","0","34.2","0"
"USC00394037","HOWARD, SD US","44.01214","-97.53153","478.5","2009",,,,,"        14","0","-30","0,0116,+",,,"5.0"," ,0,1225, ","1.22"," ,0,1030, ","95","0,0519, ",,,"24.04"," ,0","33.9"," ,0","43.1","0","54.4","0","31.7","0"
"USC00396335","ORIENT, SD US","44.8983","-99.0865","489.2","2009",,,,,,,,,,,,,"1.09"," ,0,1005, ",,,,,"21.33"," ,0",,,,,,,,
"USC00396574","PICKSTOWN, SD US","43.0688","-98.5325","454.2","2009","592",,,,"        12","0","-16","0,0116, ",,,"8.0"," ,0,0405, ","1.32"," ,0,0815, ","97","0,0814,+","6431","6","24.39"," ,0","45.0"," ,0","47.4","0","59.8","0","35.1","0"
"USC00395360","SALEM 5 NE, SD US","43.74475","-97.30814","485.9","2009","342",,,,"        20","0","-32","0,0115, ",,,"7.0"," ,0,0404, ","1.92"," ,0,0703, ","96","0,0519, ","8165","2","32.57"," ,0","52.8"," ,0","43.4","0","53.4","0","33.4","0"
"USC00395481","MENNO, SD US","43.23586","-97.57125","406.3","2009","610",,"       57",,"        19","0","-22","0,0115, ","20"," ,0,1229,+","9.0"," ,0,1225, ","1.40"," ,0,0617, ","98","0,0519, ","7094","0","24.54"," ,0","47.2"," ,0","47.0","0","58.3","0","35.6","0"
"USC00394271","ISABEL 14 NNE, SD US","45.60253","-101.34857","650.1","2009",,,"      120",,"        21","0",,,"21"," ,0,0227, ","15.0"," ,0,1225, ","1.58"," ,0,0709, ",,,,,"21.52"," ,0","93.3"," ,0",,,,,,
"US1SDTP0007","HAMILL 1.7 SW, SD US","43.5868","-99.711432","556.0","2009",,,,,,,,,,,,,"1.51"," ,N,0627, ",,,,,"23.50"," ,N",,,,,,,,
"USC00399347","WIND CAVE, SD US","43.55601","-103.47958","1266.4","2009","313",,,,"        31","0","-16","0,1209, ",,,"8.0"," ,0,0426, ","1.25"," ,0,0614,+","92","0,0814,+",,,"22.22"," ,0","88.7"," ,0","45.4","0","58.3","0","32.5","0"
"USW00014936","HURON REGIONAL AIRPORT, SD US","44.3981","-98.2231","390.1","2009","449",,"       84",,"        17","0","-30","0,0115, ","17"," ,0,1230,+","9.5"," ,0,1225, ","1.18"," ,0,1005, ","98","0,0519, ","8146","6","23.22"," ,0","58.9"," ,0","43.9","0","54.6","0","33.1","0"
"USC00392647","ELM SPRINGS 3 ESE, SD US","44.3186","-102.4683","806.2","2009","472",,"       60",,"        17","0","-15","0,0127, ","10"," ,0,1231,+","6.0"," ,0,0324, ","1.85"," ,0,0324, ","96","0,0803,+",,,"20.68"," ,0","47.9"," ,0","44.5","0","56.6","0","32.3","0"
"USW00014944","SIOUX FALLS FOSS FIELD, SD US","43.5778","-96.7539","435.3","2009","458",,"       73",,"        17","0","-26","0,0115, ","19"," ,0,1228,+","10.5"," ,0,1225, ","1.12"," ,0,0707, ","95","0,0519, ","7698","7","23.11"," ,0","50.4"," ,0","45.0","0","55.4","0","34.6","0"
"USC00394268","ISABEL, SD US","45.39533","-101.42919","732.1","2009",,,,,,,,,,,,,,,,,,,,,,,,,,,,
"USW00014946","WATERTOWN REGIONAL AIRPORT, SD US","44.9047","-97.1494","532.8","2009","267",,"      110",,"        22","0","-34","0,0115, ","18"," ,0,1231,+","6.8"," ,0,0226, ","1.47"," ,0,1001, ","94","0,0519, ","9137","9","24.62"," ,0","58.3"," ,0","40.9","0","50.9","0","30.9","0"
"USC00392087","CUSTER, SD US","43.7744","-103.6119","1670.3","2009","146",,"      126",,"        25","0","-17","0,1209, ","10"," ,0,0426, ","11.0"," ,0,0426, ","1.20"," ,0,0426, ","90","0,0823, ",,,"19.96"," ,0","75.7"," ,0","43.1","0","54.8","0","31.5","0"
"US1SDMN0001","FULTON 9.4 N, SD US","43.862385","-97.79072","406.0","2009",,,,,,,,,,,,,"1.89"," ,N,0704, ",,,,,"29.46"," ,N",,,,,,,,
"USC00393294","GETTYSBURG, SD US","45.01966","-99.94037","635.5","2009","270",,,,"        23","0","-26","0,0116, ",,,"7.0"," ,0,1226, ","1.40"," ,0,0509, ","93","0,0815,+","8851","3","20.18"," ,0","67.1"," ,0","41.3","0","52.3","0","30.2","0"
"USC00397052","REDFIELD, SD US","44.8655","-98.5252","399.0","2009","355",,"      109",,"        19","0","-29","0,0116,+","21"," ,0,1227, ","12.0"," ,0,0331, ","1.50"," ,0,0911, ","99","0,0520, ","8677","8","24.13"," ,0","69.8"," ,0","42.0","0","53.2","0","30.9","0"
"USC00399355","WINFRED 2 S, SD US","43.97078","-97.349","519.7","2009",,,,,"        16","0",,,,,"7.0"," ,0,0405, ","1.40"," ,0,0903, ",,,,,"29.45"," ,0","43.5"," ,0",,,,,,
"US1SDFR0009","OELRICHS 7.4 SW, SD US","43.093001","-103.316238","1079.9","2009",,,,,,,,,,,,,"1.15"," ,N,0614, ",,,,,"17.92"," ,N",,,,,,,,
"USC00393608","HARROLD 12 SSW, SD US","44.3628","-99.8034","518.5","2009",,,,,"        13","0",,,,,"9.0"," ,0,0331, ","1.95"," ,0,0816, ",,,,,"18.61"," ,0","40.6"," ,0",,,,,,
"USC00392636","ELM LAKE 4 NW, SD US","45.93199","-98.76479","472.4","2009",,,,,"        22","0",,,,,"15.0"," ,0,0226, ","1.34"," ,0,0815, ",,,,,"26.67"," ,0","85.1"," ,0",,,,,,
"USC00395228","MARION, SD US","43.42089","-97.25389","439.5","2009",,,,,"        13","0",,,,,"15.9"," ,0,1226, ","1.52"," ,0,0903, ",,,,,"24.69"," ,0","51.0"," ,0",,,,,,
"USR0000SFOP","FORT PIERRE SOUTH DAKOTA, SD US","44.1153","-100.3014","693.1","2009","561",,,,,,"-13","U,0115, ",,,,,,,"97","U,0802,+","7220","0",,,,,"45.6","U","56.4","U","34.8","U"
"USC00394254","IROQUOIS, SD US","44.3647","-97.8486","426.7","2009",,,"      100",,"        15","0",,,"16"," ,0,1231,+","6.5"," ,0,0331, ","1.58"," ,0,0608, ",,,,,"25.02"," ,0","42.4"," ,0",,,,,,
"USC00394490","KELDRON 8 SSW, SD US","45.8361","-101.8665","723.6","2009",,,,,"        26","0",,,,,"14.0"," ,0,0226, ","1.78"," ,0,0709, ",,,,,"22.89"," ,0","105.1"," ,0",,,,,,
"USC00397062","REDIG 11 NE, SD US","45.3767","-103.3675","935.7","2009",,,,,,,,,,,,,,,,,"8212","1",,,,,,,,,,
"US1SDBK0002","ASTORIA 2.2 SSE, SD US","44.53093333","-96.52268333","559.9","2009",,,,,,,,,,,,,"1.51"," ,N,0708, ",,,,,"28.75"," ,N",,,,,,,,
"USC00399004","WEBSTER, SD US","45.333","-97.5227","567.2","2009","328",,,,"        21","0","-32","0,0115, ",,,"10.0"," ,0,0331,+","4.40"," ,0,0818, ","94","0,0519, ","8884","6","30.01"," ,0","69.4"," ,0","41.1","0","50.1","0","32.2","0"
"USC00399367","WINNER, SD US","43.3686","-99.8402","614.5","2009","549",,,,"        18","0","-22","0,0117,+",,,"12.5"," ,0,0405, ","2.39"," ,0,0806, ","97","0,0803, ","6972","4","23.15"," ,0","65.5"," ,0","46.6","0","58.4","0","34.9","0"
"USC00397742","SISSETON, SD US","45.66565","-97.03933","368.5","2009","373",,"      109",,"        13","0","-28","0,0115, ","25"," ,0,1231,+","13.9"," ,0,1225, ","2.79"," ,0,0807, ","95","0,0519, ","8829","0","27.60"," ,0","72.2"," ,0","41.9","0","51.6","0","32.2","0"
"US1SDHK0005","PHILIP 20.7 NW, SD US","44.283731","-101.908824","772.1","2009",,,,,,,,,,,,,,,,,,,"22.56"," ,N",,,,,,,,
"USC00391539","CEDAR BUTTE, SD US","43.5771","-101.019","717.8","2009","592",,"       50",,"        18","0","-12","0,0115, ","16"," ,0,1229,+","12.0"," ,0,0405, ","1.38"," ,0,0713, ","100","0,0520, ","7117","9","20.50"," ,0","61.6"," ,0","46.4","0","58.6","0","34.1","0"
"USR0000SELK","WICA ELK MOUNTAIN SOUTH DAKOTA, SD US","43.5608","-103.4914","1252.7","2009","488",,,,,,"-11","U,1209, ",,,,,,,"96","U,0813, ","6630","6",,,,,"47.0","U","58.0","U","36.1","U"
"USC00391777","CLEAR LAKE, SD US","44.7574","-96.68314","552.3","2009","267",,,,"        21","0","-26","0,0115, ",,,"10.0"," ,0,1225, ","3.10"," ,0,0323, ","96","0,0520, ","8870","9","32.76"," ,0","65.4"," ,0","41.0","0","50.7","0","31.3","0"
"USC00394007","HOT SPRINGS, SD US","43.4377","-103.4738","1085.1","2009","457",,"       54",,"        27","0","-17","0,1225, ","8"," ,0,0404,+","8.0"," ,0,0404, ","1.76"," ,0,0614, ","96","0,0814, ","6731","3","20.77"," ,0","69.6"," ,0","47.3","0","61.8","0","32.8","0"
"USC00393832","HIGHMORE 1 W, SD US","44.5222","-99.455","575.5","2009","498",,,,"        13","0","-29","0,0115, ",,,"14.5"," ,0,0331, ","2.00"," ,0,0713, ","96","0,0519, ",,,"27.21"," ,0","48.5"," ,0","44.1","0","55.7","0","32.4","0"
"USC00396427","PACTOLA DAM, SD US","44.0622","-103.4819","1438.7","2009","30",,"       96",,"        24","0","-17","0,0127, ","12"," ,0,0405, ","8.0"," ,0,1005, ","2.02"," ,0,0703, ","89","0,0626,+",,,"22.18"," ,0","92.8"," ,0","39.5","0","52.4","0","26.5","0"
"USC00396669","PLATTE, SD US","43.38903","-98.84131","490.4","2009",,,"       39",,"        16","0",,,"12"," ,0,1226, ","7.0"," ,0,1226, ","1.46"," ,0,0627, ",,,,,"24.18"," ,0","50.0"," ,0",,,,,,
"USC00396304","ORAL, SD US","43.4033","-103.2683","902.2","2009","417",,"       52",,"        24","0","-19","0,1225,+","11"," ,0,1227,+","11.0"," ,0,0324, ","1.31"," ,0,0614, ","99","0,0803,+","7313","7","20.29"," ,0","60.6"," ,0","45.8","0","60.4","0","31.3","0"
"USC00395456","MELLETTE 4 W, SD US","45.155","-98.5826","395.0","2009","264",,,,"        22","0","-32","0,0116,+",,,"8.0"," ,0,0331, ","3.05"," ,0,0714, ","96","0,0520, ","9153","2","25.93"," ,0","55.9"," ,0","40.9","0","52.1","0","29.7","0"
"US1SDBK0007","BROOKINGS 0.2 SSW, SD US","44.303888","-96.787839","502.9","2009",,,,,,,,,,,,,"1.41"," ,N,1002, ",,,,,"23.47"," ,N",,,,,,,,
"US1SDBK0009","BRUCE 4.1 NE, SD US","44.48479","-96.83752","519.1","2009",,,,,,,,,,,,,"1.21"," ,N,1002, ",,,,,"22.62"," ,N",,,,,,,,
"USC00395691","MOBRIDGE 2 NNW, SD US","45.5655","-100.4488","516.0","2009","415",,"       78",,"        14","0","-31","0,0115, ","15"," ,0,1226, ","13.1"," ,0,0226, ","1.52"," ,0,0714, ","96","0,0723, ",,,"17.37"," ,0","60.4"," ,0","42.1","0","52.4","0","31.8","0"
"USC00397073","RED OWL, SD US","44.6981","-102.5608","845.2","2009","238",,,,"        20","0","-17","0,0311, ",,,"16.7"," ,0,1226, ","2.14"," ,0,0324, ","95","0,0824, ","8237","2","21.96"," ,0","80.2"," ,0","42.2","0","54.2","0","30.2","0"
