"STATION","NAME","LATITUDE","LONGITUDE","ELEVATION","DATE","CDSD","CDSD_ATTRIBUTES","DSND","DSND_ATTRIBUTES","DSNW","DSNW_ATTRIBUTES","EMNT","EMNT_ATTRIBUTES","EMSD","EMSD_ATTRIBUTES","EMSN","EMSN_ATTRIBUTES","EMXP","EMXP_ATTRIBUTES","EMXT","EMXT_ATTRIBUTES","HDSD","HDSD_ATTRIBUTES","PRCP","PRCP_ATTRIBUTES","SNOW","SNOW_ATTRIBUTES","TAVG","TAVG_ATTRIBUTES","TMAX","TMAX_ATTRIBUTES","TMIN","TMIN_ATTRIBUTES"
"US1TNLC0006","FAYETTEVILLE 7.9 WNW, TN US","35.202825","-86.777736","224.9","2008",,,,,,,,,,,,,"3.24"," ,N,1210, ",,,,,"51.93"," ,N",,,,,,,,
"USC00406271","MORRISTOWN RADIO WCRK, TN US","36.2067","-83.3325","409.7","2008",,,,,"         0","0",,,,,"0.5"," ,0,0227, ","2.38"," ,0,0909, ","95","0,0606, ",,,"40.24"," ,0","0.8"," ,0",,,"69.0","0",,
"USC00408450","SOMERVILLE 10 N, TN US","35.3884","-89.3717","112.8","2008",,,"        1",,"         1","0",,,"2"," ,0,0308, ","1.7"," ,0,0308, ","4.00"," ,0,1210, ",,,,,"58.64"," ,0","1.8"," ,0",,,,,,
"US1TNLC0007","FAYETTEVILLE 8.6 SSW, TN US","35.028635","-86.597468","268.8","2008",,,,,,,,,,,,,,,,,,,"52.51"," ,N",,,,,,,,
"US1TNMA0003","JASPER 1.7 N, TN US","35.0841","-85.6289","199.0","2008",,,,,,,,,,,,,,,,,,,"52.61"," ,N",,,,,,,,
"US1TNMT0041","CLARKSVILLE 3.3 SSE, TN US","36.516009","-87.327041","164.9","2008",,,,,,,,,,,,,"3.50"," ,N,0404, ",,,,,"56.71"," ,N",,,,,,,,
"USC00406272","MORRISTOWN WEATHER FORECAST OFFICE, TN US","36.1682","-83.4027","402.3","2008","1210",,"        0",,"         1","0","9","0,1222,+","0","T,0,0308,+","1.4"," ,0,0308, ","1.51"," ,0,0826, ","92","0,0805,+","3654","3","37.26"," ,0","5.3"," ,0","57.2","0","67.0","0","47.5","0"
"US1TNMA0005","WHITWELL 0.4 NNE, TN US","35.206334","-85.514757","216.1","2008",,,,,,,,,,,,,"3.20"," ,N,1210, ",,,,,"57.13"," ,N",,,,,,,,
"USC00404771","KENTON, TN US","36.1946","-89.0117","93.0","2008",,,"        0",,"         0","0",,,"0"," ,0,1231,+","0.0"," ,0,1231,+","3.90"," ,0,0304, ",,,,,"52.30"," ,0","0.0"," ,0",,,,,,
"USC00407369","PORT ROYAL, TN US","36.5342","-87.2195","155.4","2008",,,"        3",,"         1","0",,,"3"," ,0,0308, ","3.0"," ,0,0308, ","3.51"," ,0,0404, ",,,,,"47.78"," ,0","4.3"," ,0",,,,,,
"US1TNRB0001","RIDGETOP 3.8 SW, TN US","36.365004","-86.828682","263.0","2008",,,,,,,,,,,,,"3.02"," ,N,1210, ",,,,,"54.27"," ,N",,,,,,,,
"US1TNLC0002","FAYETTEVILLE 6.1 NNW, TN US","35.23155","-86.60602","247.2","2008",,,,,,,,,,,,,"3.26"," ,N,1210, ",,,,,"55.53"," ,N",,,,,,,,
"US1TNML0006","LEWISBURG 5.1 SW, TN US","35.3887","-86.8439","285.0","2008",,,,,,,,,,,,,"3.07"," ,N,1210, ",,,,,"49.48"," ,N",,,,,,,,
"US1TNLC0003","FAYETTEVILLE 5.8 WSW, TN US","35.109","-86.65434","231.6","2008",,,,,,,,,,,,,,,,,,,"47.52"," ,N",,,,,,,,
"USC00406274","MOSCOW, TN US","35.0711","-89.4117","102.1","2008","1805",,"        0",,"         0","0","11","0,1222, ","0"," ,0,1231,+","0.0","T,0,0307, ","3.23"," ,0,1209, ","100","0,0729, ","2850","2","55.80"," ,0","0.0","T,0","60.5","0","71.2","0","49.9","0"
"US1TNLC0005","FAYETTEVILLE 5.9 W, TN US","35.1625","-86.6683","249.9","2008",,,,,,,,,,,,,"3.54"," ,N,1210,+",,,,,"56.11"," ,N",,,,,,,,
"USC00405187","LEWISBURG EXPERIMENTAL STATION, TN US","35.414","-86.8086","239.9","2008","1321",,,,,,"5","0,0104, ",,,,,"2.90"," ,0,1210, ","99","0,0722, ","3817","6","48.81"," ,0",,,"57.1","0","70.3","0","44.0","0"
"USC00402589","DOVER 1 W, TN US","36.48194","-87.86278","144.8","2008",,,"        1",,"         1","0",,,"5"," ,0,0308, ","5.0"," ,0,0308, ","4.06"," ,0,0404, ",,,,,"52.43"," ,0","5.0"," ,0",,,,,,
"USC00403679","GREENEVILLE EXPERIMENTAL STATION, TN US","36.1056","-82.8436","402.3","2008","1077",,,,,,"9","0,0121,+",,,,,,,"95","0,0806,+",,,,,,,"56.2","0","69.3","0","43.1","0"
"USW00013882","CHATTANOOGA AIRPORT, TN US","35.03362","-85.20044","204.2","2008","1815",,"        0",,"         1","0","14","0,1222,+","0"," ,0,1231,+","1.6"," ,0,0116, ","3.28"," ,0,0826, ","100","0,0721, ","2912","8","47.35"," ,0","2.2"," ,0","61.1","0","71.9","0","50.2","0"
"US1TNML0004","LEWISBURG 6.2 SSE, TN US","35.369576","-86.731447","289.9","2008",,,,,,,,,,,,,"3.41"," ,N,0826, ",,,,,"48.69"," ,N",,,,,,,,
"USC00402108","COVINGTON 3 SW, TN US","35.5497","-89.7","117.3","2008","1503",,"        3",,"         1","0","10","0,1224,+","2"," ,0,0308, ","2.0"," ,0,0308, ","2.95"," ,0,0304, ","99","0,0730, ","3708","2","54.04"," ,0","2.0"," ,0","58.1","0","68.6","0","47.6","0"
"USC00400049","ALAMO 1 N, TN US","35.7977","-89.1176","100.6","2008","1620",,"        2",,"         1","0","10","0,1222, ","3"," ,0,0308, ","3.0"," ,0,0308, ","3.14"," ,0,1210, ","97","0,0730,+","3518","5","50.25"," ,0","3.0"," ,0","58.7","0","68.8","0","48.5","0"
"US1TNML0001","LEWISBURG 1.6 W, TN US","35.445941","-86.817124","246.0","2008",,,,,,,,,,,,,,,,,,,"51.68"," ,N",,,,,,,,
"USC00406829","ONEIDA, TN US","36.5027","-84.5308","438.9","2008","733",,,,,,"5","0,1222,+",,,,,,,"91","0,0822,+","4132","5",,,,,"53.7","0","66.3","0","41.2","0"
"US1TNBL0002","PIKEVILLE 7.5 SW, TN US","35.54419","-85.30465","637.0","2008",,,,,"         3","N",,,,,"2.5"," ,N,0227, ","3.56"," ,N,1210, ",,,,,"55.72"," ,N","6.6"," ,N",,,,,,
"USC00407359","PORTLAND SEWAGE PLANT, TN US","36.5877","-86.5258","242.0","2008",,,"        7",,"         2","0",,,"3"," ,0,0308, ","3.0"," ,0,0308, ","3.00"," ,0,0404, ",,,,,"55.44"," ,0","5.4"," ,0",,,,,,
"US1TNLC0011","ARDMORE 10.8 E, TN US","35.012355","-86.666785","278.0","2008",,,,,,,,,,,,,"4.68"," ,N,1210, ",,,,,"53.14"," ,N",,,,,,,,
"USC00408445","SODDY DAISY MOWBRAY MOUNTAIN, TN US","35.2802","-85.2414","518.2","2008","862",,,,"         2","0","6","0,0120, ",,,"2.0"," ,0,0117, ","10.15"," ,0,0827, ","95","0,0722, ","3801","8","59.78"," ,0","3.9"," ,0","54.9","0","65.5","0","44.3","0"
"USC00408562","SPRINGFIELD EXPERIMENTAL STATION, TN US","36.471","-86.8415","227.1","2008","1360",,,,,,"6","0,1222, ",,,,,"3.35"," ,0,0404, ","97","0,0722,+","3957","1","52.72"," ,0",,,"57.2","0","67.8","0","46.6","0"
"USR0000TLEW","LEWISBURG TOWER TENNESSEE, TN US","35.3817","-86.7658","350.5","2008","1622",,,,,,"8","U,1222, ",,,,,,,"98","U,0721, ","3255","5",,,,,"59.3","U","68.4","U","50.1","U"
"USC00400284","ATHENS, TN US","35.4322","-84.5833","286.5","2008","1374",,"        0",,"         0","0","11","0,0120,+","0","T,0,1202, ","0.0","T,0,1202, ","2.32"," ,0,0827, ","96","0,0806,+","3494","1","50.63"," ,0","0.0","T,0","58.2","0","70.1","0","46.3","0"
"USW00013893","MEMPHIS INTERNATIONAL AIRPORT, TN US","35.0564","-89.9865","77.4","2008","2171",,"        1",,"         2","0","14","0,1222, ","5"," ,0,0308, ","4.0"," ,0,0307, ","3.48"," ,0,1209, ","101","0,0729, ","2801","3","64.24"," ,0","5.4"," ,0","62.4","0","72.0","0","52.9","0"
"USW00013891","KNOXVILLE AIRPORT, TN US","35.8181","-83.9858","293.2","2008","1530",,"        0",,"         0","0","12","0,1222,+","0"," ,0,1231,+","0.0","T,0,1223,+","2.30"," ,0,0713, ","95","0,0721, ","3424","3","47.78"," ,0","0.0","T,0","58.9","0","69.5","0","48.3","0"
"US1TNMT0039","CLARKSVILLE 11.6 SE, TN US","36.437313","-87.206432","185.0","2008",,,,,,,,,,,,,,,,,,,"46.91"," ,N",,,,,,,,
"USC00404876","KINGSTON SPRINGS, TN US","36.10333","-87.11528","157.6","2008","1446",,"        3",,"         0","0","8","0,1222, ","1"," ,0,0228,+","0.4"," ,0,0214, ","3.30"," ,0,1210, ","100","0,0805, ","3413","3","48.59"," ,0","0.7"," ,0","58.4","0","71.0","0","45.8","0"
"USW00013897","NASHVILLE INTERNATIONAL AIRPORT, TN US","36.11889","-86.68917","182.9","2008","1730",,"        2",,"         1","0","9","0,1222, ","1"," ,0,1212,+","1.0"," ,0,1211, ","2.78"," ,0,1209, ","97","0,0805,+","3397","3","48.19"," ,0","3.0"," ,0","59.4","0","69.8","0","49.0","0"
"USC00401808","CLEVELAND FILTER PLANT, TN US","35.2191","-84.7916","256.6","2008","1421",,"        0",,"         1","0","11","0,0103, ","0"," ,0,1231,+","1.0"," ,0,0116, ","3.03"," ,0,0826, ","98","0,0721, ","3528","0","46.98"," ,0","1.0"," ,0","58.5","0","70.3","0","46.7","0"
"US1TNMT0034","CLARKSVILLE 5.4 SE, TN US","36.496362","-87.292678","135.9","2008",,,,,,,,,,,,,"3.78"," ,N,0404, ",,,,,"52.20"," ,N",,,,,,,,
"USC00407141","PICKETT STATE PARK, TN US","36.5514","-84.7968","495.3","2008",,,"        4",,"         4","0",,,"4"," ,0,0308, ","3.6"," ,0,0308, ",,,,,,,"45.39"," ,0","10.0"," ,0",,,,,,
"US1TNCM0003","CROSSVILLE 8.4 S, TN US","35.831423","-85.019117","572.1","2008",,,,,,,,,,,,,"3.69"," ,N,1210, ",,,,,"52.03"," ,N",,,,,,,,
"US1TNLR0009","LAWRENCEBURG 8.8 SE, TN US","35.254555","-87.38446","274.9","2008",,,,,,,,,,,,,,,,,,,"52.29"," ,N",,,,,,,,
"USC00406292","MOUNTAIN CITY 2, TN US","36.474","-81.8033","737.3","2008",,,,,"         4","0",,,,,"2.0"," ,0,0228,+","1.72"," ,0,0827, ","91","0,0607, ",,,"35.48"," ,0","7.8"," ,0",,,"65.6","0",,
"US1TNLR0007","LORETTO 5.2 NE, TN US","35.139167","-87.378556","281.0","2008",,,,,,,,,,,,,"3.65"," ,N,1210, ",,,,,"56.13"," ,N",,,,,,,,
"US1TNOV0004","LIVINGSTON 1.9 NNW, TN US","36.413209","-85.343778","427.0","2008",,,,,,,,,,,,,"2.29"," ,N,1210, ",,,,,"44.82"," ,N",,,,,,,,
"USC00406170","MONTEREY, TN US","36.1482","-85.2649","566.9","2008","893",,"        9",,"         6","0","2","0,1223,+","2"," ,0,1212,+","2.0"," ,0,1212,+","2.59"," ,0,1210, ","90","0,0722,+","4371","4","48.85"," ,0","10.2"," ,0","54.2","0","64.1","0","44.4","0"
"US1TNCM0009","CROSSVILLE 6.9 S, TN US","35.852646","-85.052635","568.1","2008",,,,,,,,,,,,,,,,,,,"50.90"," ,N",,,,,,,,
"US1TNHD0003","SCOTTS HILL 2.8 NNW, TN US","35.553558","-88.26697","142.0","2008",,,,,,,,,,,,,"3.87"," ,N,1210, ",,,,,"56.59"," ,N",,,,,,,,
"USC00405882","MC MINNVILLE, TN US","35.6723","-85.781","286.5","2008",,,"        1",,"         1","0",,,"1"," ,0,0308, ","1.0"," ,0,0308, ","3.54"," ,0,1210, ",,,,,"39.43"," ,0","2.0"," ,0",,,,,,
"USC00403465","GLADEVILLE, TN US","36.065","-86.4175","182.9","2008",,,"        0",,"         0","0",,,"0"," ,0,1231,+","0.0"," ,0,1231,+","2.20"," ,0,0527, ",,,,,"45.34"," ,0","0.0"," ,0",,,,,,
"USC00405089","LAWRENCEBURG FILTER PLANT, TN US","35.2436","-87.3508","265.2","2008","1300",,"        0",,"         0","0","9","0,0102, ","0","T,0,0226, ","0.0","T,0,0226, ",,,"99","0,0805,+","3438","3",,,"0.0","T,0","57.6","0","69.6","0","45.6","0"
"USC00401950","COLLIERVILLE, TN US","35.0781","-89.6653","91.4","2008","1716",,"        1",,"         1","0","12","0,1223,+","3"," ,0,0308, ","3.0"," ,0,0308, ","4.17"," ,0,1210, ","102","0,0730, ","3240","1","60.73"," ,0","3.0"," ,0","59.7","0","70.7","0","48.7","0"
"USC00402489","DICKSON, TN US","36.0749","-87.3959","237.7","2008",,,"        3",,"         1","0",,,"2"," ,0,0308, ","1.0"," ,0,0116, ","2.50"," ,0,0319, ","97","0,0805,+",,,"51.72"," ,0","1.4"," ,0",,,"69.2","0",,
"USC00402009","COOKEVILLE, TN US","36.1075","-85.5033","332.2","2008","1079",,"        3",,"         3","0","8","0,1223,+","4"," ,0,0227, ","4.0"," ,0,0227, ","2.73"," ,0,1210, ","94","0,0805, ","3920","0","48.04"," ,0","7.5"," ,0","56.2","0","68.2","0","44.2","0"
"USC00408108","SAVANNAH 6 SW, TN US","35.1524","-88.3213","128.0","2008","1690",,"        2",,"         1","0","10","0,1222,+","6"," ,0,0308, ","6.3"," ,0,0308, ","3.00"," ,0,1210, ","98","0,0803,+","3088","4","60.03"," ,0","6.3"," ,0","60.1","0","72.3","0","48.0","0"
"USC00401039","BRENTWOOD, TN US","35.9902","-86.7786","215.5","2008",,,"        2",,"         0","0",,,"2"," ,0,0308, ","0.5"," ,0,0301,+",,,,,,,"51.91"," ,0","3.5"," ,0",,,,,,
"USC00402806","ELIZABETHTON, TN US","36.354","-82.2486","453.2","2008",,,,,,,,,,,,,,,,,,,,,,,,,,,,
"USC00401957","COLUMBIA 3 WNW, TN US","35.6381","-87.0864","198.1","2008","1397",,"        1",,"         0","0","8","0,0104, ","1"," ,0,0117, ","0.1"," ,0,0117, ","3.30"," ,0,1008, ","98","0,0806,+","3745","7","48.44"," ,0","0.1"," ,0","57.6","0","69.9","0","45.3","0"
"USW00003841","OAK RIDGE ATDD, TN US","35.998","-84.2192","310.6","2008","1376",,"        0",,"         0","0","11","0,0103, ","0","T,0,0227, ","0.0","T,0,0324,+","2.66"," ,0,0110, ","95","0,0721, ","3498","5","50.88"," ,0","0.0","T,0","58.2","0","69.5","0","46.9","0"
"US1TNFY0002","OAKLAND 1.3 NE, TN US","35.234334","-89.494929","124.1","2008",,,,,,,,,,,,,"3.58"," ,N,1210, ",,,,,"55.19"," ,N",,,,,,,,
"USC00406162","MONTEAGLE, TN US","35.2243","-85.8414","563.9","2008","917",,"        1",,"         1","0","5","0,1222,+","1"," ,0,1201, ","1.0"," ,0,1201, ","4.18"," ,0,1210, ","93","0,0723,+","3770","3","59.87"," ,0","1.7"," ,0","55.3","0","65.6","0","45.1","0"
"US1TNFK0008","HUNTLAND 0.9 NNW, TN US","35.068117","-86.274533","281.9","2008",,,,,,,,,,,,,"3.65"," ,N,1009, ",,,,,"51.40"," ,N",,,,,,,,
"USW00003847","CROSSVILLE MEMORIAL AIRPORT, TN US","35.9509","-85.0813","569.1","2008","980",,,,,,"5","0,1222,+",,,,,"1.85"," ,0,1211, ","92","0,0804, ","3970","6","47.12"," ,0",,,"55.8","0","65.7","0","45.9","0"
"USC00402360","DAYTON 2 SE, TN US","35.4721","-84.9957","250.5","2008",,,"        1",,"         0","0",,,"1"," ,0,0102, ","0.5"," ,0,0117,+","3.58"," ,0,0827, ","98","0,0722, ",,,"48.66"," ,0","1.0"," ,0",,,"69.4","0",,
"USC00407015","PARSONS WATER PLANT, TN US","35.6082","-88.12","125.0","2008","1490",,"        0",,"         0","0","9","0,0103, ","0"," ,0,1231,+","0.0","T,0,0131,+","4.11"," ,0,0527, ","99","0,0722, ","3236","7","66.87"," ,0","0.0","T,0","58.9","0","71.9","0","46.0","0"
"USR0000TMER","MERIWETHER LEWIS TENNESSEE, TN US","35.3208","-87.4578","262.1","2008","1527",,,,,,"5","U,0103, ",,,,,,,"102","U,0804, ","3415","3",,,,,"58.8","U","71.0","U","46.7","U"
"US1TNLR0010","LAWRENCEBURG 7.0 NW, TN US","35.305335","-87.438331","289.9","2008",,,,,,,,,,,,,"2.93"," ,N,1209, ",,,,,"65.14"," ,N",,,,,,,,
"USC00409434","WARTRACE 6 E, TN US","35.5392","-86.2284","309.1","2008","1082",,"        5",,"         3","0","7","0,1223, ","2"," ,0,0227, ","2.0"," ,0,0227, ","3.05"," ,0,1210, ","92","0,0722, ","3825","2","48.36"," ,0","4.6"," ,0","56.5","0","66.3","0","46.7","0"
"USR0000TCRO","CROSSVILLE AREA OFFICE TENNESS, TN US","35.9178","-84.9972","539.5","2008","770",,,,,,"4","U,0125,+",,,,,,,"97","U,0721, ","4209","1",,,,,"54.3","U","67.6","U","40.9","U"
"US1TNFK0003","WINCHESTER 3.9 W, TN US","35.195933","-86.17635","305.1","2008",,,,,,,,,,,,,"4.44"," ,N,1210, ",,,,,"53.70"," ,N",,,,,,,,
"USC00409431","WARNER PARK, TN US","36.06083","-86.90639","190.5","2008","1268",,"        0",,"         0","0","7","0,0120,+","0","T,0,1212,+","0.2"," ,0,1212, ","3.97"," ,0,1008, ","96","0,0806, ","3593","0","61.59"," ,0","0.3"," ,0","57.3","0","69.4","0","45.2","0"
"USR0000TIND","INDIAN GRAVE TENNESSEE, TN US","35.6236","-83.8083","823.0","2008",,,,,,,,,,,,,,,,,"3312","9",,,,,,,,,,
"USC00404417","HUNTINGDON WATER PLA, TN US","36.0027","-88.4252","134.1","2008","1550",,"        2",,"         1","0","10","0,1223,+","3"," ,0,0308, ","2.5"," ,0,0308, ","3.80"," ,0,1210, ","99","0,0713, ","3654","2","54.70"," ,0","2.7"," ,0","58.3","0","69.5","0","47.0","0"
"USC00401145","BROWNSVILLE, TN US","35.5894","-89.2586","100.6","2008","1799",,"        2",,"         1","0","11","0,1221, ","2"," ,0,0307, ","2.0"," ,0,0307, ","3.52"," ,0,1209, ","100","0,0729, ","3343","0","57.09"," ,0","2.0"," ,0","60.0","0","70.5","0","49.4","0"
"US1TNML0010","CORNERSVILLE 3.6 SE, TN US","35.3231","-86.7936","262.1","2008",,,,,,,,,,,,,"3.37"," ,N,0826, ",,,,,"54.87"," ,N",,,,,,,,
"USC00403447","GERMANTOWN 4 SE, TN US","35.0761","-89.743","97.5","2008","1917",,"        1",,"         1","0","12","0,1222, ","4"," ,0,0308, ","4.0"," ,0,0308, ","3.39"," ,0,1210, ","100","0,0722,+","3125","1","56.63"," ,0","4.0"," ,0","60.7","0","71.9","0","49.5","0"
"USW00013877","BRISTOL AIRPORT, TN US","36.47967","-82.39898","456.3","2008","962",,"        5",,"         2","0","8","0,0103, ","2"," ,0,0117, ","2.5"," ,0,0117, ","1.72"," ,0,0110, ","95","0,0606, ","4060","5","35.25"," ,0","8.6"," ,0","55.6","0","67.7","0","43.5","0"
"USR0000TMEI","MEIGS EOC TENNESSEE, TN US","35.5208","-84.7931","231.6","2008","1372",,,,,,"8","U,0103, ",,,,,,,"98","U,0806,+","3528","2",,,,,"58.1","U","70.8","U","45.5","U"
"USC00407808","ROCK ISLAND STATE PARK, TN US","35.80917","-85.64167","268.2","2008",,,"        3",,"         1","0",,,"1"," ,0,0324,+","1.5"," ,0,0324, ","2.86"," ,0,1210, ",,,,,"47.72"," ,0","3.5"," ,0",,,,,,
"US1TNKX0003","KNOXVILLE 6.2 SSW, TN US","35.8875","-83.9755","282.2","2008",,,,,,,,,,,,,"1.91"," ,N,1212, ",,,,,"51.22"," ,N",,,,,,,,
"US1TNJF0001","MASCOT 4.5 E, TN US","36.076783","-83.68575","296.6","2008",,,,,,,,,,,,,"2.26"," ,N,0706, ",,,,,"40.39"," ,N",,,,,,,,
"US1TNJF0004","WHITE PINE 2.0 NE, TN US","36.11917","-83.26939","377.6","2008",,,,,,,,,,,,,"2.64"," ,N,0528, ",,,,,"36.80"," ,N",,,,,,,,
"USC00409065","TOWNSEND 5 S, TN US","35.603","-83.7767","577.0","2008",,,"        5",,"         2","0",,,"4"," ,0,0227, ","4.0"," ,0,0227, ","2.02"," ,0,0111, ","89","0,0607, ",,,"55.49"," ,0","6.9"," ,0",,,"66.0","0",,
"US1TNSR0032","WESTMORELAND 5.4 NNE, TN US","36.6368","-86.2125","252.1","2008",,,,,"         4","N",,,,,"2.1"," ,N,0308, ","4.74"," ,N,0710, ",,,,,"58.68"," ,N","7.4"," ,N",,,,,,
"US1TNWL0037","FRANKLIN 8.1 SSW, TN US","35.827859","-86.914007","228.9","2008",,,,,,,,,,,,,"3.91"," ,N,1008, ",,,,,"49.93"," ,N",,,,,,,,
"USC00408414","SMYRNA 6 S, TN US","35.9106","-86.5578","167.6","2008",,,"        1",,"         1","0",,,"1"," ,0,1212, ","1.0"," ,0,1212, ","3.70"," ,0,0826, ",,,,,"50.68"," ,0","1.7"," ,0",,,,,,
"US1TNGL0006","PULASKI 4.9 ENE, TN US","35.212746","-86.950438","263.0","2008",,,,,,,,,,,,,"3.32"," ,N,1210, ",,,,,"52.86"," ,N",,,,,,,,
"US1TNWL0038","BRENTWOOD 2.7 SSE, TN US","35.9591","-86.7729","220.1","2008",,,,,,,,,,,,,,,,,,,"62.27"," ,N",,,,,,,,
"USC00409866","WOODBURY 1 WNW, TN US","35.8375","-86.0894","228.6","2008","1332",,,,"         1","0","6","0,0104, ",,,"1.9"," ,0,0308, ","2.79"," ,0,1210, ","101","0,0610, ","3386","3","42.63"," ,0","1.9"," ,0","58.0","0","72.0","0","44.0","0"
"US1TNMD0010","GADSDEN 4.9 SSE, TN US","35.71081","-88.959046","120.1","2008",,,,,,,,,,,,,"4.36"," ,N,1210, ",,,,,"54.23"," ,N",,,,,,,,
"USC00409502","WAYNESBORO, TN US","35.3041","-87.7591","228.6","2008","1178",,"        0",,"         1","0","7","0,0103, ","0"," ,0,1231,+","1.0"," ,0,0308, ","2.75"," ,0,1008, ","97","0,0805,+","3636","2","52.46"," ,0","1.5"," ,0","56.8","0","70.0","0","43.7","0"
"US1TNMD0016","JACKSON 3.6 S, TN US","35.58201","-88.82788","119.8","2008",,,,,,,,,,,,,"4.13"," ,N,1210, ",,,,,"59.58"," ,N",,,,,,,,
"US1TNWL0034","FAIRVIEW 3.8 SW, TN US","35.939694","-87.171821","264.9","2008",,,,,,,,,,,,,,,,,,,"54.63"," ,N",,,,,,,,
"US1TNGL0001","LYNNVILLE 6.6 NW, TN US","35.438601","-87.095841","305.7","2008",,,,,,,,,,,,,"4.10"," ,N,0706, ",,,,,"59.46"," ,N",,,,,,,,
"USC00403636","GOODLETTSVILLE 7 WNW, TN US","36.34083","-86.8275","249.9","2008",,,,,"         2","0",,,,,"4.0"," ,0,0308, ","3.06"," ,0,1210, ",,,,,"57.16"," ,0","6.5"," ,0",,,,,,
"US1TNBR0004","CLEVELAND 3.0 ESE, TN US","35.157934","-84.820401","298.1","2008",,,,,,,,,,,,,"2.50"," ,N,0827, ",,,,,"45.58"," ,N",,,,,,,,
"USC00408405","SMITHVILLE 2 SE, TN US","35.94194","-85.78917","271.3","2008","1068",,"        3",,"         2","0","7","0,1223,+","2"," ,0,0308, ","1.5"," ,0,0308, ","2.90"," ,0,1210, ","95","0,0806,+","4019","9","44.04"," ,0","3.0"," ,0","56.0","0","68.6","0","43.4","0"
"US1TNSH0003","BARTLETT 0.8 ESE, TN US","35.211","-89.823","93.9","2008",,,,,,,,,,,,,"3.75"," ,N,1210, ",,,,,"61.85"," ,N",,,,,,,,
"USW00053868","OAK RIDGE ASOS, TN US","36.023","-84.2337","274.3","2008","1496",,,,,,"12","0,1222,+",,,,,"2.32"," ,0,0110, ","97","0,0721, ","3458","3","46.46"," ,0",,,"58.7","0","69.5","0","47.8","0"
"USC00408522","SPARTA WASTEWATER PLANT, TN US","35.9067","-85.4751","275.8","2008",,,"        2",,"         2","0",,,"1"," ,0,0308,+","3.5"," ,0,0308, ",,,,,"3274","7","44.04"," ,0","7.0"," ,0",,,,,,
"USC00408886","TELLICO PLAINS, TN US","35.3696","-84.2999","277.4","2008",,,,,,,,,,,,,"1.92"," ,0,0427, ","98","0,0721, ",,,"46.70"," ,0",,,,,"71.5","0",,
"USC00403074","FAYETTEVILLE WATER PLANT, TN US","35.1342","-86.5419","226.2","2008","1589",,"        0",,"         0","0","8","0,0103, ","0"," ,0,1231,+","0.0","T,0,1201, ","4.53"," ,0,1210, ","99","0,0721, ","3055","1","53.16"," ,0","0.0","T,0","60.0","0","71.9","0","48.1","0"
"USC00406340","MOUNT PLEASANT 1 N, TN US","35.55722","-87.20194","237.1","2008","1477",,"        3",,"         2","0","9","0,0103, ","2"," ,0,1212,+","2.5"," ,0,1212, ","3.76"," ,0,0826, ","100","0,0806, ","3478","4","47.70"," ,0","4.2"," ,0","58.5","0","70.2","0","46.8","0"
"US1TNVB0001","SPENCER 4.4 NW, TN US","35.788315","-85.509983","385.0","2008",,,,,,,,,,,,,"2.00"," ,N,1115, ",,,,,"47.38"," ,N",,,,,,,,
"US1TNDY0001","NEWBERN 6.5 SE, TN US","36.038085","-89.203204","85.0","2008",,,,,,,,,,,,,"3.49"," ,N,0304, ",,,,,"53.65"," ,N",,,,,,,,
"US1TNDK0001","SMITHVILLE 4.9 WSW, TN US","35.930226","-85.902491","331.0","2008",,,,,,,,,,,,,"2.71"," ,N,1210, ",,,,,"49.80"," ,N",,,,,,,,
"USC00406493","NEWCOMB, TN US","36.5516","-84.1728","309.1","2008","992",,,,,,"8","0,0126,+",,,,,"2.23"," ,0,1210, ","95","0,0722, ","4166","7","42.87"," ,0",,,"55.5","0","68.2","0","42.8","0"
"USC00405040","LANCING 6 NW, TN US","36.15","-84.7283","463.3","2008",,,,,,,,,,,,,,,,,,,,,"2.1"," ,0",,,,,,
"USC00406371","MURFREESBORO 5 N, TN US","35.9204","-86.3727","163.1","2008","1303",,"        1",,"         2","0","9","0,1222, ","2"," ,0,0308, ","2.0"," ,0,0308, ","2.63"," ,0,1210, ","98","0,0806,+","3657","6","42.40"," ,0","3.0"," ,0","57.7","0","70.4","0","44.9","0"
"US1TNDK0004","ALEXANDRIA 0.5 SW, TN US","36.070831","-86.040022","214.0","2008",,,,,,,,,,,,,"2.79"," ,N,1210, ",,,,,"45.23"," ,N",,,,,,,,
"US1TNDK0003","SILVER POINT 3.0 SSE, TN US","36.051944","-85.722778","304.8","2008",,,,,,,,,,,,,"2.91"," ,N,1210, ",,,,,"45.52"," ,N",,,,,,,,
"US1TNSR0011","HENDERSONVILLE 2.9 NE, TN US","36.31886","-86.561239","148.1","2008",,,,,,,,,,,,,"3.09"," ,N,1210, ",,,,,"50.77"," ,N",,,,,,,,
"USC00401480","CARTHAGE, TN US","36.2455","-85.945","157.0","2008","1388",,"        2",,"         0","0","8","0,1223,+","1"," ,0,0308,+","0.8"," ,0,1212, ","4.09"," ,0,0826, ","97","0,0722, ","3465","2","36.84"," ,0","1.5"," ,0","58.1","0","70.1","0","46.1","0"
"USC00404871","KINGSTON, TN US","35.8572","-84.5281","248.1","2008","1514",,"        0",,"         0","0","11","0,1223,+","0"," ,0,1231,+","0.0"," ,0,1231,+","2.53"," ,0,0827, ","96","0,0806,+","3499","0","52.85"," ,0","0.0"," ,0","58.7","0","69.7","0","47.6","0"
"US1TNDK0006","SILVER POINT 1.3SW, TN US","36.065478","-85.739701","299.9","2008",,,,,,,,,,,,,"2.60"," ,N,1210, ",,,,,"45.19"," ,N",,,,,,,,
"USC00403420","GATLINBURG 2 SW, TN US","35.6878","-83.5373","443.2","2008","858",,"        2",,"         1","0","7","0,0104, ","5"," ,0,0228,+","5.0"," ,0,0227, ","1.64"," ,0,1212, ","93","0,0722,+","3805","2","47.91"," ,0","5.8"," ,0","56.0","0","69.4","0","42.7","0"
"US1TNBN0001","CAMDEN 4.5 NE, TN US","36.106586","-88.044317","149.0","2008",,,,,"         1","N",,,,,"4.0"," ,N,0308, ","5.56"," ,N,0503, ",,,,,"66.88"," ,N","5.1"," ,N",,,,,,
"USC00406374","MURFREESBORO STONES RIVER N.B., TN US","35.88028","-86.435","173.7","2008",,,"        2",,"         1","0",,,"2"," ,0,0308, ","2.0"," ,0,0308, ","3.72"," ,0,1210, ",,,,,"47.94"," ,0","2.0"," ,0",,,,,,
"US1TNWL0012","FOREST HILLS 6.7 WSW, TN US","36.025587","-86.946578","209.1","2008",,,,,,,,,,,,,,,,,,,"51.23"," ,N",,,,,,,,
"USW00003894","CLARKSVILLE OUTLAW AIRPORT, TN US","36.62389","-87.41944","170.7","2008",,,,,,,"7","0,1222, ",,,,,"3.08"," ,0,1209, ",,,,,"45.48"," ,0",,,,,,,"46.3","0"
"US1TNRH0002","DAYTON 1.0 SSE, TN US","35.480157","-85.003637","244.1","2008",,,,,"         0","N",,,,,"0.8"," ,N,0102, ",,,,,,,,,"0.8"," ,N",,,,,,
"USC00406012","MILAN EXPERIMENTAL STATION, TN US","35.9327","-88.7268","126.5","2008","1612",,"        2",,"         1","0","7","0,0104,+","2"," ,0,0308, ","2.0"," ,0,0308, ","4.17"," ,0,1210, ","99","0,0730,+","3658","1","57.63"," ,0","3.0"," ,0","58.5","0","70.8","0","46.3","0"
"USR0000TWES","LENOIR CITY TENNESSEE, TN US","35.84","-84.3308","378.0","2008","1555",,,,,,"9","U,1222, ",,,,,,,"96","U,0721, ","3253","3",,,,,"59.1","U","68.5","U","49.7","U"
"USC00405956","MEMPHIS WEATHER FORECAST OFFICE, TN US","35.1298","-89.8037","94.5","2008","1939",,"        1",,"         1","0","13","0,1223,+","5"," ,0,0308, ","7.2"," ,0,0308, ","3.90"," ,0,1008, ","101","0,0730, ","3192","3","63.92"," ,0","7.2"," ,0","60.7","0","71.7","0","49.7","0"
"USC00406803","OLD HICKORY DAM, TN US","36.29528","-86.65694","140.2","2008",,,"        1",,"         1","0",,,"2"," ,0,0308, ","2.0"," ,0,0308, ","2.95"," ,0,1210, ",,,,,"50.10"," ,0","2.1"," ,0",,,,,,
"US1TNWT0007","SPARTA 4.6 NE, TN US","35.978398","-85.410255","295.0","2008",,,,,,,,,,,,,"2.85"," ,N,1210, ",,,,,"46.67"," ,N",,,,,,,,
"USC00402202","CROSSVILLE EXPERIMENTAL STATION, TN US","36.0148","-85.1313","551.7","2008","838",,"        6",,"         4","0","3","0,0120, ","2"," ,0,1202,+","2.3"," ,0,0227, ",,,"92","0,0806,+","4296","5",,,"9.1"," ,0","54.6","0","65.4","0","43.9","0"
"USC00406806","OLD HICKORY WEATHER FORECAST OFFICE, TN US","36.247","-86.5631","179.8","2008","1478",,"        1",,"         2","0","8","0,1223,+","1"," ,0,0308, ","1.6"," ,0,0228, ","3.24"," ,0,1210, ","96","0,0722, ","3758","8","51.95"," ,0","4.2"," ,0","57.8","0","68.3","0","47.3","0"
"US1TNHW0001","BROWNSVILLE 1.0 SE, TN US","35.584085","-89.242296","106.1","2008",,,,,,,,,,,,,"4.15"," ,N,1210, ",,,,,"56.71"," ,N",,,,,,,,
"USC00407459","PULASKI WATER PLANT, TN US","35.18417","-87.04222","196.3","2008","1319",,"        1",,"         1","0","9","0,0104, ","1"," ,0,0308, ","1.0"," ,0,0308, ","3.40"," ,0,1210, ","100","0,0722, ","3594","7","55.20"," ,0","2.0"," ,0","57.6","0","70.1","0","45.1","0"
"USC00400705","BIG SANDY, TN US","36.235","-88.0908","111.3","2008",,,"        0",,"         1","0","8","0,0103, ","0"," ,0,1231,+","6.0"," ,0,0308, ","2.80"," ,0,1210, ",,,,,"51.51"," ,0","6.0"," ,0",,,,,"46.3","0"
"USC00405278","LINDEN WATER PLANT, TN US","35.6047","-87.8408","153.9","2008",,,,,"         1","0",,,,,"5.0"," ,0,0308, ","3.26"," ,0,1210, ","98","0,0805, ",,,"53.78"," ,0","5.0"," ,0",,,"70.3","0",,
"USC00405035","LANCASTER EDGAR EVINS, TN US","36.0827","-85.826","192.0","2008",,,"        2",,"         2","0",,,"2"," ,0,0308, ","7.5"," ,0,0227, ","2.80"," ,0,1210, ",,,"3358","4","43.03"," ,0","9.3"," ,0",,,,,,
"USC00405158","LENOIR CITY, TN US","35.7875","-84.2622","239.3","2008",,,"        0",,"         0","0",,,"0"," ,0,1231,+","0.0"," ,0,1231,+",,,,,,,,,"0.0"," ,0",,,,,,
"USR0000TBLE","BLEDSOE SF TENNESSEE, TN US","35.6819","-85.2733","542.5","2008",,,,,,,"4","U,0103, ",,,,,,,"95","U,0721, ",,,,,,,"55.2","U","66.8","U","43.7","U"
"USC00401352","CAMDEN, TN US","36.0519","-88.0828","128.9","2008",,,,,,,,,,,,,,,,,,,,,,,,,,,,
"US1TNMD0003","JACKSON 1.4 SW, TN US","35.618089","-88.84577","106.1","2008",,,,,,,,,,,,,,,,,,,"57.12"," ,N",,,,,,,,
"US1TNSM0003","CARTHAGE 4.2 WNW, TN US","36.269665","-86.016882","197.5","2008",,,,,,,,,,,,,"2.62"," ,N,1210, ",,,,,"44.78"," ,N",,,,,,,,
"US1TNCS0003","HENDERSON 1.1 NNW, TN US","35.458124","-88.658324","148.1","2008",,,,,,,,,,,,,"4.56"," ,N,1210, ",,,,,"60.46"," ,N",,,,,,,,
"US1TNWY0006","WAYNESBORO 2.7 ENE, TN US","35.335179","-87.712308","282.9","2008",,,,,,,,,,,,,"2.65"," ,N,1210, ",,,,,"54.06"," ,N",,,,,,,,
"USC00404858","KINGSPORT, TN US","36.5194","-82.5275","391.4","2008",,,"        1",,"         1","0",,,"1"," ,0,1207, ","1.5"," ,0,0117, ",,,,,,,"38.33"," ,0","2.0"," ,0",,,,,,
"US1TNWL0032","FRANKLIN 4.4 S, TN US","35.866818","-86.851401","221.0","2008",,,,,,,,,,,,,"3.17"," ,N,1008, ",,,,,"50.00"," ,N",,,,,,,,
"USC00401585","CENTERVILLE 4 NE, TN US","35.8318","-87.4219","225.6","2008",,,"        2",,"         1","0",,,"3"," ,0,0308, ","3.0"," ,0,0308, ","3.47"," ,0,1210, ",,,,,"58.72"," ,0","4.1"," ,0",,,,,,
"USC00400137","AMES PLANTATION, TN US","35.1131","-89.2122","140.2","2008",,,"        2",,"         1","0",,,"3"," ,0,0308, ","3.0"," ,0,0308, ","4.67"," ,0,1210, ","100","0,0805,+","3265","7","60.35"," ,0","3.0"," ,0",,,"71.7","0",,
"US1TNWY0007","WAYNESBORO 10.0 NE, TN US","35.439792","-87.653962","212.1","2008",,,,,,,,,,,,,"2.59"," ,N,1210, ",,,,,"49.11"," ,N",,,,,,,,
"USC00404613","JEFFERSON CITY, TN US","36.12222","-83.47389","337.7","2008",,,"        0",,"         0","0",,,"0","T,0,0227, ","0.2"," ,0,0227, ","1.77"," ,0,0909, ","95","0,0722, ",,,"38.98"," ,0","0.2"," ,0",,,"68.9","0",,
"USC00403280","FRANKLIN SEWAGE PLANT, TN US","35.9417","-86.8685","199.6","2008","1546",,"        3",,"         2","0","9","0,1223, ","4"," ,0,0308, ","3.5"," ,0,0308, ","3.01"," ,0,1210, ","98","0,0805, ","3352","0","52.02"," ,0","5.1"," ,0","59.0","0","70.3","0","47.7","0"
"US1TNTR0002","HARTSVILLE 5.8 W, TN US","36.393438","-86.263755","184.1","2008",,,,,,,,,,,,,"2.81"," ,N,1008, ",,,,,"49.31"," ,N",,,,,,,,
"USC00406435","NEAPOLIS EXPERIMENTAL STATION, TN US","35.7197","-86.9654","213.4","2008","1400",,"        3",,"         2","0","7","0,0103, ","2"," ,0,0308, ","2.0"," ,0,0308, ","3.45"," ,0,1008, ","97","0,0806, ","3410","5","51.00"," ,0","3.8"," ,0","58.1","0","70.0","0","46.3","0"
"USC00407884","ROGERSVILLE 1 NE, TN US","36.4161","-82.9838","413.0","2008",,,,,"         1","0",,,,,"1.5"," ,0,0117, ","2.06"," ,0,0111, ",,,,,"40.06"," ,0","3.5"," ,0",,,,,,
"USC00403040","FALL CREEK FALLS SP, TN US","35.6391","-85.3586","545.6","2008","777",,"        3",,"         3","0","0","0,0103, ","3"," ,0,0227, ","3.0"," ,0,0227, ","3.07"," ,0,1210, ","94","0,0722, ","3833","4","50.98"," ,0","5.3"," ,0","54.7","0","66.4","0","43.0","0"
"USC00408179","SEVIERVILLE, TN US","35.9296","-83.5983","274.0","2008","1401",,"        0",,"         0","0","11","0,0120,+","0"," ,0,1231,+","0.0"," ,0,1231,+","1.80"," ,0,0111, ","97","0,0722, ","3444","6","41.03"," ,0","0.0"," ,0","58.1","0","70.7","0","45.5","0"
"USW00063855","CROSSVILLE 7 NW, TN US","36.0138","-85.1345","583.1","2008","650",,,,,,"4","R,0103, ",,,,,"3.20"," ,R,0826, ","91","R,0804, ",,,"43.28"," ,R",,,"53.6","R","64.6","R","42.6","R"
"US1TNRD0012","MURFREESBORO 8.7 E, TN US","35.862784","-86.239769","191.1","2008",,,,,,,,,,,,,"2.44"," ,N,1210, ",,,,,"39.96"," ,N",,,,,,,,
"US1TNDV0076","MOUNT JULIET 6.1 SSW, TN US","36.119601","-86.546118","174.0","2008",,,,,,,,,,,,,"2.99"," ,N,1210, ",,,,,"45.93"," ,N",,,,,,,,
"USC00406308","MOUSETAIL LANDING STATE PARK, TN US","35.65583","-88.00639","137.2","2008",,,"        0",,"         0","0",,,"0","T,0,1212,+","0.1"," ,0,0227, ","3.80"," ,0,1210, ",,,"3589","8","59.37"," ,0","0.1"," ,0",,,,,,
"US1TNDV0079","MOUNT JULIET 5.2 SSW, TN US","36.13878","-86.565737","158.5","2008",,,,,,,,,,,,,"3.51"," ,N,1210, ",,,,,"49.65"," ,N",,,,,,,,
"USC00402989","FAIRVIEW BOWIE NAT CTR, TN US","35.96889","-87.13639","262.1","2008","1374",,"        3",,"         3","0","6","0,1223,+","3"," ,0,0308, ","2.9"," ,0,0308, ","3.75"," ,0,1210, ","99","0,0805, ","3746","3","51.23"," ,0","8.8"," ,0","57.6","0","68.8","0","46.4","0"
"US1TNDV0075","BRENTWOOD 2.8 NE, TN US","36.02433","-86.75093","210.0","2008",,,,,,,,,,,,,"3.74"," ,N,1210, ",,,,,"57.85"," ,N",,,,,,,,
"US1TNRD0008","MURFREESBORO 3.2 WSW, TN US","35.831422","-86.44507","193.9","2008",,,,,"         0","N",,,,,"0.8"," ,N,0308, ","2.75"," ,N,1210, ",,,,,"40.94"," ,N","1.5"," ,N",,,,,,
"US1TNHB0002","MORRISTOWN 5.3 W, TN US","36.201175","-83.389058","374.9","2008",,,,,,,,,,,,,"1.75"," ,N,0111, ",,,,,"38.52"," ,N",,,,,,,,
"US1TNGR0001","WASHBURN 1.3 SSE, TN US","36.232947","-83.671434","403.3","2008",,,,,,,,,,,,,"1.40"," ,N,0111, ",,,,,"34.60"," ,N",,,,,,,,
"US1TNWL0008","FAIRVIEW 3.3 SW, TN US","35.9494","-87.1699","245.7","2008",,,,,"         2","N",,,,,"3.5"," ,N,0308, ","3.13"," ,N,1210, ",,,,,"52.62"," ,N","5.2"," ,N",,,,,,
"USC00408160","SELMER, TN US","35.1647","-88.5994","143.3","2008","1670",,"        0",,"         0","0","9","0,0103, ","0"," ,0,1231,+","0.0"," ,0,1231,+","3.45"," ,0,0304, ","100","0,0722, ","3371","8","63.96"," ,0","0.0"," ,0","59.5","0","70.8","0","48.2","0"
"USC00405332","LIVINGSTON RADIO WLIV, TN US","36.3776","-85.3365","297.2","2008","1082",,"        2",,"         2","0","6","0,1223,+","1"," ,0,0324,+","1.5"," ,0,0308, ","2.65"," ,0,1210, ","95","0,0722, ","3793","4","45.82"," ,0","2.5"," ,0","55.9","0","68.1","0","43.8","0"
"USC00405214","LEXINGTON 10 NW, TN US","35.71361","-88.56083","165.5","2008","1337",,"        2",,"         1","0","5","0,1222, ","4"," ,0,0308, ","3.6"," ,0,0308, ","4.10"," ,0,1210, ","93","0,0806,+","3785","7","61.94"," ,0","4.2"," ,0","57.4","0","68.4","0","46.3","0"
"US1TNWL0002","FAIRVIEW 2.9 SW, TN US","35.948715","-87.158816","257.9","2008",,,,,,,,,,,,,"3.22"," ,N,1210, ",,,,,"53.12"," ,N",,,,,,,,
"USC00405210","LEXINGTON, TN US","35.6502","-88.3904","164.6","2008","1480",,"        0",,"         0","0","9","0,1223,+","0"," ,0,1231,+","0.0"," ,0,1231,+","4.75"," ,0,1210, ","98","0,0730, ","3377","1","63.56"," ,0","0.0"," ,0","58.3","0","69.6","0","47.0","0"
"US1TNHB0004","BULLS GAP 3.6 W, TN US","36.267746","-83.143011","370.3","2008",,,,,,,,,,,,,"2.00"," ,N,0111, ",,,,,"37.50"," ,N",,,,,,,,
"US1TNDV0065","NOLENSVILLE 5.8 NNW, TN US","36.025","-86.687","207.9","2008",,,,,,,,,,,,,"2.99"," ,N,1210, ",,,,,"47.38"," ,N",,,,,,,,
"USC00401640","CHARLOTTE, TN US","36.17222","-87.18056","211.5","2008","1238",,"        1",,"         0","0","5","0,0103, ","1"," ,0,0227, ","0.5"," ,0,0227, ","3.26"," ,0,1210, ","98","0,0807,+","3890","1","47.14"," ,0","0.5"," ,0","56.7","0","68.4","0","45.0","0"
"USC00401887","COALMONT, TN US","35.3684","-85.7014","565.7","2008","741",,,,,,"3","0,0103, ",,,,,"3.64"," ,0,1210, ","94","0,0722, ","4375","4","56.16"," ,0",,,"54.1","0","65.9","0","42.4","0"
"US1TNHT0001","TENNESSEE RIDGE 1.4 SW, TN US","36.3087","-87.7842","210.0","2008",,,,,,,,,,,,,"3.84"," ,N,0503, ",,,,,"60.66"," ,N",,,,,,,,
"US1TNHT0004","TENNESSEE RIDGE 3.0 S, TN US","36.277112","-87.760119","200.9","2008",,,,,,,,,,,,,"4.03"," ,N,0503, ",,,,,"58.47"," ,N",,,,,,,,
"US1TNBF0010","SHELBYVILLE 9.3 SSW, TN US","35.357927","-86.479514","365.2","2008",,,,,,,,,,,,,"3.44"," ,N,0826, ",,,,,"53.50"," ,N",,,,,,,,
"US1TNMY0008","COLUMBIA 1.2 SSW, TN US","35.607219","-87.05921","220.1","2008",,,,,,,,,,,,,"3.62"," ,N,0826, ",,,,,"48.67"," ,N",,,,,,,,
"USC00406330","MOUNT MORIAH BIRDSONG, TN US","35.9675","-88.0458","115.8","2008",,,,,"         0","0",,,,,"0.7"," ,0,1201, ","3.66"," ,0,1008, ",,,,,"47.73"," ,0","0.7"," ,0",,,,,,
"USR0000TBIG","BIG SOUTH TENNESSEE, TN US","36.475","-84.6542","440.4","2008","969",,,,,,"3","U,0120, ",,,,,,,"94","U,0721, ","3963","5",,,,,"55.4","U","67.6","U","43.3","U"
"USC00401561","CELINA, TN US","36.5409","-85.4596","164.6","2008",,,"        2",,"         2","0",,,"2"," ,0,0308, ","2.0"," ,0,0308, ",,,,,,,,,"3.8"," ,0",,,,,,
"USC00404033","HENDERSON 4 W, TN US","35.4442","-88.7244","140.2","2008",,,"        1",,"         1","0",,,"3"," ,0,0308, ","2.5"," ,0,0308, ","5.65"," ,0,1210, ",,,,,"67.70"," ,0","2.5"," ,0",,,,,,
"US1TNHM0002","CENTERVILLE 9.5 N, TN US","35.93","-87.4695","170.7","2008",,,,,,,,,,,,,"3.85"," ,N,1210, ",,,,,"54.48"," ,N",,,,,,,,
"US1TNBF0015","SHELBYVILLE 10.4 S, TN US","35.340967","-86.427067","303.3","2008",,,,,,,,,,,,,"3.45"," ,N,1210, ",,,,,"53.20"," ,N",,,,,,,,
"US1TNMG0002","WARTBURG 12.3 WNW, TN US","36.171286","-84.791737","447.4","2008",,,,,,,,,,,,,,,,,,,"46.20"," ,N",,,,,,,,
"USC00401795","CLARKSVILLE NUMBER 2, TN US","36.4975","-87.33556","151.2","2008",,,"        1",,"         0","0",,,"3"," ,0,0309, ","0.1"," ,0,0309, ","3.60"," ,0,0404, ","97","0,0722, ",,,"56.24"," ,0","0.1"," ,0",,,"68.9","0",,
"USC00404946","KNOXVILLE EXPERIMENTAL STATION, TN US","35.8984","-83.9569","253.0","2008","1335",,,,,,"10","0,0104,+",,,,,"1.95"," ,0,1210, ","93","0,0822,+",,,"50.97"," ,0",,,"57.8","0","69.3","0","46.3","0"
"USC00401310","BYRDSTOWN, TN US","36.58028","-85.12556","268.2","2008",,,"        5",,"         2","0",,,"2"," ,0,0324,+","2.0"," ,0,0324,+",,,,,,,"45.31"," ,0","5.1"," ,0",,,,,,
"USC00405358","LOBELVILLE, TN US","35.7522","-87.7958","135.6","2008",,,,,,,,,,,,,,,,,,,,,,,,,,,,
"US1TNBF0017","SHELBYVILLE 8.9 WSW, TN US","35.419254","-86.579692","260.9","2008",,,,,,,,,,,,,"3.15"," ,N,1210, ",,,,,"54.46"," ,N",,,,,,,,
"USC00405118","LEBANON 7 N, TN US","36.29806","-86.26306","155.4","2008",,,,,"         1","0",,,,,"3.0"," ,0,0308, ",,,,,,,"43.07"," ,0","4.8"," ,0",,,,,,
"USC00406328","MOUNT LECONTE, TN US","35.655","-83.4411","1979.1","2008",,,,,"        24","0",,,,,"17.0"," ,0,0227, ",,,,,,,,,"84.5"," ,0",,,,,,
"USC00408868","TAZEWELL, TN US","36.465","-83.5603","416.1","2008","933",,,,"         2","0","8","0,1222,+",,,"1.6"," ,0,0102, ","2.86"," ,0,0612, ","94","0,0722, ","4321","5","44.50"," ,0","3.4"," ,0","54.7","0","67.5","0","41.9","0"
"USR0000TUNI","UNICOI TENNESSEE, TN US","36.1333","-82.45","731.5","2008","535",,,,,,"1","U,0125, ",,,,,,,"91","U,0609, ","4132","5",,,,,"53.9","U","65.9","U","41.9","U"
"USC00408065","SAMBURG W. L. REFUGE, TN US","36.4527","-89.3027","94.5","2008",,,,,,,,,,,,,,,,,,,,,,,,,,,,
"USC00409155","TULLAHOMA, TN US","35.34528","-86.20889","311.5","2008","1274",,"        1",,"         1","0","9","0,1222, ","2"," ,0,0226, ","2.0"," ,0,0226, ","2.74"," ,0,1008, ","96","0,0721, ","3557","2","49.59"," ,0","2.5"," ,0","57.8","0","68.8","0","46.8","0"
"USC00408184","SEWANEE, TN US","35.2028","-85.9172","587.7","2008","994",,"        2",,"         0","0","7","0,1222,+","1"," ,0,1201,+","0.2"," ,0,1201, ","4.62"," ,0,1210, ","93","0,0722, ",,,"52.60"," ,0","0.2"," ,0","56.4","0","65.3","0","47.4","0"
"US1TNDC0003","DICKSON 5.8 NW, TN US","36.127203","-87.459754","238.0","2008",,,,,,,,,,,,,"3.24"," ,N,0304, ",,,,,"49.57"," ,N",,,,,,,,
"US1TNRD0001","MURFREESBORO 5.5 NNW, TN US","35.92469","-86.43666","167.9","2008",,,,,,,,,,,,,"2.48"," ,N,1210, ",,,,,"42.57"," ,N",,,,,,,,
"USC00405595","MANCHESTER NUMBER 2, TN US","35.51583","-86.0875","326.1","2008","1197",,"        2",,"         2","0","7","0,0104,+","2"," ,0,0308, ","2.0"," ,0,0308, ","3.33"," ,0,1210, ","98","0,0722, ","3721","3","45.86"," ,0","4.9"," ,0","56.9","0","69.4","0","44.5","0"
"USC00401790","CLARKSVILLE SEWAGE PLANT, TN US","36.5471","-87.3353","122.5","2008","1517",,,,"         0","0","8","0,1222, ",,,"0.0"," ,0,1231,+","2.97"," ,0,1209, ","97","0,0805,+",,,"54.83"," ,0","0.0"," ,0","58.3","0","69.3","0","47.3","0"
"US1TNDV0043","BELLE MEADE 3.1 N, TN US","36.144","-86.858","149.0","2008",,,,,,,,,,,,,"3.41"," ,N,1210, ",,,,,"54.32"," ,N",,,,,,,,
"USC00409709","WHITE HOUSE, TN US","36.4511","-86.6455","249.9","2008",,,"        3",,"         1","0",,,"4"," ,0,0308, ","3.6"," ,0,0308, ",,,,,,,,,"6.1"," ,0",,,,,,
"US1TNBF0001","SHELBYVILLE 5.5 N, TN US","35.57","-86.46","238.0","2008",,,,,"         1","N",,,,,"2.3"," ,N,0308, ",,,,,,,"51.76"," ,N","3.8"," ,N",,,,,,
"USC00401663","CHEATHAM LOCK AND DAM, TN US","36.3211","-87.2218","119.5","2008",,,"        0",,"         0","0",,,"0","T,0,0227,+","0.0","T,0,0227,+",,,,,,,"47.27"," ,0","0.0","T,0",,,,,,
"US1TNBF0008","SHELBYVILLE 0.7 SSW, TN US","35.48","-86.45","239.0","2008",,,,,,,,,,,,,"2.95"," ,N,0826, ",,,,,"50.54"," ,N",,,,,,,,
"US1TNBF0005","SHELBYVILLE 3.1 ESE, TN US","35.466259","-86.40026","228.9","2008",,,,,,,,,,,,,"2.97"," ,N,1210, ",,,,,"50.91"," ,N",,,,,,,,
"USC00405108","LEBANON, TN US","36.2291","-86.318","160.0","2008",,,"        0",,"         1","0",,,"0"," ,0,1231,+","1.3"," ,0,0308, ","3.00"," ,0,1210, ",,,,,"43.26"," ,0","1.3"," ,0",,,,,,
"US1TNMN0003","FINGER 4.1 ENE, TN US","35.3782407","-88.5489506","154.8","2008",,,,,,,,,,,,,"4.76"," ,N,1008, ",,,,,"65.44"," ,N",,,,,,,,
"USR0000TSHI","SHILOH NMP TENNESSEE, TN US","35.155","-88.3217","128.0","2008","1836",,,,,,"11","U,1222,+",,,,,,,"100","U,0802,+","2897","3",,,,,"60.7","U","72.0","U","49.4","U"
"US1TNWN0042","MOUNT JULIET 2.9 WSW, TN US","36.189689","-86.571279","146.0","2008",,,,,"         1","N",,,,,"1.5"," ,N,0308, ","3.35"," ,N,1210, ",,,,,"54.38"," ,N","3.5"," ,N",,,,,,
"US1TNWN0048","LEBANON 10.5 ENE, TN US","36.280052","-86.154716","178.0","2008",,,,,,,,,,,,,"2.70"," ,N,1210, ",,,,,"43.38"," ,N",,,,,,,,
"US1TNDV0033","HERMITAGE 4.4 WSW, TN US","36.172907","-86.695644","143.0","2008",,,,,,,,,,,,,"3.42"," ,N,1210, ",,,,,"51.35"," ,N",,,,,,,,
"USC00402388","DECATUR 7 NE, TN US","35.6394","-84.665","228.6","2008","1149",,"        1",,"         0","0","9","0,0104,+","1"," ,0,0309, ","0.5"," ,0,0117, ","2.82"," ,0,0827, ","98","0,0806, ","3910","1","47.93"," ,0","0.9"," ,0","56.4","0","69.6","0","43.2","0"
"USR0000TPRE","PRENTICE COOPER SF TENNESSEE, TN US","35.1303","-85.4278","585.2","2008","1208",,,,,,"7","U,1222,+",,,,,,,"94","U,0721, ","3654","2",,,,,"57.3","U","65.9","U","48.7","U"
"USC00404567","JACKSON 4 SE, TN US","35.5501","-88.717","121.0","2008",,,"        2",,"         1","0",,,"5"," ,0,0307, ","5.0"," ,0,0307, ","4.13"," ,0,1209, ",,,,,"59.58"," ,0","5.0"," ,0",,,,,,
"USC00404568","JACKSON 4 NE, TN US","35.7103","-88.8223","131.1","2008","1696",,"        1",,"         1","0","10","0,1223,+","4"," ,0,0308, ","4.0"," ,0,0308, ","4.56"," ,0,1210, ","99","0,0731,+","3539","1","56.51"," ,0","4.7"," ,0","59.1","0","70.9","0","47.3","0"
"USC00407834","ROCKWOOD 2, TN US","35.836","-84.692","233.8","2008",,,"        0",,"         0","0",,,"0","T,0,0102, ","0.1"," ,0,0102, ","3.90"," ,0,0827, ",,,,,"51.03"," ,0","0.1"," ,0",,,,,,
"USC00409219","UNION CITY, TN US","36.3925","-89.0317","106.7","2008","1392",,"        4",,"         1","0","8","0,1223,+","4"," ,0,0308, ","3.5"," ,0,0308, ","3.52"," ,0,0304, ","95","0,0730,+","4070","4","51.06"," ,0","4.4"," ,0","56.8","0","67.9","0","45.7","0"
"USR0000TCHU","CHUCK SWAN SF TENNESSEE, TN US","36.3689","-83.8986","505.1","2008","1277",,,,,,"6","U,0120, ",,,,,,,"93","U,0721,+","3388","1",,,,,"57.6","U","66.5","U","48.6","U"
"USR0000THAM","HAMBLEN CO HQ TENNESSEE, TN US","36.2572","-83.2772","354.5","2008","1397",,,,,,"11","U,1222, ",,,,,,,"95","U,0804, ","3653","6",,,,,"58.0","U","69.0","U","46.9","U"
"USC00409691","WHITWELL SEQUATCHIE VLY, TN US","35.2897","-85.4736","310.9","2008",,,,,"         0","0",,,,,"0.8"," ,0,0227, ","4.19"," ,0,0827, ",,,,,"60.04"," ,0","1.3"," ,0",,,,,,
"USC00406180","MONTGOMERY BELL SP, TN US","36.10139","-87.28472","182.9","2008",,,"        1",,"         0","0",,,"1"," ,0,0117, ","0.5"," ,0,0117, ","3.60"," ,0,1210, ",,,,,"53.08"," ,0","0.8"," ,0",,,,,,
"USC00407710","RIPLEY, TN US","35.7178","-89.4986","121.9","2008",,,,,"         0","0",,,,,"0.0"," ,0,1231,+","4.30"," ,0,0503, ",,,,,"59.72"," ,0","0.0"," ,0",,,,,,
"USC00400081","ALLARDT, TN US","36.3805","-84.8744","501.4","2008","972",,"        5",,"         3","0","5","0,0120, ","3"," ,0,0308,+","3.5"," ,0,0227, ","3.09"," ,0,1210, ","96","0,0627, ","3904","2","50.22"," ,0","8.1"," ,0","55.9","0","66.4","0","45.4","0"
"USC00406500","NEWFOUND GAP, TN US","35.6108","-83.4289","1536.2","2008",,,,,,,,,,,,,"3.10"," ,Z,0827, ",,,,,"68.41"," ,Z",,,,,,,,
"US1TNWN0036","LEBANON 2.7 SSE, TN US","36.149759","-86.30603","193.9","2008",,,,,,,,,,,,,"3.15"," ,N,1210, ",,,,,"47.10"," ,N",,,,,,,,
"USC00408246","SHELBYVILLE WATER, TN US","35.49222","-86.4775","231.6","2008","1429",,,,"         0","0","10","0,1222,+",,,"0.2"," ,0,0307, ","2.35"," ,0,0826, ","99","0,0721, ","3194","3","49.03"," ,0","0.4"," ,0","58.7","0","70.4","0","47.0","0"
"US1TNCM0013","CROSSVILLE 2.2 SSW, TN US","35.92341","-85.05337","579.1","2008",,,,,,,,,,,,,"3.23"," ,N,1210, ",,,,,"50.94"," ,N",,,,,,,,
"US1TNDR0002","PARSONS 0.5 E, TN US","35.6484","-88.1278","151.2","2008",,,,,,,,,,,,,"3.43"," ,N,0527, ",,,,,"57.56"," ,N",,,,,,,,
"USC00404561","JACKSON EXPERIMENTAL STATION, TN US","35.6213","-88.8456","121.9","2008","1734",,"        1",,"         1","0","11","0,1223,+","2"," ,0,0308, ","1.8"," ,0,0308, ","3.46"," ,0,1210, ","98","0,0806,+","3408","2","59.26"," ,0","1.8"," ,0","59.7","0","70.6","0","48.8","0"
"US1TNDV0022","FOREST HILLS 1.2 E, TN US","36.0642","-86.8157","228.9","2008",,,,,,,,,,,,,"3.56"," ,N,1210, ",,,,,"51.13"," ,N",,,,,,,,
"USC00401720","CHRISTIANA 5 W, TN US","35.7047","-86.4869","228.6","2008",,,"        1",,"         1","0",,,"2"," ,0,0308, ","2.0"," ,0,0308, ","2.75"," ,0,1210, ",,,"3931","9","46.26"," ,0","2.4"," ,0",,,,,,
"USC00406619","NORRIS, TN US","36.213","-84.0602","338.3","2008","951",,"        0",,"         0","0","9","0,0125,+","0","T,0,1118, ","0.0","T,0,1118, ","2.32"," ,0,1210, ","94","0,0822, ","4144","1","49.84"," ,0","0.0","T,0","55.3","0","67.7","0","43.0","0"
"USC00402934","ERWIN 1 W, TN US","36.1422","-82.4261","524.3","2008","984",,"        2",,"         1","0","9","0,0126, ","1"," ,0,1121,+","1.5"," ,0,0227, ","2.14"," ,0,0428, ","96","0,0607, ","3860","4","36.78"," ,0","3.4"," ,0","56.4","0","68.3","0","44.4","0"
"USC00408916","TENNESSEE RIDGE, TN US","36.325","-87.7886","220.1","2008","1422",,,,"         0","0","6","0,1224,+",,,"0.9"," ,0,0131, ","3.67"," ,0,0404, ","97","0,0721, ","4010","8","56.39"," ,0","1.4"," ,0","57.1","0","67.8","0","46.4","0"
"USC00400876","BOLIVAR WATER WORKS, TN US","35.2622","-88.9891","138.7","2008","1511",,"        1",,"         1","0","11","0,1223,+","4"," ,0,0308, ","3.8"," ,0,0308, ","4.70"," ,0,1210, ","97","0,0805,+","3561","6","54.25"," ,0","3.8"," ,0","58.5","0","70.0","0","47.0","0"
"US1TNGY0003","ALTAMONT 0.8 SE, TN US","35.421911","-85.717894","570.9","2008",,,,,,,,,,,,,"4.01"," ,N,1210, ",,,,,"57.93"," ,N",,,,,,,,
"USC00405525","LYNCHBURG, TN US","35.2983","-86.3631","246.9","2008",,,,,"         1","0",,,,,"1.5"," ,0,0308, ","4.21"," ,0,1210, ",,,,,"55.94"," ,0","1.5"," ,0",,,,,,
"USC00406977","PARIS 2 SE, TN US","36.2872","-88.2958","135.0","2008","1429",,"        2",,"         1","0","7","0,1222, ","5"," ,0,0308, ","5.0"," ,0,0308, ","3.83"," ,0,0503, ","98","0,0806,+","3865","3","50.42"," ,0","5.3"," ,0","57.2","0","68.8","0","45.7","0"
"US1TNFN0005","JAMESTOWN 12.9 S, TN US","36.245307","-84.934206","526.1","2008",,,,,"         4","N",,,,,"3.0"," ,N,0227, ","3.18"," ,N,1210, ",,,,,"45.09"," ,N","9.9"," ,N",,,,,,
"US1TNPM0014","COOKEVILLE 3.5 NNW, TN US","36.204806","-85.524404","337.1","2008",,,,,"         2","N",,,,,"1.1"," ,N,0308, ","2.90"," ,N,1210, ",,,,,"45.35"," ,N","2.6"," ,N",,,,,,
"USC00404590","JAMESTOWN, TN US","36.4259","-84.942","515.1","2008",,,,,"         2","0","3","0,1223,+",,,"3.7"," ,0,0308, ","2.82"," ,0,1210, ",,,,,"48.59"," ,0","9.1"," ,0",,,,,"42.8","0"
"USC00407184","PIKEVILLE, TN US","35.5982","-85.1939","263.3","2008","1143",,"        1",,"         2","0","8","0,0103, ","1"," ,0,0227, ","1.7"," ,0,0227, ","2.87"," ,0,1209, ","98","0,0721, ","3474","3","49.33"," ,0","4.0"," ,0","57.5","0","69.2","0","45.9","0"
"USW00003811","JACKSON MCKELLAR SIPES AIRPORT, TN US","35.593","-88.9167","132.0","2008","1698",,,,,,"9","0,0103, ",,,,,"3.86"," ,0,1209, ","99","0,0729, ","3417","6","55.18"," ,0",,,"59.5","0","70.9","0","48.1","0"
"US1TNWR0003","MCMINNVILLE 3.0N, TN US","35.73","-85.77","312.1","2008",,,,,,,,,,,,,"3.41"," ,N,1210, ",,,,,"47.39"," ,N",,,,,,,,
"USC00408953","THOMPSON STATION, TN US","35.7635","-86.9321","236.2","2008","1455",,"        3",,"         3","0","7","0,1222, ","2"," ,0,0308, ","3.6"," ,0,0308, ","4.08"," ,0,1008, ","98","0,0823,+","3817","5","51.19"," ,0","6.2"," ,0","57.6","0","69.7","0","45.6","0"
"USC00409800","WINCHESTER 5 SE, TN US","35.1615","-86.0315","286.8","2008","1256",,"        1",,"         0","0","8","0,0103, ","1"," ,0,0226, ","0.7"," ,0,0226, ","3.27"," ,0,1209, ","96","0,0721, ","3533","8","48.81"," ,0","2.7"," ,0","57.8","0","69.2","0","46.5","0"
"USC00406534","NEWPORT 1 NW, TN US","35.9833","-83.2008","315.8","2008","1340",,"        1",,"         0","0","10","0,0121, ","1"," ,0,0227, ","0.5"," ,0,0227, ","1.80"," ,0,0826, ","95","0,0805,+","3429","3","36.67"," ,0","0.5"," ,0","58.1","0","70.2","0","46.0","0"
"USC00405681","MARTIN UNIVERSITY OF TN EXPERIMENT STATION, TN US","36.3444","-88.8636","103.6","2008",,,"        0",,"         1","0","7","0,1222, ","0","T,0,0228, ","1.0"," ,0,0131, ","3.70"," ,0,0404, ",,,,,"56.54"," ,0","1.1"," ,0",,,,,"47.7","0"
"USC00402600","DRESDEN, TN US","36.2836","-88.7063","137.2","2008","1538",,"        1",,"         1","0","6","0,1222, ","2"," ,0,0308, ","2.0"," ,0,0308, ","3.63"," ,0,0304, ","96","0,0806,+","3922","0","49.94"," ,0","2.0"," ,0","57.6","0","68.3","0","47.0","0"
"USC00406403","NASHVILLE BERRY FIELD, TN US","36.1135","-86.6781","170.7","2008",,,"        2",,"         1","0",,,"1"," ,0,1212,+","1.0"," ,0,1212, ","3.42"," ,0,1210, ",,,,,"48.06"," ,0","3.4"," ,0",,,,,,
"US1TNMT0024","CLARKSVILLE 7.1 ESE, TN US","36.53864","-87.207026","137.2","2008",,,,,,,,,,,,,"3.68"," ,N,0404, ",,,,,"49.26"," ,N",,,,,,,,
"US1TNMT0026","CLARKSVILLE 4.0 WNW, TN US","36.572977","-87.418025","170.1","2008",,,,,,,,,,,,,"3.27"," ,N,0404, ",,,,,"59.61"," ,N",,,,,,,,
"US1TNMT0027","CLARKSVILLE 4.4 WNW, TN US","36.590261","-87.417527","148.1","2008",,,,,,,,,,,,,"3.15"," ,N,0404, ",,,,,"57.67"," ,N",,,,,,,,
"USC00400669","BETHPAGE 1 S, TN US","36.4583","-86.324","170.7","2008",,,"        2",,"         1","0",,,"2"," ,0,0308, ","1.5"," ,0,0308, ","3.25"," ,0,1008, ",,,,,"44.95"," ,0","2.0"," ,0",,,,,,
"USW00003809","DYERSBURG MUNICIPAL AIRPORT, TN US","36.0002","-89.4094","91.4","2008",,,,,,,,,,,,,,,,,,,,,,,,,,,,
"US1TNHP0010","HURRICANE MILLS 1.5 W, TN US","35.90318","-87.81912","137.2","2008",,,,,,,,,,,,,"3.83"," ,N,1210, ",,,,,"55.72"," ,N",,,,,,,,
"USC00403938","HARTSVILLE, TN US","36.37556","-86.18083","155.8","2008",,,,,"         0","0",,,,,"0.0"," ,0,1231,+","2.76"," ,0,1210, ",,,"3721","4","46.22"," ,0","0.0"," ,0",,,,,,
"US1TNST0010","DOVER 7.8 NNE, TN US","36.589207","-87.799447","185.0","2008",,,,,,,,,,,,,"3.55"," ,N,0304, ",,,,,"54.39"," ,N",,,,,,,,
"US1TNWN0019","GREEN HILL 3.1 NNE, TN US","36.276","-86.547","164.0","2008",,,,,,,,,,,,,"3.28"," ,N,1210, ",,,,,"52.76"," ,N",,,,,,,,
"US1TNPM0007","COOKEVILLE 3.0 ENE, TN US","36.16578","-85.45301","345.0","2008",,,,,,,,,,,,,"2.69"," ,N,1210, ",,,,,"48.61"," ,N",,,,,,,,
"US1TNWN0010","GREEN HILL 0.3 N, TN US","36.238651","-86.571596","157.9","2008",,,,,"         2","N",,,,,"2.0"," ,N,0308, ","3.22"," ,N,1210, ",,,,,"51.52"," ,N","5.5"," ,N",,,,,,
"USC00404223","HOHENWALD, TN US","35.5567","-87.5414","298.7","2008",,,"        2",,"         2","0",,,"5"," ,0,0308, ","5.0"," ,0,0308, ",,,,,,,"56.54"," ,0","7.0"," ,0",,,,,,
"US1TNWN0012","LEBANON 3.7 WNW, TN US","36.2346992","-86.3816986","198.1","2008",,,,,,,,,,,,,"2.97"," ,N,1210, ",,,,,"45.01"," ,N",,,,,,,,
"US1TNTP0003","ATOKA 3.2 ESE, TN US","35.434116","-89.716881","132.9","2008",,,,,,,,,,,,,"3.11"," ,N,1210, ",,,,,"53.77"," ,N",,,,,,,,
"US1TNWN0013","MOUNT JULIET 1.0 W, TN US","36.205216","-86.540797","153.6","2008",,,,,,,,,,,,,"3.29"," ,N,1210, ",,,,,"52.88"," ,N",,,,,,,,
"USC00403370","GAINESBORO, TN US","36.3661","-85.6552","148.4","2008","1199",,"        0",,"         0","0","5","0,0126,+","0","T,0,1201,+","0.5"," ,0,0227, ","2.64"," ,0,1210, ","97","0,0728, ","4186","6","46.14"," ,0","0.5"," ,0","56.1","0","69.0","0","43.2","0"
