"STATION","NAME","LATITUDE","LONGITUDE","ELEVATION","DATE","CDSD","CDSD_ATTRIBUTES","DSND","DSND_ATTRIBUTES","DSNW","DSNW_ATTRIBUTES","EMNT","EMNT_ATTRIBUTES","EMSD","EMSD_ATTRIBUTES","EMSN","EMSN_ATTRIBUTES","EMXP","EMXP_ATTRIBUTES","EMXT","EMXT_ATTRIBUTES","HDSD","HDSD_ATTRIBUTES","PRCP","PRCP_ATTRIBUTES","SNOW","SNOW_ATTRIBUTES","TAVG","TAVG_ATTRIBUTES","TMAX","TMAX_ATTRIBUTES","TMIN","TMIN_ATTRIBUTES"
"USC00412950","ESCOBAS, TX US","27.0267","-98.9808","125.0","2009",,,"        0",,"         0","0",,,"0"," ,0,1231,+","0.0"," ,0,1231,+","2.00"," ,0,0919,+",,,,,"12.35"," ,0","0.0"," ,0",,,,,,
"USW00003951","LONGVIEW 11 SE, TX US","32.3466","-94.6533","124.1","2009","2282",,"        0",,"         0","0","20","0,1205, ","0"," ,0,1231,+","0.0"," ,0,1231,+","2.10"," ,0,1224,+","102","0,0705,+","2177","4","62.03"," ,0","0.0"," ,0","65.1","0","75.2","0","55.0","0"
"US1TXZV0012","SOUTH FLOWING WELLS, TX US","28.80617","-99.9967","185.9","2009",,,,,,,,,,,,,"1.90"," ,N,0913, ",,,,,"11.17"," ,N",,,,,,,,
"US1TXZV0013","TRIANGLE, TX US","28.92717","-99.9885","221.0","2009",,,,,,,,,,,,,"1.20"," ,N,0913, ",,,,,"12.89"," ,N",,,,,,,,
"US1TXZV0010","GALAN, TX US","28.85883","-99.95517","199.0","2009",,,,,,,,,,,,,"2.10"," ,N,0913, ",,,,,"11.68"," ,N",,,,,,,,
"US1TXZV0011","BEEF HOLLOW FARM, TX US","28.85383","-99.9557","199.0","2009",,,,,,,,,,,,,"1.20"," ,N,0913, ",,,,,"10.59"," ,N",,,,,,,,
"USC00410779","BIG LAKE 2, TX US","31.2001","-101.4626","833.3","2009",,,,,,,,,,,,,,,,,,,,,,,,,,,,
"USC00411625","CHALK MOUNTAIN, TX US","32.1561","-97.9369","345.3","2009",,,"        0",,"         2","0",,,"0"," ,0,1231,+","2.6"," ,0,1224, ","2.57"," ,0,0427, ",,,,,"36.33"," ,0","4.1"," ,0",,,,,,
"USC00417172","PORT ARTHUR CITY, TX US","29.9044","-93.9708","1.5","2009",,,"        0",,"         0","0",,,"0"," ,0,1231,+","0.0"," ,0,1231,+","2.78"," ,0,0427, ",,,,,"54.35"," ,0","0.0"," ,0",,,,,,
"USC00419593","WEST, TX US","31.8112","-97.0796","196.6","2009",,,"        0",,"         0","0",,,"0"," ,0,1231,+","0.0"," ,0,1231,+","3.60"," ,0,0312, ",,,,,"42.58"," ,0","0.0"," ,0",,,,,,
"US1TXGP0014","NEW BERLIN 6.7 SE, TX US","29.40624","-98.01159","185.3","2009",,,,,,,,,,,,,"6.86"," ,N,1004, ",,,,,"43.85"," ,N",,,,,,,,
"USC00417179","PORT ISABEL, TX US","26.0941","-97.3094","5.2","2009",,,"        0",,"         0","0",,,"0"," ,0,1231,+","0.0"," ,0,1231,+","2.30"," ,0,0923, ","99","0,0820,+",,,"20.38"," ,0","0.0"," ,0",,,"83.0","0",,
"USC00418022","SANDERSON, TX US","30.1414","-102.3917","849.8","2009",,,,,,,,,,,,,,,,,,,,,,,,,,,,
"US1TXZV0005","SOUTH BIG WILLIAMS, TX US","28.8873","-100.0565","221.9","2009",,,,,,,,,,,,,"2.14"," ,N,0516, ",,,,,"13.04"," ,N",,,,,,,,
"US1TXZV0006","VAT, TX US","28.9303","-100.063","228.0","2009",,,,,,,,,,,,,"2.60"," ,N,0516, ",,,,,"13.17"," ,N",,,,,,,,
"USC00410781","BIG SPRING 5 NE, TX US","32.3738","-101.4177","791.3","2009",,,,,,,,,,,,,,,,,,,,,,,,,,,,
"US1TXCML003","NEW BRAUNFELS 3.1 WNW, TX US","29.720969","-98.165542","252.1","2009",,,,,,,,,,,,,"6.46"," ,N,0911, ",,,,,"34.05"," ,N",,,,,,,,
"US1TXZV0003","PALOMO LODGE, TX US","28.8853","-99.8555","217.0","2009",,,,,,,,,,,,,"2.10"," ,N,0516, ",,,,,"15.11"," ,N",,,,,,,,
"US1TXCML004","NEW BRAUNFELS 2.4 SSW, TX US","29.670093","-98.127538","202.7","2009",,,,,,,,,,,,,"6.03"," ,N,0911, ",,,,,"35.50"," ,N",,,,,,,,
"US1TXZV0004","PESCADO, TX US","28.857671","-100.08551","203.9","2009",,,,,,,,,,,,,"1.60"," ,N,0913, ",,,,,"10.16"," ,N",,,,,,,,
"US1TXZV0001","CHAPARROSA RANCH, TX US","28.88579","-99.99693","206.0","2009",,,,,,,,,,,,,"1.80"," ,N,0913, ",,,,,"12.98"," ,N",,,,,,,,
"USC00411875","COLEMAN, TX US","31.82766","-99.43192","523.6","2009",,,"        1",,"         2","0",,,"1"," ,0,1224, ","1.0"," ,0,1230,+","1.48"," ,0,0312, ",,,,,"24.02"," ,0","2.0"," ,0",,,,,,
"US1TXZV0002","HIGHWAY 57 FARM, TX US","28.93183","-99.8785","227.1","2009",,,,,,,,,,,,,"1.70"," ,N,0913, ",,,,,"11.15"," ,N",,,,,,,,
"US1TXCML009","NEW BRAUNFELS 7.0 NNE, TX US","29.79541","-98.06798","253.9","2009",,,,,,,,,,,,,"4.08"," ,N,1004, ",,,,,"32.96"," ,N",,,,,,,,
"USC00410305","ARANSAS WILDLIFE REFUGE, TX US","28.30806","-96.80472","4.6","2009",,,"        0",,"         0","0",,,"0"," ,0,1231,+","0.0"," ,0,1231,+","4.35"," ,0,1120, ",,,,,"32.59"," ,0","0.0"," ,0",,,,,,
"USC00414903","LA GRANGE, TX US","29.9176","-96.8769","108.8","2009","3337",,"        0",,"         0","0","23","0,1206,+","0"," ,0,1231,+","0.0"," ,0,1231,+","5.62"," ,0,0418, ","107","0,0626, ","1564","8","44.33"," ,0","0.0"," ,0","69.4","0","81.1","0","57.6","0"
"US1TXZV0009","SWITCHES, TX US","28.8537","-99.9385","213.1","2009",,,,,,,,,,,,,"1.40"," ,N,0913, ",,,,,"10.62"," ,N",,,,,,,,
"US1TXWM0009","ROUND ROCK 3.6 ENE, TX US","30.5486","-97.6261","216.1","2009",,,,,,,,,,,,,"2.72"," ,N,0912, ",,,,,"34.38"," ,N",,,,,,,,
"US1TXZV0007","YOUNDBLOOD, TX US","28.8073","-99.92417","198.1","2009",,,,,,,,,,,,,"1.45"," ,N,1023, ",,,,,"11.19"," ,N",,,,,,,,
"US1TXCML008","NEW BRAUNFELS 7.2 NW, TX US","29.77794","-98.203083","326.7","2009",,,,,,,,,,,,,"4.13"," ,N,0911, ",,,,,"40.03"," ,N",,,,,,,,
"US1TXZV0008","MCNALLY, TX US","28.8397","-99.92417","210.9","2009",,,,,,,,,,,,,"1.70"," ,N,0913, ",,,,,"12.68"," ,N",,,,,,,,
"US1TXGP0007","MARION 2.2 SSW, TX US","29.5435","-98.1573","194.5","2009",,,,,,,,,,,,,"5.27"," ,N,1004, ",,,,,"32.02"," ,N",,,,,,,,
"USC00419361","VICTORIA FIRE DEPARTMENT NUMBER 5, TX US","28.8608","-97.0181","30.8","2009","3337",,"        0",,"         0","0","25","0,1206,+","0"," ,0,1231,+","0.0"," ,0,1231,+","2.40"," ,0,0517, ","102","0,0814, ","1164","9","31.65"," ,0","0.0"," ,0","70.5","0","81.6","0","59.4","0"
"USC00417183","PORT LAVACA, TX US","28.6079","-96.6416","5.5","2009","3705",,"        0",,"         0","0","27","0,1205, ","0","T,0,1205, ","0.0","T,0,1205, ","5.18"," ,0,0528, ","99","0,0829,+",,,"32.65"," ,0","0.0","T,0","72.2","0","81.1","0","63.4","0"
"USC00417184","PORT MANSFIELD, TX US","26.5577","-97.4263","2.7","2009",,,"        0",,"         0","0",,,"0"," ,0,1231,+","0.0"," ,0,1231,+","2.85"," ,0,0922, ",,,,,"17.36"," ,0","0.0"," ,0",,,,,,
"USC00417186","PORT O CONNOR, TX US","28.4342","-96.4277","1.5","2009","3227",,"        0",,"         0","0","31","0,0201, ","0"," ,0,1231,+","0.0"," ,0,1231,+","4.50"," ,0,1026, ","97","0,0901,+",,,"38.86"," ,0","0.0"," ,0","71.4","0","79.3","0","63.5","0"
"USR0000TBRA","BRAZORIA NWR TEXAS, TX US","29.1417","-95.2917","3.0","2009","3337",,,,,,"28","U,0121,+",,,,,,,"103","U,0625, ",,,,,,,"70.8","U","81.4","U","60.3","U"
"USC00411880","COLETO CREEK RESERVOIR, TX US","28.7156","-97.1742","36.0","2009","3306",,"        0",,"         0","0","25","0,1207,+","0"," ,0,1231,+","0.0"," ,0,1231,+","2.31"," ,0,1121, ","102","0,0813,+","1098","1","27.82"," ,0","0.0"," ,0","70.5","0","81.9","0","59.2","0"
"USC00419125","TRENTON, TX US","33.4311","-96.3397","229.8","2009",,,"        0",,"         0","0",,,"0"," ,0,1231,+","0.0"," ,0,1231,+",,,,,,,,,"0.0"," ,0",,,,,,
"USC00419367","VICTORIA REGIONAL AIRPORT, TX US","28.8439","-96.9214","31.7","2009","3719",,"        0",,"         0","0","29","0,0129,+","0"," ,0,1231,+","0.0"," ,0,1231,+","1.96"," ,0,1004, ","103","0,0813, ","960","4","30.37"," ,0","0.0"," ,0","72.4","0","82.5","0","62.3","0"
"USC00410518","BARDWELL DAM, TX US","32.263","-96.6369","140.5","2009",,,"        0",,"         0","0",,,"0"," ,0,1231,+","0.0"," ,0,1231,+","3.95"," ,0,0312, ",,,,,"51.20"," ,0","0.0"," ,0",,,,,,
"USW00003971","DALLAS REDBIRD AIRPORT, TX US","32.68083","-96.86806","200.6","2009","2709",,,,,,"21","W,0128, ",,,,,"5.33"," ,W,0913, ","105","W,0713, ","1849","3","50.96"," ,W",,,"66.8","W","77.3","W","56.3","W"
"USC00419330","VEGA 2 NW, TX US","35.2774","-102.4633","1218.6","2009",,,,,"         7","0",,,,,"8.0"," ,0,0328, ","1.32"," ,0,1020, ",,,,,"16.25"," ,0","18.9"," ,0",,,,,,
"USC00416060","MORGAN MILL, TX US","32.3841","-98.1702","321.9","2009",,,"        0",,"         2","0",,,"0"," ,0,1231,+","3.0"," ,0,1226, ","5.11"," ,0,0913, ",,,,,"35.76"," ,0","4.0"," ,0",,,,,,
"USC00410764","BIG BEND RANCH STATE PARK, TX US","29.4371","-103.9582","1261.9","2009",,,,,,,,,,,,,,,,,,,,,,,,,,,,
"US1TXGP0029","SCHERTZ 2.2 N, TX US","29.585565","-98.255353","232.6","2009",,,,,,,,,,,,,"5.84"," ,N,1004, ",,,,,"33.32"," ,N",,,,,,,,
"USC00416074","MORTON, TX US","33.7187","-102.75866","1147.9","2009","1649",,,,"         4","0","10","0,1210,+",,,"3.0"," ,0,1224, ","2.15"," ,0,0718, ","104","0,0709, ","3228","5","17.77"," ,0","7.7"," ,0","60.0","0","75.7","0","44.3","0"
"USC00419588","WESLACO, TX US","26.178","-97.9708","22.9","2009",,,"        0",,"         0","0",,,"0"," ,0,1231,+","0.0"," ,0,1231,+",,,,,"464","8","21.73"," ,0","0.0"," ,0",,,,,,
"USC00419101","TOWN BLUFF DAM, TX US","30.793","-94.1819","65.2","2009","2447",,"        0",,"         0","0","23","0,1205, ","0"," ,0,1231,+","0.0"," ,0,1231,+","5.80"," ,0,0504, ","102","0,0703, ","1615","1","62.88"," ,0","0.0"," ,0","66.6","0","77.1","0","56.1","0"
"USW00003999","BURNET MUNICIPAL AIRPORT, TX US","30.7406","-98.2354","392.6","2009","2725",,,,,,"20","A,1205, ",,,,,,,"103","A,0716,+","1557","8",,,,,"67.4","A","78.7","A","56.1","A"
"USW00003991","DENTON MUNICPAL AIRPORT, TX US","33.20611","-97.19889","195.7","2009","2328",,,,,,"16","W,0128, ",,,,,"2.82"," ,W,1009, ","106","W,0713, ","2447","4","39.62"," ,W",,,"64.3","W","76.1","W","52.4","W"
"USC00410738","BERTRAM 3 ENE, TX US","30.7625","-98.0213","344.1","2009",,,"        0",,"         0","0",,,"0","T,0,1230,+","0.0","T,0,1230,+",,,,,,,"38.77"," ,0","0.0","T,0",,,,,,
"USC00415193","LEXINGTON, TX US","30.4065","-97.0134","128.9","2009","3014",,"        0",,"         0","0","21","0,1204, ","0"," ,0,1231,+","0.0"," ,0,1231,+","2.50"," ,0,1021, ","106","0,0625, ","1708","1","33.86"," ,0","0.0"," ,0","68.1","0","79.9","0","56.2","0"
"US1TXTR0003","WOODVILLE 7.2 S, TX US","30.6704","-94.4295","51.8","2009",,,,,,,,,,,,,"3.61"," ,N,0504, ",,,,,"52.00"," ,N",,,,,,,,
"USC00415192","LEWISVILLE DAM, TX US","33.0694","-97.0094","169.5","2009",,,"        0",,"         0","0",,,"0"," ,0,1231,+","0.0"," ,0,1231,+","3.44"," ,0,0503, ",,,,,"44.79"," ,0","0.0"," ,0",,,,,,
"USC00416280","NEW CANEY 2 E, TX US","30.1374","-95.1783","71.6","2009",,,"        0",,"         0","0",,,"0"," ,0,1231,+","0.0"," ,0,1231,+","3.80"," ,0,0428, ",,,,,"49.47"," ,0","0.0"," ,0",,,,,,
"USC00419313","VANDERPOOL 4 N, TX US","29.8075","-99.5763","556.3","2009",,,"        0",,"         0","0",,,"0","T,0,1204, ","0.0","T,0,1204, ","3.93"," ,0,0312, ",,,,,"25.31"," ,0","0.0","T,0",,,,,,
"USC00415196","LIBERTY, TX US","30.0591","-94.7949","10.7","2009",,,"        0",,"         0","0",,,"0"," ,0,1231,+","0.0"," ,0,1231,+","3.00"," ,0,0418, ",,,,,"62.90"," ,0","0.0"," ,0",,,,,,
"USC00418468","SOUTH CAMP 6666, TX US","33.5055","-100.4413","570.0","2009",,,"        2",,"         1","0",,,"3"," ,0,1224, ","2.5"," ,0,1224, ","2.31"," ,0,0701, ",,,,,"21.13"," ,0","2.5"," ,0",,,,,,
"USC00419312","VANDERPOOL 10 N, TX US","29.8453","-99.5519","696.2","2009",,,"        0",,"         0","0",,,"0"," ,0,1231,+","0.0"," ,0,1231,+","3.00"," ,0,0312, ",,,,,"19.67"," ,0","0.0"," ,0",,,,,,
"USC00419559","WELDER W LIFE FOUNDATION, TX US","28.1136","-97.4177","15.2","2009","3631",,"        0",,"         0","0","26","0,1206, ","0"," ,0,1231,+","0.0"," ,0,1231,+","4.14"," ,0,1120, ","100","0,0828,+","958","2","31.87"," ,0","0.0"," ,0","71.9","0","81.8","0","62.1","0"
"USR0000TSOU","SOUTHERN ROUGH TEXAS, TX US","30.5403","-94.3411","30.5","2009","2650",,,,,,"13","U,0304, ",,,,,,,"105","U,0702,+","1705","0",,,,,"67.2","U","79.9","U","54.4","U"
"USC00411838","CLODINE, TX US","29.7067","-95.6878","26.5","2009",,,"        0",,"         0","0",,,"0"," ,0,1231,+","0.0"," ,0,1231,+","6.91"," ,0,0428, ",,,,,"48.06"," ,0","0.0"," ,0",,,,,,
"USC00410509","BANKERSMITH, TX US","30.14","-98.8188","533.4","2009",,,"        0",,"         0","0",,,"0"," ,0,1231,+","0.0"," ,0,1231,+","3.15"," ,0,0311, ",,,,,"23.71"," ,0","0.0"," ,0",,,,,,
"USC00417140","POINT COMFORT, TX US","28.6575","-96.5553","6.1","2009","3599",,"        0",,"         0","0","28","0,1207, ","0"," ,0,1231,+","0.0"," ,0,1231,+","5.18"," ,0,0528, ","99","0,0831,+",,,"32.58"," ,0","0.0"," ,0","72.2","0","80.4","0","64.0","0"
"USC00416050","MONKSTOWN, TX US","33.7944","-95.923","146.3","2009",,,"        0",,"         0","0",,,"0"," ,0,1231,+","0.0"," ,0,1231,+","3.31"," ,0,0430, ",,,,,"60.96"," ,0","0.0"," ,0",,,,,,
"USC00418477","SOUTHLAND, TX US","33.3613","-101.5516","1011.9","2009",,,"        2",,"         3","0",,,"4"," ,0,1225,+","4.0"," ,0,1224, ","1.15"," ,0,0910, ",,,,,"14.19"," ,0","6.8"," ,0",,,,,,
"USC00418236","SHAMROCK NUMBER 2, TX US","35.215","-100.2502","719.3","2009","1558",,"        6",,"         4","0","6","0,0128, ","3"," ,0,0328, ","6.0"," ,0,0328, ","2.68"," ,0,0705, ","105","0,0711, ","3625","9","21.07"," ,0","11.9"," ,0","58.6","0","72.5","0","44.8","0"
"USR0000TMCF","MCFADDEN TEXAS, TX US","29.7","-94.1167","1.5","2009","3046",,,,,,"29","U,1205, ",,,,,,,"97","U,0625,+",,,,,,,"69.7","U","77.4","U","62.0","U"
"USC00418232","SHALLOWATER, TX US","33.6877","-101.9854","1011.3","2009",,,"        6",,"         2","0",,,"7"," ,0,1224, ","7.0"," ,0,1224, ","1.23"," ,0,0620, ",,,,,"15.59"," ,0","9.1"," ,0",,,,,,
"USC00416058","MORGAN, TX US","32.0138","-97.6131","221.9","2009",,,,,,,,,,,,,,,,,,,,,,,,,,,,
"USC00419565","WELLINGTON, TX US","34.8422","-100.2102","621.8","2009","2040",,"        3",,"         3","0","8","0,0128, ","4"," ,0,1224, ","4.0"," ,0,1224, ",,,"107","0,0716,+","2862","0",,,"8.5"," ,0","62.2","0","76.6","0","47.8","0"
"USW00022010","DEL RIO INTERNATIONAL AIRPORT, TX US","29.3784","-100.927","304.5","2009","3744",,,,,,"27","0,1205, ",,,,,"2.68"," ,0,0619, ","107","0,0506, ","1162","8","12.92"," ,0",,,"71.6","0","83.5","0","59.7","0"
"US1TXFB0012","SUGAR LAND 1.0 W, TX US","29.616623","-95.633224","21.9","2009",,,,,,,,,,,,,"3.46"," ,N,0419, ",,,,,"44.91"," ,N",,,,,,,,
"USW00022016","PANTHER JUNCTION 2 N, TX US","29.3483","-103.2093","1065.0","2009","2630",,,,,,"23","R,1225,+",,,,,"1.76"," ,R,0618, ","106","R,0508, ","1532","2","10.96"," ,R",,,"67.4","R","81.7","R","53.2","R"
"US1TXGP0001","NEW BRAUNFELS 2.7 S, TX US","29.665467","-98.117852","213.1","2009",,,,,,,,,,,,,"5.95"," ,N,0911, ",,,,,"32.21"," ,N",,,,,,,,
"USC00410958","BORGER, TX US","35.66884","-101.40233","930.6","2009","1554",,"        2",,"         2","0","3","0,1210, ","2"," ,0,0327, ","1.8"," ,0,1231, ","2.04"," ,0,0903, ","107","0,0709, ","3292","8","20.19"," ,0","5.3"," ,0","59.2","0","73.5","0","44.9","0"
"US1TXJW0003","ORANGE GROVE 8.1 WNW, TX US","27.991733","-98.065256","88.1","2009",,,,,,,,,,,,,"1.49"," ,N,0911, ",,,,,"20.15"," ,N",,,,,,,,
"USC00414081","HENDERSON, TX US","32.1809","-94.7963","128.0","2009","2258",,"        0",,"         0","0","20","0,1205, ","0","T,0,1224,+","0.0","T,0,1224,+","2.94"," ,0,0312, ","102","0,0703, ","2263","3","53.35"," ,0","0.0","T,0","64.8","0","76.1","0","53.5","0"
"USC00418446","SOMERVILLE DAM, TX US","30.3368","-96.5402","80.2","2009","2808",,"        0",,"         0","0","16","0,1205, ","0"," ,0,1231,+","0.0"," ,0,1231,+","2.78"," ,0,1004, ","109","0,0626, ","1746","8","37.10"," ,0","0.0"," ,0","67.2","0","82.0","0","52.5","0"
"USC00417594","RICHMOND, TX US","29.5838","-95.7552","30.8","2009",,,"        0",,"         0","0",,,"0"," ,0,1231,+","0.0"," ,0,1231,+","2.88"," ,0,0419, ",,,,,"37.04"," ,0","0.0"," ,0",,,,,,
"USC00417111","PLEASANTON, TX US","28.9605","-98.4772","109.1","2009",,,"        0",,"         0","0",,,"0"," ,0,1231,+","0.0"," ,0,1231,+","2.38"," ,0,0913, ",,,"1306","7","25.88"," ,0","0.0"," ,0",,,,,,
"USC00418201","SEMINOLE, TX US","32.7131","-102.6596","1016.8","2009",,,,,,,,,,,,,,,,,,,,,,,,,,,,
"USC00418449","SONORA, TX US","30.583","-100.6502","651.7","2009",,,"        0",,"         0","0",,,"0"," ,0,1231,+","0.0"," ,0,1231,+","2.45"," ,0,0428, ",,,,,"25.43"," ,0","0.0"," ,0",,,,,,
"USC00411810","CLEVELAND, TX US","30.3637","-95.084","59.7","2009","2587",,"        0",,"         0","0","22","0,1206,+","0"," ,0,1231,+","0.5"," ,0,1205, ","3.70"," ,0,1030, ","99","0,0716,+","1779","6","53.40"," ,0","0.5"," ,0","67.0","0","78.4","0","55.6","0"
"US1TXFB0002","FULSHEAR 3.5 E, TX US","29.69446","-95.826412","42.1","2009",,,,,,,,,,,,,,,,,,,"39.87"," ,N",,,,,,,,
"USR0000TMAT","MATAGORDA ISLAND TEXAS, TX US","28.1228","-96.8022","11.0","2009","3357",,,,,,"30","U,1205, ",,,,,,,"96","U,0830,+","657","9",,,,,"71.8","U","79.1","U","64.4","U"
"US1TXFB0005","SUGAR LAND .5 SE, TX US","29.610741","-95.633544","29.0","2009",,,,,,,,,,,,,"3.62"," ,N,0419, ",,,,,"45.00"," ,N",,,,,,,,
"USC00412906","ENCINAL, TX US","27.9774","-99.3847","166.1","2009",,,,,,,,,,,,,,,,,"1008","8",,,,,,,,,,
"USR0000TMAS","MASON TEXAS, TX US","30.7358","-99.1861","445.9","2009","2682",,,,,,"20","U,1205, ",,,,,,,"105","U,0823, ","1595","4",,,,,"67.2","U","80.1","U","54.3","U"
"USC00418692","STRATFORD, TX US","36.4415","-102.0776","1098.2","2009","1113",,"        2",,"         2","0","2","0,1211,+","5"," ,0,0328, ","5.0"," ,0,0328, ","1.21"," ,0,0818, ","104","0,0710, ","4463","5","14.25"," ,0","10.2"," ,0","55.0","0","70.1","0","39.9","0"
"USC00415183","LEVELLAND, TX US","33.5501","-102.3758","1071.1","2009","1613",,"        6",,"         3","0","6","0,1225, ","5"," ,0,1224, ","4.7"," ,0,1224, ","1.50"," ,0,0723, ","105","0,0710, ","3249","1","15.42"," ,0","10.3"," ,0","59.7","0","74.4","0","45.0","0"
"USC00416270","NEW BOSTON, TX US","33.4547","-94.4088","105.2","2009",,,"        0",,"         0","0",,,"0"," ,0,1231,+","0.0"," ,0,1231,+","8.15"," ,0,0510, ",,,,,"81.88"," ,0","0.0"," ,0",,,,,,
"USC00416276","NEW BRAUNFELS, TX US","29.6596","-98.1636","219.5","2009",,,"        0",,"         0","0",,,"0"," ,0,1231,+","0.0"," ,0,1231,+","4.00"," ,0,0911, ",,,"1646","4","28.70"," ,0","0.0"," ,0",,,,,,
"US1TXWO0010","ELMENDORF 5.6 ENE, TX US","29.282869","-98.245602","182.9","2009",,,,,,,,,,,,,"3.34"," ,N,0528, ",,,,,"34.11"," ,N",,,,,,,,
"USC00414098","HEREFORD, TX US","34.8172","-102.4002","1164.3","2009","1316",,,,"         5","0","6","0,1210, ",,,"2.0"," ,0,1130, ","1.22"," ,0,0706, ","102","0,0710, ","3974","9","15.90"," ,0","8.0"," ,0","56.9","0","72.0","0","41.8","0"
"USR0000TMAA","MATADOR W.M.A. TEXAS, TX US","34.1333","-100.4167","579.1","2009","2122",,,,,,"11","U,1226,+",,,,,,,"107","U,0710, ","2754","0",,,,,"62.5","U","76.5","U","48.4","U"
"USC00417365","QUITMAN 2, TX US","32.793","-95.435","125.9","2009",,,"        0",,"         0","0",,,"0"," ,0,1231,+","0.0"," ,0,1231,+",,,,,,,,,"0.0"," ,0",,,,,,
"USC00418696","STRAWN 8 NNE, TX US","32.6591","-98.4677","359.7","2009",,,"        0",,"         1","0",,,"0"," ,0,1231,+","5.0"," ,0,1224, ","3.30"," ,0,0911, ",,,,,"32.09"," ,0","5.0"," ,0",,,,,,
"USC00418415","SMITHVILLE, TX US","30.0093","-97.1644","96.6","2009","2986",,"        0",,"         0","0","21","0,0114, ","0"," ,0,1231,+","0.0"," ,0,1231,+","2.90"," ,0,0418, ","106","0,0626, ","1562","9","38.75"," ,0","0.0"," ,0","68.6","0","81.4","0","55.8","0"
"USC00417327","PUTNAM, TX US","32.36644","-99.19245","494.1","2009","2362",,"        4",,"         3","0","11","0,1226, ","7"," ,0,1225, ","11.0"," ,0,1225, ","2.14"," ,0,0516, ","106","0,0710, ","2425","0","27.29"," ,0","14.3"," ,0","64.2","0","77.5","0","50.9","0"
"USC00418658","STOCKDALE 6 N, TX US","29.3258","-97.9752","161.5","2009",,,"        0",,"         0","0",,,"0"," ,0,1231,+","0.0"," ,0,1231,+","3.55"," ,0,1004, ",,,,,"38.86"," ,0","0.0"," ,0",,,,,,
"USC00419504","WATSON, TX US","30.9297","-98.022","310.3","2009",,,"        0",,"         0","0",,,"0"," ,0,1231,+","0.0"," ,0,1231,+","4.30"," ,0,1022, ",,,,,"38.13"," ,0","0.0"," ,0",,,,,,
"US1TXBST012","ROSANKY 2.8 WNW, TX US","29.860777","-97.394218","162.2","2009",,,,,,,,,,,,,"2.89"," ,N,1022, ",,,,,"36.47"," ,N",,,,,,,,
"USC00419754","WILDWOOD, TX US","30.5347","-94.4455","61.0","2009","2790",,"        1",,"         1","0","22","0,1206,+","1"," ,0,1205, ","1.2"," ,0,1205, ","4.05"," ,0,0214, ","103","0,0716,+","1685","9","55.68"," ,0","1.2"," ,0","67.6","0","79.6","0","55.6","0"
"USC00415158","LENORAH, TX US","32.308","-101.8776","867.2","2009",,,,,,,,,,,,,,,,,,,,,,,,,,,,
"USC00417574","RHINELAND NUMBER 2, TX US","33.52667","-99.65472","429.8","2009",,,,,"         1","0",,,,,"3.5"," ,0,1225, ","1.91"," ,0,0524, ",,,,,"24.21"," ,0","3.5"," ,0",,,,,,
"US1TXBST007","BASTROP 1.2 N, TX US","30.1306","-97.3025","134.1","2009",,,,,,,,,,,,,"2.88"," ,N,0418, ",,,,,"35.75"," ,N",,,,,,,,
"US1TXTV0041","WELLS BRANCH 1.2 NNW, TX US","30.46058","-97.688157","278.0","2009",,,,,,,,,,,,,"2.14"," ,N,0912, ",,,,,"37.98"," ,N",,,,,,,,
"US1TXTV0043","PFLUGERVILLE 2.6 N, TX US","30.478636","-97.619756","207.9","2009",,,,,,,,,,,,,,,,,,,"31.54"," ,N",,,,,,,,
"US1TXLV0003","SHINER 5.1 ESE, TX US","29.41122","-97.09046","93.0","2009",,,,,,,,,,,,,,,,,,,"38.64"," ,N",,,,,,,,
"US1TXLV0004","SHINER 1.9 E, TX US","29.429125","-97.140986","102.1","2009",,,,,,,,,,,,,"4.67"," ,N,1005, ",,,,,"43.39"," ,N",,,,,,,,
"USC00417586","RICHARDS, TX US","30.5381","-95.8458","96.0","2009",,,,,,,,,,,,,,,,,,,,,,,,,,,,
"USC00418433","SNYDER, TX US","32.7101","-100.9112","706.8","2009",,,,,,,,,,,,,,,,,,,,,,,,,,,,
"USC00414077","HEMPHILL 6 NE, TX US","31.4072","-93.7841","54.9","2009","2654",,"        0",,"         0","0","24","0,1205, ","0"," ,0,1231,+","0.0","T,0,1205, ","6.00"," ,0,1027, ","107","0,0703, ","1796","9","63.46"," ,0","0.0","T,0","66.9","0","78.1","0","55.8","0"
"USC00415127","LEFORS, TX US","35.4416","-100.8113","853.4","2009",,,"        1",,"         4","0",,,"6"," ,0,0330, ","6.0"," ,0,0330, ","1.46"," ,0,0704, ",,,,,"19.19"," ,0","13.0"," ,0",,,,,,
"USC00415369","LOS ANGELES 4 WSW, TX US","28.4477","-99.0655","87.8","2009",,,"        0",,"         0","0",,,"0"," ,0,1231,+","0.0"," ,0,1231,+","2.92"," ,0,0911, ",,,,,"15.18"," ,0","0.0"," ,0",,,,,,
"USC00418877","TEAGUE RANCH, TX US","30.4332","-98.8097","524.3","2009",,,"        0",,"         0","0",,,"0"," ,0,1231,+","0.0"," ,0,1231,+","3.50"," ,0,0311, ",,,,,"44.15"," ,0","0.0"," ,0",,,,,,
"USC00413195","FLOMOT 2 E, TX US","34.2319","-100.9561","720.9","2009",,,"        3",,"         3","0",,,"5"," ,0,1224, ","5.0"," ,0,1224, ","1.41"," ,0,0430, ",,,,,"18.30"," ,0","7.4"," ,0",,,,,,
"USC00413196","FLOMOT 4 NE, TX US","34.2675","-100.9336","719.3","2009",,,"        2",,"         1","0",,,"4"," ,0,1224, ","4.0"," ,0,1224, ","1.52"," ,0,0815, ",,,,,"16.79"," ,0","5.0"," ,0",,,,,,
"US1TXJK0001","EDNA 4.6 SSE, TX US","28.9099","-96.6286","18.0","2009",,,,,,,,,,,,,"1.92"," ,N,1202, ",,,,,"28.41"," ,N",,,,,,,,
"US1TXBXR118","LACKLAND AFB 2.0 NNW, TX US","29.411358","-98.634803","228.3","2009",,,,,,,,,,,,,"2.64"," ,N,1004, ",,,,,"27.63"," ,N",,,,,,,,
"USC00413199","FLORENCE, TX US","30.8394","-97.7927","300.5","2009",,,,,"         0","0",,,,,"0.3"," ,0,0210, ",,,,,,,,,"0.3"," ,0",,,,,,
"USC00417791","ROUND ROCK 3 NE, TX US","30.5415","-97.6351","219.8","2009",,,"        0",,"         0","0",,,"0"," ,0,1231,+","0.0"," ,0,1231,+","2.35"," ,0,1005, ",,,,,"33.75"," ,0","0.0"," ,0",,,,,,
"USC00417550","REMUDA, TX US","32.81361","-97.57556","259.1","2009","2781",,"        0",,"         3","0","19","0,0128, ","0"," ,0,1231,+","3.5"," ,0,1225, ","3.60"," ,0,0611, ","105","0,0714, ","1856","2","44.05"," ,0","7.3"," ,0","67.3","0","78.0","0","56.6","0"
"US1TXTV0068","JOLLYVILLE 1.6 SSE, TX US","30.428989","-97.737413","254.8","2009",,,,,,,,,,,,,"2.69"," ,N,0912, ",,,,,"39.09"," ,N",,,,,,,,
"USR0000TKIR","KIRBYVILLE TEXAS, TX US","30.4333","-93.8833","91.4","2009","2773",,,,,,"27","U,0121,+",,,,,,,"107","U,0702, ","1515","7",,,,,"68.1","U","79.3","U","56.8","U"
"USW00093042","DALHART FAA AIRPORT, TX US","36.0167","-102.55","1216.2","2009","1103",,,,,,"4","0,1209,+",,,,,"2.05"," ,0,0726, ","104","0,0709, ","4181","9","14.45"," ,0",,,"55.5","0","71.1","0","39.8","0"
"USC00418646","STILLHOUSE HOLLOW DAM, TX US","31.0372","-97.5283","215.2","2009",,,,,"         0","0",,,,,"0.0"," ,0,1231,+","5.38"," ,0,0912, ",,,"1708","7","41.85"," ,0","0.0"," ,0",,,,,,
"USC00410926","BONITA 7 NW, TX US","33.8186","-97.7336","298.7","2009",,,,,,,,,,,,,,,,,,,,,,,,,,,,
"US1TXTV0065","LOST CREEK 2.7 NW, TX US","30.325904","-97.871086","227.7","2009",,,,,,,,,,,,,"2.50"," ,N,0905, ",,,,,"36.48"," ,N",,,,,,,,
"USC00419501","WATER VALLEY 11 NNE, TX US","31.8136","-100.6286","748.3","2009",,,"        2",,"         2","0",,,"2"," ,0,1230,+","2.0"," ,0,1204, ","2.40"," ,0,0603, ",,,,,"24.43"," ,0","3.8"," ,0",,,,,,
"US1TXCHK001","BULLARD 3.7 E, TX US","32.136111","-95.256389","124.4","2009",,,,,,,,,,,,,"2.77"," ,N,1022, ",,,,,"49.30"," ,N",,,,,,,,
"USC00414058","HEBBRONVILLE, TX US","27.3194","-98.6775","176.8","2009",,,,,,,,,,,,,,,,,,,,,,,,,,,,
"US1TXED0002","ROCKSPRINGS 5.4 NW, TX US","30.06525","-100.2825","719.9","2009",,,,,,,,,,,,,,,,,,,"23.17"," ,N",,,,,,,,
"US1TXED0001","ROCKSPRINGS 17.2 SW, TX US","29.83546","-100.40844","574.9","2009",,,,,,,,,,,,,"1.87"," ,N,1120, ",,,,,"17.43"," ,N",,,,,,,,
"USC00414020","HAWKINS, TX US","32.5781","-95.2034","102.1","2009",,,"        0",,"         0","0",,,"0","T,0,1225, ","0.0","T,0,1225, ","4.72"," ,0,0914, ",,,,,"58.54"," ,0","0.0","T,0",,,,,,
"USC00418862","TAYLOR 1 NW, TX US","30.5844","-97.4156","174.0","2009","2909",,"        0",,"         0","0","20","0,1205, ","0","T,0,0128, ","0.0","T,0,1230,+","2.42"," ,0,0913, ","105","0,0709,+","1789","8","36.91"," ,0","0.0","T,0","67.5","0","79.5","0","55.5","0"
"USC00419952","YOAKUM, TX US","29.2738","-97.1555","89.9","2009",,,"        0",,"         0","0",,,"0"," ,0,1231,+","0.0"," ,0,1231,+","6.28"," ,0,1005, ","103","0,0813,+",,,"39.68"," ,0","0.0"," ,0",,,"81.0","0",,
"US1TXBRT002","MARBLE FALLS 2.7 SE, TX US","30.550485","-98.240923","240.2","2009",,,,,,,,,,,,,"3.21"," ,N,1022, ",,,,,"36.17"," ,N",,,,,,,,
"USC00412082","CRANE, TX US","31.4072","-102.3577","778.5","2009",,,,,,,,,,,,,,,,,,,,,,,,,,,,
"USC00418863","TAYLOR RANCH, TX US","30.97303","-98.94323","556.3","2009",,,"        1",,"         1","0",,,"1"," ,0,1204, ","1.0"," ,0,1204, ","3.28"," ,0,0613, ",,,,,"35.54"," ,0","1.0"," ,0",,,,,,
"USC00417533","REFUGIO 2 NW, TX US","28.3294","-97.2947","13.7","2009","3437",,"        0",,"         0","0","25","0,1205, ","0","T,0,1205, ","0.0","T,0,1205, ","4.24"," ,0,1120, ","102","0,0813, ",,,"30.84"," ,0","0.0","T,0","71.1","0","81.8","0","60.4","0"
"USC00416680","ORANGE 9 N, TX US","30.2263","-93.7394","5.5","2009",,,"        0",,"         0","0",,,"0"," ,0,1231,+","0.0"," ,0,1231,+",,,"100","0,0625, ",,,"54.56"," ,0","0.0"," ,0",,,"76.4","0",,
"USC00419711","WHITE RIVER RESERVOIR, TX US","33.45611","-101.0925","735.2","2009","1950",,"        2",,"         2","0","11","0,1225, ","2"," ,0,1225,+","2.0"," ,0,1224, ","1.25"," ,0,0729, ","105","0,0710, ","2857","0","13.13"," ,0","3.0"," ,0","61.6","0","75.7","0","47.4","0"
"USC00419953","YORKTOWN, TX US","28.9802","-97.5185","79.2","2009",,,"        0",,"         0","0",,,"0"," ,0,1231,+","0.0"," ,0,1231,+","3.72"," ,0,0418, ",,,,,"41.80"," ,0","0.0"," ,0",,,,,,
"US1TXBRT005","MARBLE FALLS 0.7 NW, TX US","30.587315","-98.27883","251.5","2009",,,,,,,,,,,,,"3.20"," ,N,0312, ",,,,,"35.56"," ,N",,,,,,,,
"USC00415596","MARFA 2, TX US","30.3125","-104.07222","1460.0","2009",,,,,,,,,,,,,,,,,,,,,,,,,,,,
"USC00412088","CRAWFORD, TX US","31.5333","-97.4525","214.9","2009",,,"        0",,"         0","0",,,"0"," ,0,1231,+","0.0"," ,0,1231,+","4.28"," ,0,0912, ",,,,,"44.52"," ,0","0.0"," ,0",,,,,,
"USC00417530","REFUGIO 3 SW, TX US","28.2939","-97.3297","16.5","2009","3609",,"        0",,"         0","0","26","0,1205,+","0"," ,0,1231,+","0.0"," ,0,1231,+","4.00"," ,0,1120, ","103","0,0626, ","1015","9","27.29"," ,0","0.0"," ,0","71.7","0","82.8","0","60.5","0"
"USC00416448","NORTHINGTON RANCH, TX US","29.8648","-98.6582","434.3","2009",,,"        0",,"         0","0",,,"0"," ,0,1231,+","0.0"," ,0,1231,+","2.98"," ,0,1022, ",,,,,"32.10"," ,0","0.0"," ,0",,,,,,
"USC00419717","WHITSETT, TX US","28.6314","-98.2775","63.4","2009",,,"        0",,"         0","0",,,"0"," ,0,1231,+","0.0"," ,0,1231,+","3.90"," ,0,0911, ",,,,,"27.64"," ,0","0.0"," ,0",,,,,,
"USC00410902","BOERNE, TX US","29.7986","-98.7353","440.4","2009","2732",,"        0",,"         0","0","18","0,1205, ","0"," ,0,1231,+","0.0"," ,0,1231,+","3.85"," ,0,1022, ","102","0,0824,+","1731","8","32.67"," ,0","0.0"," ,0","67.0","0","79.9","0","54.2","0"
"USC00416210","NAVARRO MILLS DAM, TX US","31.9611","-96.688","138.4","2009","2548",,"        0",,"         0","0","15","0,0301,+","0"," ,0,1231,+","0.0"," ,0,1231,+","2.63"," ,0,0312, ","103","0,0714,+",,,"40.98"," ,0","0.0"," ,0","65.7","0","77.8","0","53.6","0"
"USC00417300","PROCTOR RESERVOIR, TX US","31.9633","-98.4941","372.2","2009",,,"        0",,"         0","0",,,"0"," ,0,1231,+","0.0"," ,0,1231,+","2.28"," ,0,0913, ","101","0,0827,+",,,"31.34"," ,0","0.0"," ,0",,,"77.3","0",,
"USC00415120","LEES, TX US","32.082","-101.4842","685.8","2009",,,,,,,,,,,,,,,,,,,,,,,,,,,,
"USC00419962","YOUNGSPORT, TX US","30.9597","-97.7183","224.0","2009",,,,,,,,,,,,,,,,,,,,,,,,,,,,
"USC00412096","CRESSON, TX US","32.5286","-97.6188","316.7","2009",,,"        0",,"         0","0",,,"0"," ,0,1231,+","0.0"," ,0,1231,+","3.08"," ,0,1022, ",,,,,"43.38"," ,0","0.0"," ,0",,,,,,
"USC00413183","FLATONIA 4 SE, TX US","29.634","-97.0645","143.3","2009",,,"        0",,"         0","0",,,"0"," ,0,1231,+","0.0"," ,0,1231,+","8.22"," ,0,0418, ",,,"1267","8","36.07"," ,0","0.0"," ,0",,,,,,
"USC00417787","ROUND MOUNTAIN, TX US","30.4247","-98.3493","392.6","2009",,,"        0",,"         0","0",,,"0"," ,0,1231,+","0.0"," ,0,1231,+","3.52"," ,0,1022, ",,,,,"34.86"," ,0","0.0"," ,0",,,,,,
"USC00414278","HORDS CREEK DAM, TX US","31.84555","-99.56068","594.1","2009","1930",,"        0",,"         0","0","13","0,0128, ","0"," ,0,1231,+","0.0"," ,0,1231,+",,,"102","0,0615,+",,,"22.77"," ,0","0.0"," ,0","63.8","0","77.2","0","50.4","0"
"USC00417782","ROTAN, TX US","32.85544","-100.46116","608.1","2009",,,,,"         2","0",,,,,"5.0"," ,0,1224, ","3.85"," ,0,0701, ",,,"2493","8","26.28"," ,0","7.5"," ,0",,,,,,
"USC00418630","STERLING CITY, TX US","31.8347","-100.9827","694.9","2009",,,"        2",,"         1","0",,,"2"," ,0,1230, ","1.5"," ,0,1230, ","3.30"," ,0,0427, ",,,"2512","4","31.51"," ,0","2.9"," ,0",,,,,,
"USC00417744","ROSEBUD, TX US","31.0736","-96.9788","125.0","2009",,,"        0",,"         0","0",,,"0"," ,0,1231,+","0.0"," ,0,1231,+","2.90"," ,0,1023,+",,,,,"39.64"," ,0","0.0"," ,0",,,,,,
"US1TXVC0004","VICTORIA 1.3 E, TX US","28.822","-96.961","29.0","2009",,,,,"         0","N",,,,,"0.0"," ,N,1231,+","2.22"," ,N,1121, ",,,,,"31.88"," ,N","0.0"," ,N",,,,,,
"USC00417994","SAN SABA 7 NW, TX US","31.2841","-98.7588","405.4","2009","2370",,"        0",,"         0","0","18","0,0129,+","0"," ,0,1231,+","0.0"," ,0,1231,+","2.38"," ,0,0312, ","103","0,0727, ","2040","1","31.39"," ,0","0.0"," ,0","65.2","0","78.3","0","52.1","0"
"USC00413156","FISCHERS STORE, TX US","29.9745","-98.267","359.7","2009",,,"        0",,"         0","0",,,"0"," ,0,1231,+","0.0"," ,0,1231,+","3.30"," ,0,0909, ",,,,,"37.94"," ,0","0.0"," ,0",,,,,,
"USC00416664","ORANGE, TX US","30.0858","-93.7416","3.0","2009",,,"        0",,"         0","0",,,"0"," ,0,1231,+","0.0"," ,0,1231,+","5.35"," ,0,0419, ",,,,,"55.19"," ,0","0.0"," ,0",,,,,,
"USC00418845","TARPLEY 3 S, TX US","29.6075","-99.2801","397.8","2009",,,"        0",,"         0","0",,,"0"," ,0,1231,+","0.0"," ,0,1231,+","3.47"," ,0,0312, ",,,,,"29.43"," ,0","0.0"," ,0",,,,,,
"US1TXBST020","BASTROP 1.4 ESE, TX US","30.10849","-97.28321","158.2","2009",,,,,,,,,,,,,"3.18"," ,N,0912, ",,,,,"39.40"," ,N",,,,,,,,
"USR0000TMID","MIDLAND TEXAS, TX US","32.0","-102.0","854.0","2009","2418",,,,,,"15","U,0128, ",,,,,,,"104","U,0720,+",,,,,,,"65.0","U","78.6","U","51.3","U"
"US1TXED0012","ROCKSPRINGS 8.5 WSW, TX US","29.966556","-100.342389","709.0","2009",,,,,,,,,,,,,,,,,,,"14.62"," ,N",,,,,,,,
"USC00415341","LONGVIEW, TX US","32.4725","-94.7172","100.6","2009",,,"        0",,"         0","0",,,"0"," ,0,1231,+","0.0"," ,0,1231,+",,,,,,,"58.12"," ,0","0.0"," ,0",,,,,,
"USR0000TMIL","MILLER CREEK TEXAS, TX US","33.4136","-99.4006","406.9","2009","2521",,,,,,"10","U,1226,+",,,,,,,"109","U,0627, ","2452","3",,,,,"64.6","U","77.8","U","51.4","U"
"USC00415344","LONGVIEW NUMBER 2, TX US","32.5183","-94.7188","153.6","2009","2410",,"        0",,"         0","0","21","0,1205, ","0"," ,0,1231,+","0.0","T,0,1205, ","3.43"," ,0,0717, ","104","0,0717,+","2223","0","54.15"," ,0","0.0","T,0","65.2","0","76.8","0","53.7","0"
"USC00416433","NORTHFIELD, TX US","34.2605","-100.6013","630.9","2009",,,"        0",,"         1","0",,,"0","T,0,1230,+","1.0"," ,0,0314, ","1.76"," ,0,0913, ",,,,,"18.87"," ,0","1.5"," ,0",,,,,,
"USC00414254","HONDO, TX US","29.3365","-99.1386","267.9","2009",,,,,"         0","0",,,,,"0.0"," ,0,1231,+","3.91"," ,0,0911, ",,,,,"26.16"," ,0","0.0"," ,0",,,,,,
"USC00413005","EVANT 1 SSW, TX US","31.4625","-98.16194","379.5","2009",,,,,,,,,,,,,,,,,,,,,,,,,,,,
"US1TXBXR058","HOLLYWOOD PARK 3.3 ENE, TX US","29.609011","-98.431278","278.9","2009",,,,,,,,,,,,,"6.45"," ,N,1004, ",,,,,"32.85"," ,N",,,,,,,,
"USC00415667","MAUD, TX US","33.3322","-94.3436","93.0","2009",,,"        0",,"         0","0",,,"0"," ,0,1231,+","0.0"," ,0,1231,+","4.96"," ,0,0504, ",,,,,"73.46"," ,0","0.0"," ,0",,,,,,
"USC00414577","JEFFERSON, TX US","32.7692","-94.3591","64.3","2009",,,"        0",,"         0","0",,,"0"," ,0,1231,+","0.0"," ,0,1231,+","4.44"," ,0,0915, ",,,,,"64.09"," ,0","0.0"," ,0",,,,,,
"USC00415429","LULING, TX US","29.6755","-97.6577","121.9","2009","2903",,"        0",,"         0","0","22","0,1204,+","0"," ,0,1231,+","0.0"," ,0,1231,+","5.20"," ,0,0417, ","105","0,0705, ",,,"37.85"," ,0","0.0"," ,0","68.3","0","80.8","0","55.7","0"
"USC00415427","LUFKIN NUMBER 2, TX US","31.3416","-94.7325","93.0","2009",,,"        0",,"         0","0",,,"0"," ,0,1231,+","0.0"," ,0,1231,+",,,,,,,"40.61"," ,0","0.0"," ,0",,,,,,
"USC00418942","TEXARKANA, TX US","33.4368","-94.0773","118.9","2009","2067",,"        0",,"         0","0","21","0,0117,+","0"," ,0,1231,+","0.0"," ,0,1231,+","4.57"," ,0,0728, ","101","0,0717,+","2706","2","78.22"," ,0","0.0"," ,0","63.0","0","72.8","0","53.1","0"
"USC00415430","LULING 12 NE, TX US","29.8402","-97.5672","135.6","2009",,,"        0",,"         0","0",,,"0"," ,0,1231,+","0.0"," ,0,1231,+","4.29"," ,0,1004, ",,,,,"35.15"," ,0","0.0"," ,0",,,,,,
"US1TXBXR048","HOLLYWOOD PARK 1.7 ESE, TX US","29.59027","-98.457922","269.1","2009",,,,,,,,,,,,,"6.54"," ,N,1004, ",,,,,"35.61"," ,N",,,,,,,,
"USR0000TBAS","BASTROP TEXAS, TX US","30.1742","-97.2564","116.7","2009","3398",,,,,,"21","U,1205, ",,,,,,,"108","U,0625, ","1392","6",,,,,"69.9","U","82.1","U","57.6","U"
"USC00414348","HUDSPETH RIVER RANCH, TX US","30.00483","-101.17721","478.5","2009","3140",,"        0",,"         0","0","21","0,1205, ","0","T,0,1204, ","0.0","T,0,1204, ","1.53"," ,0,1026, ","105","0,0709, ","1615","3","16.52"," ,0","0.0","T,0","68.8","0","82.5","0","55.1","0"
"USC00415435","LUMBERTON, TX US","30.2502","-94.1786","11.9","2009","2794",,"        0",,"         0","0","25","0,1206,+","0","T,0,1205, ","0.0","T,0,1205, ","2.62"," ,0,1023, ","104","0,0626,+","1461","9","50.18"," ,0","0.0","T,0","68.1","0","80.0","0","56.2","0"
"USC00416766","PALO PINTO, TX US","32.7663","-98.3083","317.0","2009",,,"        0",,"         0","0",,,"0"," ,0,1231,+","0.0"," ,0,1231,+","2.60"," ,0,0913, ",,,,,"35.06"," ,0","0.0"," ,0",,,,,,
"USC00413257","FORT MCKAVETT, TX US","30.82728","-100.11023","661.1","2009","2289",,"        1",,"         1","0","13","0,0130, ","1"," ,0,1204, ","1.0"," ,0,1204, ","2.10"," ,0,0417, ","104","0,0710,+",,,"25.41"," ,0","1.1"," ,0","64.4","0","78.6","0","50.2","0"
"USR0000TBAR","BARNHART TEXAS, TX US","30.9856","-101.1578","780.9","2009","2197",,,,,,"18","U,1225,+",,,,,,,"105","U,0612, ","2120","6",,,,,"64.5","U","78.2","U","50.9","U"
"USR0000TSBS","SABINE SOUTH TEXAS, TX US","31.2803","-93.8386","101.2","2009",,,,,,,,,,,,,,,,,"1851","3",,,,,,,,,,
"USC00412173","CUERO, TX US","29.0893","-97.3432","65.2","2009","3523",,"        0",,"         0","0","22","0,1206,+","0"," ,0,1231,+","0.0"," ,0,1231,+","7.50"," ,0,0419, ","106","0,0717, ","1224","1","38.69"," ,0","0.0"," ,0","70.7","0","83.9","0","57.6","0"
"USC00419800","WILLS POINT, TX US","32.7019","-96.015","158.5","2009","2281",,"        0",,"         0","0","22","0,1205, ","0","T,0,0128, ","0.1"," ,0,1225, ","4.13"," ,0,0503, ","103","0,0714, ","2353","0","55.76"," ,0","0.1"," ,0","64.3","0","75.0","0","53.6","0"
"USC00417622","RIO GRANDE CITY, TX US","26.3769","-98.8116","52.4","2009","4389",,"        0",,"         0","0","26","0,1204, ","0"," ,0,1231,+","0.0"," ,0,1231,+","3.70"," ,0,0922, ","108","0,0708,+","594","9","21.81"," ,0","0.0"," ,0","75.3","0","88.2","0","62.4","0"
"USC00413265","FORT GRIFFIN, TX US","32.9263","-99.2343","388.6","2009",,,"        0",,"         0","0",,,"0","T,0,0128, ","0.0","T,0,0128, ","3.10"," ,0,0913, ",,,,,"20.33"," ,0","0.0","T,0",,,,,,
"US1TXMLM003","ROCKDALE 1.7 S, TX US","30.630659","-97.010056","145.1","2009",,,,,,,,,,,,,"6.69"," ,N,0913, ",,,,,"39.44"," ,N",,,,,,,,
"USC00413266","FORT HANCOCK 8 SSE, TX US","31.1846","-105.7411","1064.7","2009",,,"        0",,"         0","0",,,"0"," ,0,1231,+","0.0"," ,0,1231,+","1.21"," ,0,0724, ","106","0,0715, ",,,"7.93"," ,0","0.0"," ,0",,,"80.6","0",,
"USC00414597","JOE POOL LAKE, TX US","32.6405","-96.9747","180.1","2009",,,,,"         0","0",,,,,"0.0"," ,0,1231,+","2.50"," ,0,0801, ",,,,,"50.28"," ,0","0.0"," ,0",,,,,,
"US1TXMLM002","ROCKDALE 3.6 SSW, TX US","30.608123","-97.031704","146.9","2009",,,,,,,,,,,,,"8.99"," ,N,0913, ",,,,,"43.37"," ,N",,,,,,,,
"USC00413225","FOLLETT, TX US","36.4327","-100.1369","844.3","2009","1440",,"        1",,"         4","0","5","0,1210,+","1"," ,0,0127, ","25.0"," ,0,0328, ","3.17"," ,0,0328, ","109","0,0710, ","4190","7","21.03"," ,0","28.0"," ,0","56.8","0","70.7","0","42.9","0"
"USC00414556","JARRELL, TX US","30.8294","-97.601","267.0","2009",,,"        0",,"         0","0",,,"0"," ,0,1231,+","0.0"," ,0,1231,+","14.33"," ,0,0912, ",,,,,"50.68"," ,0","0.0"," ,0",,,,,,
"USC00411045","BREMOND, TX US","31.1588","-96.6825","143.3","2009",,,"        0",,"         0","0",,,"0","T,0,1205, ","0.0","T,0,1205, ","3.07"," ,0,1027, ",,,,,"43.07"," ,0","0.0","T,0",,,,,,
"USC00411048","BRENHAM, TX US","30.1591","-96.3972","95.4","2009","2943",,"        0",,"         0","0","23","0,1206,+","0"," ,0,1231,+","0.0","T,0,1205, ","4.12"," ,0,0418, ","104","0,0706,+","1555","0","43.80"," ,0","0.0","T,0","68.6","0","80.0","0","57.3","0"
"USC00416733","OZONA 22 SE, TX US","30.4266","-101.0366","646.2","2009",,,"        0",,"         0","0",,,"0","T,0,1204, ","0.3"," ,0,1204, ","2.63"," ,0,0428, ",,,,,"19.48"," ,0","0.3"," ,0",,,,,,
"USC00414313","HOUSTON BARKER, TX US","29.8142","-95.7276","38.7","2009",,,"        0",,"         0","0",,,"0"," ,0,1231,+","0.0"," ,0,1231,+","10.72"," ,0,0428, ",,,,,"48.69"," ,0","0.0"," ,0",,,,,,
"USC00415408","LUBBOCK 6 NNE, TX US","33.65778","-101.81333","991.8","2009",,,"        1",,"         0","0",,,"4"," ,0,1225, ","0.4"," ,0,1202, ","1.26"," ,0,0908, ",,,,,"12.85"," ,0","4.4"," ,0",,,,,,
"USC00416739","PADRE ISLAND NATIONAL SEASHORE, TX US","27.4466","-97.2968","3.0","2009","2654",,"        0",,"         0","0","29","0,1205, ","0"," ,0,1231,+","0.0"," ,0,1231,+","1.80"," ,0,1217, ","91","0,0918, ","946","4","19.52"," ,0","0.0"," ,0","69.2","0","75.8","0","62.6","0"
"USR0000THMB","HAMBY TEXAS, TX US","32.5","-99.6167","579.1","2009","2564",,,,,,"6","U,1225, ",,,,,,,"106","U,0709, ","2174","7",,,,,"65.2","U","78.2","U","52.2","U"
"USR0000TLUF","LUFKIN TEXAS, TX US","31.3131","-94.8261","74.7","2009","2674",,,,,,"21","U,1205, ",,,,,,,"104","U,0702, ","1823","8",,,,,"67.0","U","77.8","U","56.1","U"
"US1TXHRR004","MISSION BEND 1.4 N, TX US","29.71291","-95.668838","29.9","2009",,,,,,,,,,,,,"7.19"," ,N,0428, ",,,,,"50.64"," ,N",,,,,,,,
"USC00415891","MIDLAND 4 ENE, TX US","32.0185","-102.0257","846.1","2009",,,,,,,,,,,,,,,,,,,,,,,,,,,,
"US1TXKR0003","INGRAM 4.4 NW, TX US","30.115451","-99.297679","542.5","2009",,,,,,,,,,,,,,,,,,,"31.69"," ,N",,,,,,,,
"USC00412142","CROWELL, TX US","33.9898","-99.73024","451.1","2009",,,"        4",,"         3","0",,,"6"," ,0,1225, ","5.0"," ,0,1225, ","2.61"," ,0,0913, ",,,,,"28.12"," ,0","7.2"," ,0",,,,,,
"USC00414321","HOUSTON HEIGHTS, TX US","29.79139","-95.42611","19.8","2009",,,"        0",,"         0","0",,,"0"," ,0,1231,+","0.0"," ,0,1231,+","5.91"," ,0,0428, ",,,,,"62.40"," ,0","0.0"," ,0",,,,,,
"USC00414563","JASPER, TX US","30.9152","-94.0097","62.5","2009",,,"        0",,"         0","0",,,"0"," ,0,1231,+","0.0"," ,0,1231,+","3.43"," ,0,1027, ",,,,,"53.59"," ,0","0.0"," ,0",,,,,,
"USC00416742","PADUCAH 15 S, TX US","33.8084","-100.298","558.4","2009",,,"        4",,"         1","0",,,"2"," ,0,1224, ","2.0"," ,0,1224, ","1.70"," ,0,0912, ",,,,,"20.33"," ,0","2.8"," ,0",,,,,,
"USC00415410","LUBBOCK 9 N, TX US","33.6897","-101.8219","989.1","2009",,,,,,,,,,,,,,,,,,,,,,,,,,,,
"USC00416740","PADUCAH, TX US","34.00667","-100.29889","579.1","2009",,,,,,,,,,,,,,,,,"2677","0",,,,,,,,,,
"USC00415892","MIDLAND 4 SW, TX US","31.9544","-102.1222","857.7","2009",,,,,,,,,,,,,,,,,,,,,,,,,,,,
"USC00414325","HOUSTON WESTBURY, TX US","29.66","-95.6275","15.2","2009",,,"        0",,"         0","0",,,"0","T,0,1205, ","0.5"," ,0,1205, ","3.13"," ,0,0428, ",,,,,"45.85"," ,0","0.5"," ,0",,,,,,
"USC00415415","LUFKIN 11 NW, TX US","31.4269","-94.8942","106.7","2009","2341",,"        0",,"         0","0","19","0,1206,+","0"," ,0,1231,+","0.0"," ,0,1231,+","3.82"," ,0,1030, ","102","0,0714,+",,,"47.17"," ,0","0.0"," ,0","64.9","0","76.8","0","53.1","0"
"USC00417836","RUNGE, TX US","28.8297","-97.7133","89.9","2009",,,"        0",,"         0","0",,,"0"," ,0,1231,+","0.0"," ,0,1231,+","2.75"," ,0,0928, ",,,,,"33.52"," ,0","0.0"," ,0",,,,,,
"USC00414326","HOUSTON PORT, TX US","29.7456","-95.28","5.8","2009",,,,,,,,,,,,,,,,,,,,,,,,,,,,
"USC00416745","PADUCAH 10 S, TX US","33.8758","-100.383","594.4","2009",,,"        1",,"         1","0",,,"5"," ,0,1224, ","4.5"," ,0,1224, ","3.07"," ,0,0705, ",,,,,"19.83"," ,0","4.5"," ,0",,,,,,
"USC00418926","TERLINGUA RANCH, TX US","29.4745","-103.4061","1122.3","2009",,,,,,,,,,,,,,,,,,,,,,,,,,,,
"USC00418928","TERLINGUA 17 NE, TX US","29.4497","-103.375","1000.4","2009",,,,,,,,,,,,,,,,,,,,,,,,,,,,
"USC00414327","HOUSTON NORTH HOUSTON, TX US","29.8732","-95.5274","34.1","2009",,,"        0",,"         0","0",,,"0"," ,0,1231,+","0.0"," ,0,1231,+","5.52"," ,0,0428, ",,,,,"51.67"," ,0","0.0"," ,0",,,,,,
"USC00415659","MATAGORDA 2, TX US","28.6835","-95.9733","3.0","2009","2975",,"        0",,"         0","0","28","0,1207,+","0"," ,0,1231,+","0.0"," ,0,1231,+","3.50"," ,0,1026, ","93","0,0831, ","1140","5","39.01"," ,0","0.0"," ,0","69.6","0","77.3","0","61.9","0"
"USC00416506","ODESSA 1 SE, TX US","31.8367","-102.3586","879.7","2009",,,,,,,,,,,,,,,,,,,,,,,,,,,,
"USC00415658","MATADOR, TX US","34.025","-100.8117","719.3","2009",,,,,,,,,,,,,,,,,,,,,,,,,,,,
"USC00416747","PAINT ROCK, TX US","31.50649","-99.93068","504.1","2009","2390",,"        0",,"         0","0","14","0,0129,+","0","T,0,0128,+","0.0","T,0,0128,+","2.58"," ,0,0603, ","104","0,0825,+","2427","2","22.94"," ,0","0.0","T,0","64.5","0","79.7","0","49.3","0"
"US1TXHRR018","HOUSTON 2.8 S, TX US","29.727554","-95.384575","14.6","2009",,,,,,,,,,,,,"2.60"," ,N,0419, ",,,,,"45.22"," ,N",,,,,,,,
"US1TXRS0001","HENDERSON 6.1 NW, TX US","32.217138","-94.87433","157.9","2009",,,,,"         0","N",,,,,"0.1"," ,N,1203, ","2.46"," ,N,0312, ",,,,,"45.45"," ,N","0.1"," ,N",,,,,,
"USC00414570","JAYTON, TX US","33.25426","-100.57305","612.6","2009","2036",,"        2",,"         2","0","10","0,1226,+","4"," ,0,1225, ","3.0"," ,0,1224, ","2.50"," ,0,0706, ","105","0,0628, ","2704","1","16.59"," ,0","4.0"," ,0","62.0","0","76.4","0","47.6","0"
"US1TXGD0003","GOLIAD 2.4 SE, TX US","28.649551","-97.358453","42.1","2009",,,,,,,,,,,,,"3.04"," ,N,0912, ",,,,,"37.68"," ,N",,,,,,,,
"USC00417841","RUSK, TX US","31.8093","-95.1428","211.8","2009","2211",,"        0",,"         0","0","22","0,0129,+","0"," ,0,1231,+","0.0"," ,0,1231,+","2.86"," ,0,1014, ","101","0,0703, ","2310","3","40.80"," ,0","0.0"," ,0","64.8","0","75.2","0","54.5","0"
"USC00414333","HOUSTON NATIONAL WEATHER SERVICE OFFICE, TX US","29.4718","-95.0832","5.8","2009","2954",,"        0",,"         0","0","26","0,1205, ","0","T,0,1204, ","0.1"," ,0,1204, ","7.88"," ,0,0418, ","99","0,0706,+","1205","4","56.11"," ,0","0.1"," ,0","69.3","0","78.3","0","60.4","0"
"USC00414575","JEDDO 3 S, TX US","29.7663","-97.3163","126.5","2009",,,"        0",,"         0","0",,,"0"," ,0,1231,+","0.0"," ,0,1231,+","2.86"," ,0,1004, ",,,,,"33.28"," ,0","0.0"," ,0",,,,,,
"USC00416510","ODESSA 5 WSW, TX US","31.8249","-102.4443","899.2","2009",,,,,,,,,,,,,,,,,,,,,,,,,,,,
"USC00415661","MATHIS 4 SSW, TX US","28.0372","-97.8725","42.1","2009","3630",,"        0",,"         0","0","27","0,1206,+","0"," ,0,1231,+","0.0"," ,0,1231,+","3.20"," ,0,1120, ","106","0,0706,+","886","1","22.55"," ,0","0.0"," ,0","72.0","0","83.0","0","60.9","0"
"US1TXBXR015","LACKLAND AFB 3.5 SSE, TX US","29.3387","-98.5987","209.1","2009",,,,,,,,,,,,,"2.06"," ,N,1026, ",,,,,"23.40"," ,N",,,,,,,,
"USC00412598","DUBLIN 2 SE, TX US","32.0627","-98.3047","447.4","2009",,,,,,,,,,,,,,,,,,,,,,,,,,,,
"US1TXBXR014","HELOTES 1.0 ENE, TX US","29.572029","-98.677986","321.0","2009",,,,,,,,,,,,,"3.97"," ,N,1004, ",,,,,"31.72"," ,N",,,,,,,,
"USC00410176","ALPINE 7 NW, TX US","30.3703","-103.7808","1500.2","2009",,,,,,,,,,,,,,,,,,,,,,,,,,,,
"USC00411026","BRANDON, TX US","32.0508","-96.9661","195.1","2009",,,"        0",,"         0","0",,,"0"," ,0,1231,+","0.0"," ,0,1231,+","4.70"," ,0,0312, ",,,,,"49.09"," ,0","0.0"," ,0",,,,,,
"USC00412354","DELL CITY 5 SSW, TX US","31.91461","-105.20982","1130.2","2009","2186",,"        0",,"         1","0","10","0,0130, ","0"," ,0,1231,+","2.0"," ,0,1204, ","1.70"," ,0,0731, ","108","0,0716,+","2539","6","13.17"," ,0","2.0"," ,0","63.6","0","82.8","0","44.4","0"
"USC00413201","FLORESVILLE, TX US","29.1333","-98.1629","121.9","2009",,,"        0",,"         0","0",,,"0"," ,0,1231,+","0.0"," ,0,1231,+","2.82"," ,0,0427, ","107","0,0706, ",,,"29.73"," ,0","0.0"," ,0",,,"83.3","0",,
"USC00413685","GRANGER, TX US","30.7149","-97.4482","174.3","2009",,,"        0",,"         0","0",,,"0"," ,0,1231,+","0.0"," ,0,1231,+","2.70"," ,0,0911, ",,,,,"37.78"," ,0","0.0"," ,0",,,,,,
"USC00416953","PERRYTON 11 WNW, TX US","36.4407","-100.996","917.4","2009",,,"        4",,"         3","0",,,"10"," ,0,0328,+","10.0"," ,0,0327, ","2.36"," ,0,0727, ",,,,,"18.48"," ,0","12.0"," ,0",,,,,,
"USC00411267","BUSHLAND 1 WSW, TX US","35.1866","-102.0797","1164.0","2009","1192",,,,"         7","0","2","0,1225, ",,,"3.0"," ,0,1224,+","1.51"," ,0,0605, ","106","0,0710, ","4066","1","14.65"," ,0","16.5"," ,0","56.3","0","72.2","0","40.4","0"
"USC00412114","CROCKETT, TX US","31.3072","-95.4509","105.8","2009","2948",,"        0",,"         0","0","20","0,1206,+","0"," ,0,1231,+","0.0"," ,0,1231,+","3.03"," ,0,0826, ","108","0,0703, ","1810","7","41.01"," ,0","0.0"," ,0","67.5","0","79.7","0","55.4","0"
"USC00413686","GRANGER DAM, TX US","30.7188","-97.3211","169.2","2009",,,"        0",,"         0","0",,,"0"," ,0,1231,+","0.0"," ,0,1231,+","3.25"," ,0,0517, ",,,,,"36.74"," ,0","0.0"," ,0",,,,,,
"USC00414775","KERMIT, TX US","31.8409","-103.0889","862.6","2009",,,,,,,,,,,,,,,,,,,,,,,,,,,,
"USC00416952","PERRYTON 21 S, TX US","36.1016","-100.7394","909.8","2009",,,"        0",,"         0","0",,,"0"," ,0,1231,+","0.0"," ,0,1231,+","1.54"," ,0,0818, ",,,,,"18.91"," ,0","0.0"," ,0",,,,,,
"US1TXBXR011","HILL COUNTRY VILLAGE 1.2 SE, TX US","29.572784","-98.477463","275.2","2009",,,,,,,,,,,,,"6.75"," ,N,1004, ",,,,,"34.40"," ,N",,,,,,,,
"USW00012904","HARLINGEN RIO GRANDE VALLEY INTERNATIONAL AIRPORT, TX US","26.22806","-97.65417","10.4","2009","4250",,,,,,"29","W,1205, ",,,,,"2.43"," ,W,1216, ","102","W,0704, ",,,"20.14"," ,W",,,"75.0","W","86.0","W","64.1","W"
"US1TXNU0007","CORPUS CHRISTI 9.0 SSE, TX US","27.590507","-97.224739","2.1","2009",,,,,,,,,,,,,"1.73"," ,N,1121, ",,,,,"19.93"," ,N",,,,,,,,
"US1TXNU0004","CORPUS CHRISTI 8.0 WNW, TX US","27.751962","-97.412868","14.0","2009",,,,,,,,,,,,,"2.28"," ,N,0912, ",,,,,"27.22"," ,N",,,,,,,,
"US1TXNU0011","PORT ARANSAS 1.3 ENE, TX US","27.834756","-97.061018","1.5","2009",,,,,,,,,,,,,"4.00"," ,N,1120, ",,,,,"25.54"," ,N",,,,,,,,
"US1TXNU0012","ORANGE GROVE 4.5 SE, TX US","27.908074","-97.889426","36.0","2009",,,,,,,,,,,,,"2.18"," ,N,0910, ",,,,,"21.20"," ,N",,,,,,,,
"USC00413691","GRAPEVINE DAM, TX US","32.9506","-97.0553","178.3","2009",,,,,"         0","0",,,,,"0.0"," ,0,1231,+","4.67"," ,0,0914, ",,,,,"44.19"," ,0","0.0"," ,0",,,,,,
"US1TXUV0020","UVALDE 21.9 NW, TX US","29.457239","-100.020932","369.1","2009",,,,,,,,,,,,,"4.85"," ,N,0910, ",,,,,"24.04"," ,N",,,,,,,,
"USC00411033","BRAVO, TX US","35.6201","-103.0071","1268.0","2009","1078",,,,"         3","0","-3","0,1210, ",,,"3.0"," ,0,0328, ","1.21"," ,0,0831, ","103","0,0715, ","4059","8","14.35"," ,0","6.4"," ,0","55.7","0","71.3","0","40.2","0"
"USC00412361","DEL RIO 4 NW, TX US","29.4078","-100.92742","320.3","2009","3659",,"        0",,"         0","0","25","0,1205, ","0"," ,0,1231,+","0.0"," ,0,1231,+","2.29"," ,0,0921, ","107","0,0710,+","1264","3","14.70"," ,0","0.0"," ,0","71.1","0","83.9","0","58.3","0"
"US1TXGD0012","GOLIAD 11.5 N, TX US","28.834927","-97.407655","82.6","2009",,,,,,,,,,,,,"2.71"," ,N,0910, ",,,,,"37.62"," ,N",,,,,,,,
"USC00412121","CROSBYTON, TX US","33.6516","-101.245","917.4","2009","1649",,,,"         2","0","6","0,1226,+",,,"3.0"," ,0,1224, ","1.97"," ,0,0524, ","102","0,0710, ","3111","3","19.12"," ,0","5.3"," ,0","60.1","0","74.6","0","45.5","0"
"USC00414782","KERRVILLE 3 NNE, TX US","30.074","-99.1095","547.7","2009","2704",,"        0",,"         0","0","18","0,1205, ","0","T,0,1230,+","0.0","T,0,1230,+","3.29"," ,0,0312, ","103","0,0709,+","1815","1","32.76"," ,0","0.0","T,0","66.6","0","79.5","0","53.8","0"
"USC00411035","BRAZOS, TX US","32.6488","-98.1336","256.0","2009",,,"        0",,"         0","0",,,"0"," ,0,1231,+","0.0"," ,0,1231,+","3.58"," ,0,0912, ",,,,,"40.84"," ,0","0.0"," ,0",,,,,,
"USC00413214","FLOYDADA, TX US","33.9849","-101.3338","981.5","2009","1589",,"        4",,"         3","0","8","0,1226,+","4"," ,0,1224, ","3.5"," ,0,1224, ","1.45"," ,0,0705, ","103","0,0710, ","3490","7","15.96"," ,0","8.6"," ,0","58.9","0","72.7","0","45.0","0"
"USW00012919","BROWNSVILLE S PADRE ISLAND INTERNATIONAL AIRPORT, TX US","25.9141","-97.423","7.3","2009","4230",,,,,,"31","0,1205, ",,,,,"2.86"," ,0,1216, ","101","0,0327, ","414","0","26.22"," ,0",,,"75.2","0","84.6","0","65.8","0"
"USC00413215","FLOYDADA 9 SE, TX US","33.8761","-101.2463","954.0","2009",,,"        3",,"         3","0",,,"4"," ,0,1224, ","4.0"," ,0,1224, ","2.59"," ,0,0701, ",,,,,"20.02"," ,0","8.6"," ,0",,,,,,
"USW00012918","HOUSTON WILLIAM P HOBBY AIRPORT, TX US","29.63806","-95.28194","13.4","2009","3416",,,,,,"27","0,1205, ",,,,,"5.15"," ,0,0418, ","103","0,0705, ","1031","6","52.60"," ,0",,,"71.1","0","80.3","0","62.0","0"
"USW00012917","PORT ARTHUR SE TX REGIONAL AIRPORT, TX US","29.95056","-94.02056","4.9","2009","2946",,,,,,"27","0,1205, ",,,,,"4.70"," ,0,0418, ","102","0,0624, ","1243","7","59.56"," ,0",,,"69.1","0","78.4","0","59.9","0"
"US1TXLK0022","LUBBOCK INTERNATIONAL, TX US","33.66579","-101.82331","996.1","2009",,,,,,,,,,,,,"1.47"," ,N,0908, ",,,,,"12.69"," ,N",,,,,,,,
"USC00412125","CROSS, TX US","28.5978","-98.5547","86.9","2009","3833",,,,"         0","0","19","0,0201, ",,,"0.0"," ,0,1231,+","1.67"," ,0,1005, ","109","0,0706, ","1204","1","16.33"," ,0","0.0"," ,0","71.6","0","85.7","0","57.6","0"
"US1TXLK0021","LUBBOCK 3.1 S, TX US","33.5317","-101.8817","982.1","2009",,,,,,,,,,,,,"2.28"," ,N,0417, ",,,,,"14.28"," ,N",,,,,,,,
"USW00012912","VICTORIA REGIONAL AIRPORT, TX US","28.8614","-96.9303","35.1","2009","3544",,,,,,"25","0,0129,+",,,,,"2.85"," ,0,1120, ","104","0,0812, ","1094","8","30.80"," ,0",,,"71.4","0","82.9","0","59.9","0"
"USR0000TDAY","DAYTON TEXAS, TX US","30.105","-94.9314","30.5","2009","2990",,,,,,"25","U,1205, ",,,,,,,"104","U,0624, ",,,,,,,"69.2","U","78.8","U","59.6","U"
"USR0000TLRG","SANTA ANA NWR TEXAS, TX US","26.0839","-98.1369","27.4","2009","4658",,,,,,"24","U,1205, ",,,,,,,"110","U,0707, ","510","4",,,,,"76.2","U","88.7","U","63.6","U"
"US1TXUV0019","CAMP WOOD 5.02 SSE, TX US","29.597551","-99.998945","423.7","2009",,,,,,,,,,,,,"2.93"," ,N,0312, ",,,,,"21.05"," ,N",,,,,,,,
"US1TXUV0018","UVALDE 0.8 N, TX US","29.22705","-99.78366","278.3","2009",,,,,,,,,,,,,"2.15"," ,N,0312, ",,,,,"18.36"," ,N",,,,,,,,
"USW00012921","SAN ANTONIO INTERNATIONAL AIRPORT, TX US","29.5443","-98.4839","240.5","2009","3543",,"        0",,"         0","0","23","0,1205, ","0"," ,0,1231,+","0.0","T,0,1229,+","5.42"," ,0,1004, ","104","0,0823,+","1052","3","30.71"," ,0","0.0","T,0","71.1","0","82.6","0","59.5","0"
"US1TXBXR008","HOLLYWOOD PARK 4.7 E, TX US","29.592472","-98.407083","285.9","2009",,,,,,,,,,,,,"6.35"," ,N,1004, ",,,,,"34.22"," ,N",,,,,,,,
"USC00416730","OZONA 2, TX US","30.70944","-101.20417","675.1","2009",,,"        0",,"         0","0",,,"0"," ,0,1231,+","0.0"," ,0,1231,+",,,,,,,,,"0.0"," ,0",,,,,,
"USC00411486","CARRIZO SPRINGS 3 S, TX US","28.4895","-99.8734","186.8","2009",,,,,"         0","0",,,,,"0.0"," ,0,1231,+","2.33"," ,0,1022, ",,,,,"15.78"," ,0","0.0"," ,0",,,,,,
"USC00416932","PENWELL, TX US","31.7356","-102.5897","894.0","2009",,,,,,,,,,,,,,,,,,,,,,,,,,,,
"USC00410157","ALLISON, TX US","35.6103","-100.1022","792.5","2009",,,"        0",,"         0","0",,,"0"," ,0,1231,+","0.0"," ,0,1231,+","4.20"," ,0,0818, ",,,,,"25.39"," ,0","0.0"," ,0",,,,,,
"US1TXBXR032","HOLLYWOOD PARK 4.4 E, TX US","29.589758","-98.411947","270.1","2009",,,,,,,,,,,,,"6.28"," ,N,1004, ",,,,,"33.41"," ,N",,,,,,,,
"USC00414757","KENDALIA, TX US","29.964","-98.5292","417.0","2009",,,"        0",,"         0","0",,,"0","T,0,0127,+","0.5"," ,0,0106, ","3.70"," ,0,1022, ",,,,,"33.35"," ,0","0.6"," ,0",,,,,,
"US1TXMSN004","FREDERICKSBURG 18.1 NNW, TX US","30.51902","-98.96977","501.1","2009",,,,,,,,,,,,,"3.25"," ,N,0311, ",,,,,"30.98"," ,N",,,,,,,,
"USC00411253","BURNET 9 WSW, TX US","30.7247","-98.3841","271.3","2009",,,"        0",,"         0","0",,,"0"," ,0,1231,+","0.0"," ,0,1231,+","4.45"," ,0,1021, ",,,,,"31.91"," ,0","0.0"," ,0",,,,,,
"USC00411013","BRACKETTVILLE 22 N, TX US","29.6101","-100.452","536.4","2009","3031",,"        0",,"         0","0","19","0,1205, ","0"," ,0,1231,+","0.0"," ,0,1231,+","1.50"," ,0,0516, ","105","0,0718,+","1468","8","14.37"," ,0","0.0"," ,0","68.7","0","82.5","0","54.9","0"
"US1TXBXR028","LEON VALLEY 1.6 N, TX US","29.51867","-98.617805","278.0","2009",,,,,,,,,,,,,"2.79"," ,N,1004, ",,,,,"31.67"," ,N",,,,,,,,
"USC00412585","DRIPPING SPRINGS 6 E, TX US","30.2195","-97.9879","330.4","2009","3081",,"        0",,"         0","0","20","0,1205, ","0","T,0,1205,+","0.0","T,0,1205,+","2.36"," ,0,0922, ","106","0,0708,+","1499","0","35.33"," ,0","0.0","T,0","68.8","0","81.0","0","56.6","0"
"US1TXJN0002","BURLESON 1.1 WNW, TX US","32.541","-97.3458","232.0","2009",,,,,,,,,,,,,"5.35"," ,N,0913, ",,,,,"46.12"," ,N",,,,,,,,
"USC00415852","MERKEL 12 SW, TX US","32.31977","-100.12234","685.5","2009",,,,,,,,,,,,,,,,,,,,,,,,,,,,
"USC00411017","BRADY, TX US","31.14453","-99.34922","521.5","2009",,,"        1",,"         1","0",,,"1"," ,0,1230, ","1.5"," ,0,1204, ",,,,,,,,,"2.0"," ,0",,,,,,
"US1TXJN0004","GRANDVIEW 1.4 SE, TX US","32.25551","-97.157488","190.8","2009",,,,,,,,,,,,,"3.82"," ,N,0913, ",,,,,"50.69"," ,N",,,,,,,,
"USC00414525","JACKSONVILLE, TX US","31.9622","-95.2736","170.7","2009",,,,,,,,,,,,,,,,,,,,,,,,,,,,
"USC00415618","MARSHALL, TX US","32.48919","-94.32883","92.0","2009","2366",,"        0",,"         0","0","22","0,1205,+","0"," ,0,1231,+","0.0"," ,0,1231,+","5.55"," ,0,0729, ","104","0,0717,+","2296","6","60.93"," ,0","0.0"," ,0","65.0","0","75.1","0","55.1","0"
"US1TXLK0007","LUBBOCK 6.7 SW, TX US","33.557194","-101.968072","1003.1","2009",,,,,,,,,,,,,"0.87"," ,N,1224, ",,,,,"12.70"," ,N",,,,,,,,
"USC00416950","PERRYTON, TX US","36.3897","-100.8238","896.7","2009","1555",,"        2",,"         2","0","5","0,1210,+","12"," ,0,0328, ","12.0"," ,0,0328, ","2.22"," ,0,0727, ","112","0,0710, ","4512","6","19.90"," ,0","13.0"," ,0","56.7","0","71.7","0","41.7","0"
"USC00410174","ALPINE, TX US","30.3763","-103.66","1356.4","2009",,,,,,,,,,,,,,,,,,,,,,,,,,,,
"USC00415821","MEMPHIS, TX US","34.72611","-100.53722","637.0","2009","1867",,"        5",,"         3","0","9","0,1211, ","5"," ,0,1224, ","5.0"," ,0,1224, ","3.60"," ,0,0705, ","111","0,0710, ","3262","5","23.68"," ,0","7.6"," ,0","60.5","0","74.6","0","46.3","0"
"USW00012947","COTULLA LA SALLE CO AIRPORT, TX US","28.45667","-99.21833","145.1","2009","4001",,,,,,"23","X,1205, ",,,,,"3.28"," ,X,0417, ","109","X,0705, ","870","2","20.50"," ,X",,,"72.8","X","86.0","X","59.7","X"
"USW00012946","CORPUS CHRISTI CABANISS FIELD NAVAL OUTLYING FIELD, TX US","27.7","-97.43333","9.1","2009",,,,,,,,,,,,,,,,,,,,,,,,,,,,
"US1TXMDN002","CASTROVILLE 7.0 NNE, TX US","29.434984","-98.814658","313.0","2009",,,,,,,,,,,,,,,,,,,"28.40"," ,N",,,,,,,,
"USC00414976","LAKE FORK RESERVOIR, TX US","32.8241","-95.5275","126.2","2009","2069",,"        0",,"         0","0","24","0,0117,+","0"," ,0,1231,+","0.0"," ,0,1231,+","6.25"," ,0,0503, ","100","0,0717, ","2306","9","68.41"," ,0","0.0"," ,0","64.0","0","73.6","0","54.4","0"
"US1TXHYS028","MANCHACA 2.1 ENE, TX US","30.1368","-97.86819","226.8","2009",,,,,"         0","N",,,,,"0.0","T,N,1205, ","2.90"," ,N,0912, ",,,,,"36.07"," ,N","0.0","T,N",,,,,,
"USC00419191","TURKEY, TX US","34.39556","-100.89722","710.2","2009","1841",,"        3",,"         2","0","10","0,1226,+","3"," ,0,1224, ","3.0"," ,0,1224,+","1.90"," ,0,0815, ","110","0,0710, ","2920","0","22.71"," ,0","6.7"," ,0","61.1","0","76.0","0","46.3","0"
"US1TXTN0025","BLUE MOUND 2.3 ENE, TX US","32.860403","-97.297707","182.9","2009",,,,,,,,,,,,,"5.18"," ,N,1022, ",,,,,"45.63"," ,N",,,,,,,,
"US1TXHYS021","SAN MARCOS 7.1 W, TX US","29.890382","-98.047654","272.8","2009",,,,,,,,,,,,,"5.10"," ,N,1004, ",,,,,"37.47"," ,N",,,,,,,,
"USC00414982","LAKE KEMP, TX US","33.7542","-99.1442","355.7","2009","2371",,"        6",,"         2","0","13","0,0129,+","8"," ,0,1225, ","5.0"," ,0,1225, ","2.83"," ,0,0614, ","109","0,0710, ","2446","7","27.91"," ,0","8.5"," ,0","64.0","0","77.1","0","50.8","0"
"USC00413890","HAMLIN 1 SW, TX US","32.8694","-100.1211","524.3","2009",,,"        3",,"         1","0",,,"6"," ,0,1225, ","6.0"," ,0,1225, ","2.93"," ,0,0430, ",,,,,"29.39"," ,0","6.0"," ,0",,,,,,
"USC00414980","LAKE TAWAKONI, TX US","32.8522","-95.8863","136.6","2009","2182",,"        0",,"         0","0","20","0,0117,+","0"," ,0,1231,+","0.0"," ,0,1231,+","6.87"," ,0,0503, ","102","0,0717,+","2525","7","63.73"," ,0","0.0"," ,0","63.8","0","74.4","0","53.2","0"
"USC00413411","GAIL, TX US","32.7744","-101.4539","771.1","2009",,,,,,,,,,,,,,,,,,,,,,,,,,,,
"USC00414505","ITASCA 5 SSW, TX US","32.09134","-97.12103","198.7","2009",,,"        1",,"         0","0",,,"2"," ,0,1225, ","0.0"," ,0,1231,+","2.75"," ,0,1022,+",,,,,"53.74"," ,0","0.0"," ,0",,,,,,
"USW00012959","MCALLEN MILLER INTERNATIONAL AIRPORT, TX US","26.18389","-98.25389","30.5","2009","5228",,,,,,"33","0,1205, ",,,,,"2.93"," ,0,1216, ","109","0,0707, ","398","2","18.74"," ,0",,,"78.1","0","88.9","0","67.4","0"
"USC00415836","MERCEDES 6 SSE, TX US","26.0619","-97.8997","22.9","2009",,,"        0",,"         0","0",,,"0"," ,0,1231,+","0.0"," ,0,1231,+","1.76"," ,0,1027, ","100","0,0720,+",,,"19.42"," ,0","0.0"," ,0",,,"84.2","0",,
"USC00411239","BURKETT, TX US","31.99538","-99.22778","467.6","2009",,,"        0",,"         0","0",,,"0"," ,0,1231,+","0.0"," ,0,1231,+",,,,,,,,,"0.0"," ,0",,,,,,
"USW00012957","PORT ISABEL CAMERON CO AIRPORT, TX US","26.16583","-97.34583","5.8","2009","4281",,,,,,"30","W,1205, ",,,,,"2.54"," ,W,1216, ","101","W,0327, ",,,"19.71"," ,W",,,"75.3","W","83.4","W","67.1","W"
"US1TXHYS017","DRIPPING SPRINGS 8.4 W, TX US","30.166634","-98.226313","409.0","2009",,,,,,,,,,,,,"3.03"," ,N,1022, ",,,,,"39.78"," ,N",,,,,,,,
"USR0000TBIR","BIRD TEXAS, TX US","30.2625","-98.6289","457.2","2009","2710",,,,,,"19","U,1205, ",,,,,,,"104","U,0625, ","1579","2",,,,,"67.3","U","79.1","U","55.5","U"
"USW00012962","HONDO MUNICIPAL AIRPORT, TX US","29.3601","-99.1742","280.4","2009","3263",,,,,,"21","0,1205, ",,,,,"1.91"," ,0,1021, ","105","0,0708,+","1358","4","19.94"," ,0",,,"69.7","0","83.1","0","56.4","0"
"US1TXTN0039","FORT WORTH 5.4 SSW, TX US","32.679714","-97.362921","232.0","2009",,,,,,,,,,,,,"4.29"," ,N,1022, ",,,,,"50.72"," ,N",,,,,,,,
"USC00411000","BOYS RANCH, TX US","35.5302","-102.2563","972.6","2009","1491",,"        2",,"         4","0","2","0,1209, ","3"," ,0,0327, ","3.5"," ,0,0327, ","1.08"," ,0,0705, ","106","0,0709, ","3786","4","14.23"," ,0","9.0"," ,0","57.7","0","73.3","0","42.1","0"
"USW00012960","HOUSTON INTERCONTINENTAL AIRPORT, TX US","29.98","-95.36","29.0","2009","3356",,"        0",,"         1","0","26","0,1205, ","0"," ,0,1231,+","1.0"," ,0,1204, ","3.05"," ,0,1022, ","104","0,0626,+","1188","3","47.04"," ,0","1.0"," ,0","70.6","0","80.6","0","60.5","0"
"USC00410394","ASPERMONT, TX US","33.1524","-100.2333","509.0","2009","2385",,"        2",,"         1","0","13","0,0128, ","2"," ,0,1224, ","2.0"," ,0,1224, ","1.27"," ,0,0719, ","107","0,0710, ",,,"18.14"," ,0","3.0"," ,0","63.9","0","78.4","0","49.3","0"
"USC00414710","K BAR RANCH, TX US","31.6727","-102.4133","892.1","2009",,,,,,,,,,,,,,,,,,,,,,,,,,,,
"USC00413622","GONZALES 2 S, TX US","29.4744","-97.4481","90.2","2009",,,"        0",,"         0","0",,,"0"," ,0,1231,+","0.0"," ,0,1231,+","5.89"," ,0,0418, ","105","0,0706,+",,,"35.05"," ,0","0.0"," ,0",,,"81.5","0",,
"USC00412772","EDOM, TX US","32.3655","-95.6088","154.8","2009",,,"        0",,"         0","0",,,"0"," ,0,1231,+","0.0"," ,0,1231,+","3.05"," ,0,0801, ",,,,,"51.68"," ,0","0.0"," ,0",,,,,,
"USW00012928","KINGSVILLE NAAS, TX US","27.5","-97.81667","17.1","2009","3989",,,,,,"25","W,1205, ",,,,,"3.25"," ,W,0909, ","106","W,0705,+","714","9","16.94"," ,W",,,"73.5","W","85.3","W","61.7","W"
"USC00414950","LAJITAS, TX US","29.2694","-103.7575","732.4","2009","3670",,"        0",,"         0","0","20","0,1205, ","0"," ,0,1231,+","0.0"," ,0,1231,+","1.64"," ,0,1008, ","110","0,0728,+","1311","6","9.72"," ,0","0.0"," ,0","71.2","0","88.1","0","54.2","0"
"USW00012926","CORPUS CHRISTI NAS, TX US","27.68333","-97.28333","5.5","2009",,,,,,,,,,,,,,,,,,,,,,,,,,,,
"USW00012924","CORPUS CHRISTI INTERNATIONAL AIRPORT, TX US","27.7742","-97.5122","13.4","2009","3986",,"        0",,"         0","0","30","0,0203, ","0"," ,0,1231,+","0.0","T,0,1204,+","2.80"," ,0,0910, ","102","0,0705,+","707","7","20.62"," ,0","0.0","T,0","73.5","0","83.8","0","63.3","0"
"USC00413624","GONZALES 10 SW, TX US","29.4359","-97.5177","111.3","2009",,,"        0",,"         0","0",,,"0"," ,0,1231,+","0.0"," ,0,1231,+","3.41"," ,0,0417, ",,,,,"38.07"," ,0","0.0"," ,0",,,,,,
"USW00012923","GALVESTON SCHOLES FIELD, TX US","29.2733","-94.8592","1.5","2009",,,"        0",,"         0","Z",,,"0"," ,Z,1231,+","0.0","T,Z,1204, ","2.45"," ,W,1120, ",,,,,"34.76"," ,W","0.0","T,Z",,,,,,
"USR0000THUN","HUNTSVILLE TEXAS, TX US","30.45","-95.4","108.2","2009","2970",,,,,,"21","U,1205, ",,,,,,,"105","U,0624, ","1565","5",,,,,"68.3","U","78.3","U","58.2","U"
"US1TXHYS007","DRIPPING SPRINGS 4.3 E, TX US","30.1974","-98.016508","385.9","2009",,,,,,,,,,,,,"2.29"," ,N,0922, ",,,,,"33.21"," ,N",,,,,,,,
"USC00419175","TULIA, TX US","34.5474","-101.7614","1060.7","2009",,,,,,,,,,,,,,,,,,,,,,,,,,,,
"US1TXHYS009","BUDA 4.6 WNW, TX US","30.11","-97.911","253.9","2009",,,,,,,,,,,,,"3.02"," ,N,0930, ",,,,,"38.46"," ,N",,,,,,,,
"USC00418081","SARITA 7 E, TX US","27.2169","-97.6955","11.6","2009","3913",,"        0",,"         0","0","26","0,1206,+","0"," ,0,1231,+","0.0"," ,0,1231,+","2.41"," ,0,0912, ","104","0,0721, ","770","9","18.86"," ,0","0.0"," ,0","73.1","0","85.0","0","61.1","0"
"USW00012932","ALICE INTERNATIONAL AIRPORT, TX US","27.74111","-98.02472","52.7","2009","4680",,,,,,"25","0,1205, ",,,,,"1.75"," ,0,1120, ","110","0,0705, ","601","9","11.98"," ,0",,,"75.5","0","87.8","0","63.3","0"
"US1TXTN0005","WATAUGA 2.4 WNW, TX US","32.886299","-97.287826","203.0","2009",,,,,,,,,,,,,"6.28"," ,N,1022, ",,,,,"47.72"," ,N",,,,,,,,
"US1TXMCL007","LORENA 5.5 NW, TX US","31.447103","-97.267839","176.5","2009",,,,,,,,,,,,,"3.70"," ,N,0912, ",,,,,"43.89"," ,N",,,,,,,,
"USC00410120","ALBANY, TX US","32.7047","-99.3012","441.4","2009","2059",,,,"         1","0","13","0,0128, ",,,"4.0"," ,0,1225, ","2.25"," ,0,0811, ","106","0,0711,+","2346","5","22.09"," ,0","5.2"," ,0","64.0","0","77.4","0","50.6","0"
"USC00411694","CHILDRESS 2, TX US","34.43861","-100.21833","585.2","2009",,,"        5",,"         2","0",,,"2"," ,0,1225,+","2.0"," ,0,1224, ","3.00"," ,0,0429, ",,,,,"25.09"," ,0","3.8"," ,0",,,,,,
"USC00412786","EL CAMPO, TX US","29.2","-96.2654","33.5","2009","3426",,"        0",,"         0","0","25","0,1205, ","0"," ,0,1231,+","0.0"," ,0,1231,+","4.40"," ,0,0420, ","105","0,0625, ",,,"43.78"," ,0","0.0"," ,0","70.9","0","82.7","0","59.1","0"
"USC00413873","HALLETTSVILLE 2 N, TX US","29.4705","-96.9397","83.8","2009","3295",,"        0",,"         0","0","22","0,1205, ","0"," ,0,1231,+","0.0"," ,0,1231,+","5.01"," ,0,0418, ","103","0,0812,+","1103","7","44.62"," ,0","0.0"," ,0","70.3","0","81.3","0","59.2","0"
"USC00411215","BULVERDE, TX US","29.7382","-98.4521","329.2","2009",,,"        0",,"         0","0",,,"0"," ,0,1231,+","0.0"," ,0,1231,+","4.10"," ,0,1027, ",,,,,"32.39"," ,0","0.0"," ,0",,,,,,
"USC00414967","LAKE ALAN HENRY, TX US","33.06417","-101.04889","694.9","2009","2147",,"        5",,"         3","0","10","0,1225, ","5"," ,0,1224, ","5.0"," ,0,1224, ","2.60"," ,0,0729, ","104","0,0711, ","2599","7","16.01"," ,0","8.0"," ,0","62.8","0","76.2","0","49.5","0"
"USW00012935","PALACIOS MUNICIPAL AIRPORT, TX US","28.72472","-96.25361","3.7","2009","3446",,,,,,"27","0,1205, ",,,,,"1.99"," ,0,0906, ","98","0,0830, ","1031","9","30.59"," ,0",,,"71.2","0","79.5","0","63.0","0"
"USC00413877","HALLSVILLE 4 S, TX US","32.44771","-94.59554","98.1","2009",,,"        0",,"         0","0",,,"0"," ,0,1231,+","0.0","T,0,1205, ","2.95"," ,0,0503, ",,,"2376","3","59.33"," ,0","0.0","T,0",,,,,,
"US1TXWM0064","CEDAR PARK 1.7 S, TX US","30.490126","-97.836426","287.4","2009",,,,,,,,,,,,,"3.35"," ,N,1005, ",,,,,"40.12"," ,N",,,,,,,,
"US1TXWM0068","GEORGETOWN 4.5 SSE, TX US","30.5907","-97.6509","253.0","2009",,,,,,,,,,,,,"2.02"," ,N,0312, ",,,,,"34.23"," ,N",,,,,,,,
"US1TXCLM001","SANTA ANNA 0.5 E, TX US","31.737234","-99.31654","531.0","2009",,,,,,,,,,,,,"2.85"," ,N,0603, ",,,,,"30.25"," ,N",,,,,,,,
"USW00012944","GALVESTON, TX US","29.33333","-94.77167","3.0","2009",,,,,,,,,,,,,,,,,,,,,,,,,,,,
"US1TXTN0016","ARLINGTON 3.0 NNW, TX US","32.732118","-97.153933","165.2","2009",,,,,,,,,,,,,"3.61"," ,N,0611, ",,,,,"51.06"," ,N",,,,,,,,
"USC00412793","EL PASO NUMBER 2, TX US","31.81167","-106.37083","1194.2","2009",,,"        0",,"         0","0",,,"0"," ,0,1231,+","0.0"," ,0,1231,+","1.54"," ,0,0628, ","106","0,0715, ",,,"7.90"," ,0","0.0"," ,0",,,"79.5","0",,
"USC00414931","LA TUNA 1 S, TX US","31.9835","-106.5915","1179.6","2009",,,"        0",,"         0","0","21","0,1227,+","0"," ,0,1231,+","0.0"," ,0,1231,+","4.25"," ,0,0623, ",,,,,"12.74"," ,0","0.0"," ,0",,,,,"52.8","0"
"USC00411663","CHARLOTTE 5 NNW, TX US","28.9275","-98.7494","134.4","2009",,,,,"         0","0",,,,,"0.0"," ,0,1231,+","2.36"," ,0,1120, ",,,,,"23.32"," ,0","0.0"," ,0",,,,,,
"US1TXBXR095","HELOTES 3.7 SSE, TX US","29.51703262","-98.67495728","285.0","2009",,,,,,,,,,,,,"2.88"," ,N,1022, ",,,,,"26.07"," ,N",,,,,,,,
"USC00412758","EDINBURG, TX US","26.298","-98.1575","29.3","2009",,,,,,,,,,,,,,,,,,,,,,,,,,,,
"USC00413605","GOLD, TX US","30.3481","-98.6861","499.9","2009",,,"        0",,"         0","0",,,"0"," ,0,1231,+","0.0"," ,0,1231,+","5.73"," ,0,1022, ",,,,,"37.02"," ,0","0.0"," ,0",,,,,,
"USC00411429","CANYON DAM, TX US","29.8607","-98.1959","304.8","2009","3031",,"        0",,"         0","0","23","0,1205, ","0"," ,0,1231,+","0.0"," ,0,1231,+","3.30"," ,0,0911, ","104","0,0706,+","1374","2","40.09"," ,0","0.0"," ,0","68.9","0","80.2","0","57.6","0"
"US1TXHRR027","BUNKER HILL VILLAGE 3.6 NNW, TX US","29.813836","-95.550465","29.0","2009",,,,,,,,,,,,,"9.74"," ,N,0428, ",,,,,"60.28"," ,N",,,,,,,,
"US1TXWM0035","BERTRAM 6.4 ESE, TX US","30.713117","-97.9559","335.0","2009",,,,,,,,,,,,,"3.76"," ,N,1022, ",,,,,"40.53"," ,N",,,,,,,,
"US1TXHRR028","WEBSTER 0.4 NW, TX US","29.5371","-95.1215","7.6","2009",,,,,,,,,,,,,"8.88"," ,N,0425, ",,,,,"61.76"," ,N",,,,,,,,
"US1TXWM0034","GEORGETOWN 2.5 NE, TX US","30.67307","-97.65698","223.1","2009",,,,,,,,,,,,,"2.98"," ,N,0912, ",,,,,"40.06"," ,N",,,,,,,,
"US1TXHRR026","WEST UNIVERSITY PLACE 0.6 SW, TX US","29.708694","-95.439131","15.8","2009",,,,,,,,,,,,,"4.61"," ,N,0428, ",,,,,"46.28"," ,N",,,,,,,,
"US1TXRD0002","CANYON 1.2 NNW, TX US","34.996761","-101.930731","1093.0","2009",,,,,,,,,,,,,"1.60"," ,N,0417, ",,,,,"16.04"," ,N",,,,,,,,
"US1TXRD0001","AMARILLO 6.2 SW, TX US","35.144643","-101.903728","1136.9","2009",,,,,,,,,,,,,"1.12"," ,N,0602, ",,,,,"20.37"," ,N",,,,,,,,
"USC00411671","CHEAPSIDE, TX US","29.30922","-97.40607","111.3","2009",,,,,,,,,,,,,,,,,,,,,,,,,,,,
"USC00411430","CANYON, TX US","34.9805","-101.9263","1094.2","2009",,,,,"         3","0",,,,,"3.0"," ,0,0328, ","1.60"," ,0,0417, ",,,,,"15.34"," ,0","6.0"," ,0",,,,,,
"USC00410586","BAYTOWN, TX US","29.9142","-94.9908","7.9","2009","3158",,,,"         0","0","28","0,1205, ",,,"0.0"," ,0,1231,+","5.26"," ,0,1022, ","101","0,0706, ","1184","0","61.10"," ,0","0.0"," ,0","69.9","0","78.3","0","61.4","0"
"USC00411433","CANYON DAM NUMBER 3, TX US","29.946","-98.3967","373.4","2009",,,"        0",,"         0","0",,,"0"," ,0,1231,+","0.0"," ,0,1231,+","2.91"," ,0,1022, ",,,,,"34.44"," ,0","0.0"," ,0",,,,,,
"USC00410345","ARMSTRONG 4 SE, TX US","26.8338","-97.7077","7.6","2009","3962",,"        0",,"         0","0","25","0,1205,+","0"," ,0,1231,+","0.0"," ,0,1231,+","2.30"," ,0,1130, ","106","0,0704, ","647","3","25.63"," ,0","0.0"," ,0","73.8","0","86.4","0","61.2","0"
"USC00414704","KATY CITY, TX US","29.8024","-95.8196","46.6","2009",,,"        0",,"         0","0",,,"0"," ,0,1231,+","0.0"," ,0,1231,+","6.95"," ,0,0428, ",,,,,"48.51"," ,0","0.0"," ,0",,,,,,
"USR0000TWOO","WOODVILLE TEXAS, TX US","30.75","-94.4","115.8","2009","2828",,,,,,"25","U,1205, ",,,,,,,"103","U,0626,+","1457","7",,,,,"68.3","U","78.6","U","57.9","U"
"USC00413618","GOLIAD, TX US","28.6616","-97.3851","43.3","2009","3540",,"        0",,"         0","0","23","0,1205, ","0"," ,0,1231,+","0.0"," ,0,1231,+","4.05"," ,0,0528, ","104","0,0813,+","1027","8","35.98"," ,0","0.0"," ,0","71.3","0","82.7","0","59.9","0"
"USC00414705","KAUFMAN 3 SE, TX US","32.5586","-96.2725","128.0","2009",,,,,"         0","0",,,,,"0.0"," ,0,1231,+","3.16"," ,0,0503, ",,,,,"55.09"," ,0","0.0"," ,0",,,,,,
"USC00419163","TRUSCOTT 3 W, TX US","33.75707","-99.86187","478.8","2009","2204",,,,,,"10","0,0128, ",,,,,,,"108","0,0710, ",,,,,,,"63.3","0","77.2","0","49.4","0"
"USR0000TBEL","BALCONES TEXAS, TX US","30.5661","-98.0389","315.5","2009","3026",,,,,,"18","U,1205, ",,,,,,,"106","U,0823,+","1544","0",,,,,"68.4","U","80.9","U","55.9","U"
"US1TXWM0048","THRALL 10.5 SSE, TX US","30.4458","-97.235","164.9","2009",,,,,,,,,,,,,"3.84"," ,N,0912, ",,,,,"37.46"," ,N",,,,,,,,
"USC00414911","LA JOYA, TX US","26.3233","-98.3233","64.9","2009",,,"        0",,"         0","0",,,"0"," ,0,1231,+","0.0"," ,0,1231,+","3.00"," ,0,1216, ",,,"432","2","16.24"," ,0","0.0"," ,0",,,,,,
"US1TXWM0016","CEDAR PARK 2.7 SSW, TX US","30.4779","-97.8474","303.9","2009",,,,,,,,,,,,,"2.41"," ,N,0312, ",,,,,"36.44"," ,N",,,,,,,,
"USC00413828","GUTHRIE, TX US","33.62667","-100.33694","536.4","2009","2172",,"        2",,"         2","0","8","0,0128, ","2"," ,0,1225,+","2.0"," ,0,1224, ","1.90"," ,0,1009, ","108","0,0710, ",,,"23.87"," ,0","3.8"," ,0","62.3","0","77.0","0","47.6","0"
"USC00411408","CANADIAN 22 SE, TX US","35.6467","-100.0657","772.1","2009",,,"        1",,"         1","0",,,"8"," ,0,0328, ","8.0"," ,0,0328, ","4.60"," ,0,0818, ",,,,,"26.34"," ,0","8.0"," ,0",,,,,,
"USC00411407","CANADIAN 6 NW, TX US","36.0244","-100.4197","779.7","2009",,,"        0",,"         2","0",,,"0"," ,0,1231,+","12.0"," ,0,0327, ","2.34"," ,0,0620, ",,,,,"20.25"," ,0","14.8"," ,0",,,,,,
"USC00418040","SANFORD DAM, TX US","35.7048","-101.5492","894.9","2009",,,,,,,,,,,,,,,,,,,,,,,,,,,,
"US1TXWM0012","PFLUGERVILLE 4.7 NNE, TX US","30.5047","-97.5937","228.9","2009",,,,,,,,,,,,,"2.06"," ,N,1005, ",,,,,"36.57"," ,N",,,,,,,,
"USW00012977","HOUSTON SUGARLAND MEM, TX US","29.62194","-95.65667","25.6","2009","3270",,,,,,"24","W,1205, ",,,,,"3.25"," ,W,0418, ","104","W,0625, ",,,"36.86"," ,W",,,"70.3","W","80.9","W","59.7","W"
"USW00012976","ANGLETON LAKE JACKSON BRAZORIA CO AIRPORT, TX US","29.10972","-95.46194","7.6","2009",,,,,,,,,,,,,"2.37"," ,W,1029, ",,,,,"34.98"," ,W",,,,,,,,
"USW00012975","HOUSTON CLOVER FIELD, TX US","29.51889","-95.24167","13.4","2009","3112",,,,,,"28","W,1205, ",,,,,"6.65"," ,W,0418, ","101","W,0625, ",,,"55.27"," ,W",,,"70.3","W","79.7","W","60.8","W"
"USW00012972","ROCKPORT ARANSAS CO AIRPORT, TX US","28.08361","-97.04639","6.7","2009","3753",,,,,,"27","W,1205, ",,,,,"7.13"," ,W,1119, ","100","W,0830, ","748","7","25.22"," ,W",,,"72.8","W","80.9","W","64.6","W"
"USC00418046","SANTA ANNA 12 SSE, TX US","31.59061","-99.22579","432.2","2009",,,"        0",,"         0","0",,,"0"," ,0,1231,+","0.5"," ,0,1212, ","2.41"," ,0,0706, ",,,,,"28.29"," ,0","0.5"," ,0",,,,,,
"USW00012971","NEW BRAUNFELS MUNICIPAL AIRPORT, TX US","29.7089","-98.0458","196.6","2009","3584",,,,,,"21","0,1205, ",,,,,"2.25"," ,0,1004, ","107","0,0625, ","1110","6","27.10"," ,0",,,"71.0","0","83.6","0","58.4","0"
"USW00012970","SAN ANTONIO STINSON MUNICIPAL AIRPORT, TX US","29.3389","-98.472","174.0","2009","3679",,,,,,"24","0,1205, ",,,,,"1.96"," ,0,1026, ","107","0,0705, ","1083","7","24.98"," ,0",,,"71.6","0","83.6","0","59.6","0"
"USC00412741","EDEN, TX US","31.2208","-99.8494","624.8","2009",,,"        1",,"         1","0",,,"2"," ,0,1204, ","1.5"," ,0,1204, ","2.25"," ,0,0427, ",,,"2247","1","28.87"," ,0","1.5"," ,0",,,,,,
"USC00414920","LA PRYOR, TX US","28.9838","-99.8684","238.4","2009",,,"        0",,"         0","0",,,"0"," ,0,1231,+","0.0"," ,0,1231,+",,,,,,,,,"0.0"," ,0",,,,,,
"USC00411659","CHARLIE, TX US","34.0972","-98.3164","289.6","2009",,,,,,,,,,,,,"3.49"," ,0,0430, ",,,,,"35.16"," ,0",,,,,,,,
"USC00410569","BAY CITY WATERWORKS, TX US","28.9798","-95.9749","15.8","2009",,,"        0",,"         0","0",,,"0"," ,0,1231,+","0.0"," ,0,1231,+","2.31"," ,0,1027, ",,,,,"33.85"," ,0","0.0"," ,0",,,,,,
"USC00419380","VIGO PARK, TX US","34.6521","-101.497","1036.3","2009","1309",,"        3",,"         2","0","6","0,1225, ","3"," ,0,0328, ","3.0"," ,0,0328, ","1.65"," ,0,0815, ","105","0,0710, ","3901","2","20.44"," ,0","5.9"," ,0","57.1","0","72.2","0","42.0","0"
"USC00418059","SANTA ROSA 3 WNW, TX US","26.2655","-97.8713","15.2","2009",,,"        0",,"         0","0",,,"0"," ,0,1231,+","0.0"," ,0,1231,+","3.30"," ,0,0923, ","104","0,0708,+",,,"26.78"," ,0","0.0"," ,0",,,"86.4","0",,
"USW00012987","EDINBURG 17 NNE, TX US","26.5258","-98.0633","19.5","2009","4385",,,,,,"26","R,1205, ",,,,,"2.69"," ,R,1216, ","106","R,0707, ","573","2","16.43"," ,R",,,"75.2","R","87.2","R","63.2","R"
"USC00411500","CARTHAGE, TX US","32.1615","-94.3398","93.0","2009","2326",,"        0",,"         0","0","22","0,1205, ","0"," ,0,1231,+","0.0"," ,0,1231,+","4.93"," ,0,1030, ","101","0,0702, ",,,"65.99"," ,0","0.0"," ,0","65.1","0","75.7","0","54.6","0"
"USC00410655","BELLVILLE 6 NNE, TX US","30.0316","-96.2166","85.3","2009",,,"        0",,"         0","0",,,"0"," ,0,1231,+","0.0","T,0,1205, ","6.19"," ,0,0418, ",,,,,"39.78"," ,0","0.0","T,0",,,,,,
"USC00413926","HAPPY 4 NW, TX US","34.7861","-101.8953","1126.8","2009",,,"        0",,"         1","0",,,"0","T,0,0209,+","2.5"," ,0,0314, ","2.39"," ,0,0417, ",,,,,"18.87"," ,0","2.5"," ,0",,,,,,
"USC00411990","COPPERAS COVE 5 NW, TX US","31.1602","-97.9563","374.9","2009",,,"        0",,"         0","0",,,"0"," ,0,1231,+","0.0"," ,0,1231,+","4.15"," ,0,1022, ",,,,,"40.63"," ,0","0.0"," ,0",,,,,,
"USC00410660","BELMONT, TX US","29.5245","-97.6849","117.3","2009",,,"        0",,"         0","0",,,"0"," ,0,1231,+","0.0"," ,0,1231,+","5.90"," ,0,1120, ",,,,,"42.29"," ,0","0.0"," ,0",,,,,,
"US1TXHCK003","ROUNDUP 0.4 SW, TX US","33.76","-102.1035","1024.1","2009",,,,,,,,,,,,,"1.69"," ,N,0621, ",,,,,"17.20"," ,N",,,,,,,,
"USC00417060","PITCHFORK RANCH, TX US","33.5992","-100.5319","592.8","2009",,,"        1",,"         1","0",,,"4"," ,0,1224, ","4.0"," ,0,1224, ","1.86"," ,0,0614, ",,,,,"19.01"," ,0","4.0"," ,0",,,,,,
"USC00419007","THREE RIVERS 8 NE, TX US","28.5816","-98.1444","76.2","2009",,,"        0",,"         0","0",,,"0"," ,0,1231,+","0.0"," ,0,1231,+","2.82"," ,0,1004, ",,,,,"25.09"," ,0","0.0"," ,0",,,,,,
"USC00417066","PITTSBURG 5 SSE, TX US","32.9263","-94.9392","111.3","2009",,,,,,,,,,,,,,,,,"1937","1",,,,,,,,,,
"USC00419001","THORNDALE, TX US","30.6146","-97.2085","144.8","2009",,,"        0",,"         0","0",,,"0"," ,0,1231,+","0.0"," ,0,1231,+","2.55"," ,0,0912, ",,,,,"36.24"," ,0","0.0"," ,0",,,,,,
"USC00411720","CHOKE CANYON DAM, TX US","28.4675","-98.2525","70.1","2009","3831",,"        0",,"         0","0","26","0,1206,+","0"," ,0,1231,+","0.0"," ,0,1231,+","1.75"," ,0,0909, ","107","0,0706, ","983","2","20.22"," ,0","0.0"," ,0","72.2","0","84.0","0","60.3","0"
"USC00419207","TYLER, TX US","32.3066","-95.2969","167.6","2009","2332",,"        0",,"         0","0","20","0,1205, ","0"," ,0,1231,+","0.0","T,0,1224,+","3.24"," ,0,0914, ","101","0,0716,+","2147","0","53.64"," ,0","0.0","T,0","65.2","0","75.6","0","54.7","0"
"USC00411968","COOPER DAM, TX US","33.3191","-95.6038","141.1","2009",,,,,"         0","0",,,,,"0.0"," ,0,1231,+","3.83"," ,0,0430, ",,,,,"63.81"," ,0","0.0"," ,0",,,,,,
"USC00410639","BEEVILLE 5 NE, TX US","28.4575","-97.7061","77.7","2009","3741",,"        0",,"         0","0","30","0,0203,+","0"," ,0,1231,+","0.0"," ,0,1231,+","5.07"," ,0,1004, ","104","0,0706,+","955","6","31.00"," ,0","0.0"," ,0","72.6","0","83.8","0","61.4","0"
"US1TXEL0007","PECAN HILL 2.7 WSW, TX US","32.4778","-96.8147","182.9","2009",,,,,,,,,,,,,"3.14"," ,N,0913, ",,,,,"48.67"," ,N",,,,,,,,
"USC00415094","LAVON DAM, TX US","33.0352","-96.4861","155.4","2009",,,"        0",,"         0","0",,,"0"," ,0,1231,+","0.0"," ,0,1231,+","3.85"," ,0,0911, ","102","0,0714, ",,,"52.45"," ,0","0.0"," ,0",,,"74.6","0",,
"USC00418126","SCHULENBURG, TX US","29.6825","-96.8563","88.4","2009",,,"        0",,"         0","0",,,"0"," ,0,1231,+","0.0"," ,0,1231,+","9.83"," ,0,0417, ",,,,,"43.31"," ,0","0.0"," ,0",,,,,,
"USC00415097","LAWN, TX US","32.14139","-99.75278","594.4","2009",,,"        0",,"         1","0",,,"0"," ,0,1231,+","1.5"," ,0,1224, ","2.25"," ,0,0630, ",,,,,"23.68"," ,0","1.5"," ,0",,,,,,
"USC00419697","WHITE DEER, TX US","35.4306","-101.1764","1029.6","2009",,,"        1",,"         3","0",,,"2"," ,0,0314, ","2.0"," ,0,0314, ","2.50"," ,0,1021, ",,,,,"20.28"," ,0","6.1"," ,0",,,,,,
"USC00411974","COPE RANCH, TX US","31.5333","-101.2842","755.9","2009",,,,,,,,,,,,,,,,,,,,,,,,,,,,
"USC00412820","ELGIN 1 N, TX US","30.36425","-97.36997","181.1","2009","3086",,"        0",,"         0","0","22","0,1205, ","0"," ,0,1231,+","0.0"," ,0,1231,+","2.95"," ,0,0912, ","105","0,0630, ","1530","0","31.36"," ,0","0.0"," ,0","68.6","0","79.7","0","57.5","0"
"USC00412824","EL INDIO 7 ESE, TX US","28.4747","-100.2147","246.0","2009",,,"        0",,"         0","0",,,"0"," ,0,1231,+","0.0"," ,0,1231,+","3.40"," ,0,0910, ",,,,,"13.81"," ,0","0.0"," ,0",,,,,,
"USC00410408","ATLANTA, TX US","33.1244","-94.1661","96.0","2009","2088",,"        0",,"         0","0","20","0,1206,+","0"," ,0,1231,+","0.0"," ,0,1231,+","6.05"," ,0,0503, ","103","0,0717,+","2604","8","76.93"," ,0","0.0"," ,0","63.4","0","74.5","0","52.2","0"
"USC00417040","PINELAND, TX US","31.2447","-93.9657","67.1","2009",,,"        0",,"         0","0",,,"0"," ,0,1231,+","0.0"," ,0,1231,+",,,,,,,,,"0.0"," ,0",,,,,,
"USC00418373","SLATON, TX US","33.4368","-101.6473","939.4","2009",,,"        1",,"         1","0",,,"5"," ,0,1224, ","5.0"," ,0,1224, ","2.34"," ,0,0908, ",,,,,"15.49"," ,0","5.0"," ,0",,,,,,
"US1TXAT0001","POTEET 4.1 ENE, TX US","29.065423","-98.515984","146.0","2009",,,,,,,,,,,,,"2.65"," ,N,1004, ",,,,,"27.12"," ,N",,,,,,,,
"USC00418139","SCOTLAND, TX US","33.6633","-98.4704","293.8","2009",,,,,"         1","0",,,,,"8.0"," ,0,1225, ","6.14"," ,0,0430, ",,,,,"29.05"," ,0","8.0"," ,0",,,,,,
"USC00419224","UMBARGER, TX US","34.9577","-102.1044","1141.8","2009",,,"        6",,"         6","0",,,"4"," ,0,0328, ","7.0"," ,0,0328, ","1.41"," ,0,1021, ",,,,,"14.61"," ,0","17.0"," ,0",,,,,,
"USR0000TLBJ","LBJ RD TEXAS, TX US","33.1728","-97.3756","317.0","2009","2411",,,,,,"15","U,0128, ",,,,,,,"106","U,0713, ","2218","4",,,,,"64.8","U","75.7","U","53.9","U"
"USC00410611","BEAUMONT CITY, TX US","30.0969","-94.0997","6.1","2009","2961",,"        0",,"         0","0","27","0,1206,+","0"," ,0,1231,+","0.0"," ,0,1231,+","3.65"," ,0,0419, ","102","0,0703, ",,,"60.97"," ,0","0.0"," ,0","69.2","0","78.9","0","59.6","0"
"USW00023007","CHILDRESS MUNICIPAL AIRPORT, TX US","34.4272","-100.2831","594.7","2009","2108",,,,,,"11","0,0128, ",,,,,"1.76"," ,0,0729, ","110","0,0710, ","2778","2","19.56"," ,0",,,"62.4","0","76.0","0","48.8","0"
"USC00410613","BEAUMONT RESRCH CTR, TX US","30.0688","-94.2927","8.2","2009",,,"        0",,"         0","0",,,"0"," ,0,1231,+","0.0"," ,0,1231,+","2.69"," ,0,0419, ",,,,,"45.01"," ,0","0.0"," ,0",,,,,,
"USC00411946","CONLEN, TX US","36.2352","-102.2405","1164.3","2009",,,,,"         1","0",,,,,"10.0"," ,0,0325, ","1.35"," ,0,0620, ",,,,,"13.27"," ,0","10.2"," ,0",,,,,,
"US1TXGV0003","KEMAH 2.0 WSW, TX US","29.515821","-95.049885","7.9","2009",,,,,,,,,,,,,"6.36"," ,N,0418, ",,,,,"56.73"," ,N",,,,,,,,
"US1TXKN0004","BOERNE 5.1 NNW, TX US","29.856008","-98.777403","570.3","2009",,,,,,,,,,,,,"3.09"," ,N,1022, ",,,,,"28.82"," ,N",,,,,,,,
"US1TXKN0005","KENDALIA 5.2 SSW, TX US","29.895847","-98.538197","346.6","2009",,,,,,,,,,,,,"3.02"," ,N,0910, ",,,,,"34.31"," ,N",,,,,,,,
"USW00093985","MINERAL WELLS AIRPORT, TX US","32.7816","-98.0602","283.5","2009","2469",,,,,,"15","0,0128, ",,,,,"3.32"," ,0,1021, ","107","0,0715,+","2261","0","33.58"," ,0",,,"65.2","0","78.1","0","52.2","0"
"USC00418583","STAMFORD 1, TX US","32.94035","-99.80357","491.3","2009","2292",,,,"         3","0","10","0,0128, ",,,"5.0"," ,0,1224, ","2.58"," ,0,0429, ","107","0,0710, ","2493","1","25.73"," ,0","10.5"," ,0","63.7","0","77.1","0","50.4","0"
"USW00093987","LUFKIN ANGELINA CO AIRPORT, TX US","31.23611","-94.75444","87.8","2009","2774",,,,,,"22","X,1205, ",,,,,"5.58"," ,X,1029, ","104","X,0702, ","1742","8","55.28"," ,X",,,"67.5","X","78.5","X","56.4","X"
"USR0000TPIN","PINERY TEXAS, TX US","31.8944","-104.7978","1640.1","2009","1335",,,,,,"15","U,1204, ",,,,,,,"96","U,0715,+","2683","6",,,,,"60.7","U","70.6","U","50.8","U"
"USR0000TLAG","LAGUNA ATASCOSA TEXAS, TX US","26.2283","-97.3483","7.6","2009","4047",,,,,,"32","U,1205, ",,,,,,,"101","U,0707,+",,,,,,,"74.4","U","82.8","U","66.1","U"
"USC00411711","CHIRENO, TX US","31.5039","-94.3523","100.6","2009",,,"        0",,"         0","0",,,"0"," ,0,1231,+","0.0"," ,0,1231,+","5.80"," ,0,1030, ",,,,,"58.87"," ,0","0.0"," ,0",,,,,,
"USC00411956","CONROE, TX US","30.3302","-95.4831","74.7","2009","2734",,"        0",,"         0","0","24","0,1205, ","0"," ,0,1231,+","0.0"," ,0,1231,+","3.50"," ,0,1030, ","102","0,0630,+",,,"50.26"," ,0","0.0"," ,0","67.9","0","78.3","0","57.6","0"
"USC00412809","ELDORADO, TX US","30.8694","-100.5994","743.7","2009","2003",,"        0",,"         1","0","16","0,1225, ","0"," ,0,1231,+","1.0"," ,0,1204, ","2.58"," ,0,0911, ","101","0,0710, ","2235","7","21.89"," ,0","1.0"," ,0","63.5","0","76.7","0","50.3","0"
"USR0000TCON","CONROE TEXAS, TX US","30.2364","-95.4828","36.6","2009","2946",,,,,,"22","U,1205, ",,,,,,,"104","U,0626,+","1383","5",,,,,"68.6","U","79.8","U","57.5","U"
"USC00416177","NACOGDOCHES, TX US","31.6163","-94.643","132.6","2009","2575",,"        0",,"         0","0","20","0,1206,+","0"," ,0,1231,+","0.0"," ,0,1231,+","6.07"," ,0,1030, ","104","0,0702, ","2241","0","48.65"," ,0","0.0"," ,0","65.8","0","77.4","0","54.2","0"
"USC00418358","SISTERDALE 2 SE, TX US","29.95233","-98.71252","401.4","2009",,,"        0",,"         0","0",,,"0"," ,0,1231,+","0.0"," ,0,1231,+","3.30"," ,0,0312, ",,,,,"26.16"," ,0","0.0"," ,0",,,,,,
"USC00417264","PRESIDIO 2, TX US","29.5599","-104.3728","783.3","2009",,,,,,,,,,,,,,,,,,,,,,,,,,,,
"USC00418354","SINTON, TX US","28.0423","-97.5428","14.6","2009","3800",,"        0",,"         0","0","27","0,1205, ","0"," ,0,1231,+","0.0"," ,0,1231,+","3.87"," ,0,0909, ","101","0,0828,+","781","7","32.28"," ,0","0.0"," ,0","72.8","0","83.5","0","62.0","0"
"USC00410832","BLANCO, TX US","30.095","-98.4142","399.3","2009",,,"        0",,"         0","0",,,"0"," ,0,1231,+","0.0"," ,0,1231,+","3.02"," ,0,1022, ",,,,,"31.41"," ,0","0.0"," ,0",,,,,,
"USC00411920","COMFORT 2, TX US","29.9615","-98.8945","436.8","2009",,,"        0",,"         0","0",,,"0"," ,0,1231,+","0.0"," ,0,1231,+","4.00"," ,0,0312, ",,,,,"27.78"," ,0","0.0"," ,0",,,,,,
"USR0000TCOL","COLORADO BEND TEXAS, TX US","31.0522","-98.5003","383.7","2009","2731",,,,,,"20","U,0128, ",,,,,,,"106","U,0726,+","1585","6",,,,,"67.3","U","79.6","U","55.0","U"
"US1TXDN0009","CELINA 4.4 WSW, TX US","33.295462","-96.854964","185.6","2009",,,,,,,,,,,,,"4.18"," ,N,0503, ",,,,,"52.98"," ,N",,,,,,,,
"US1TXDA0004","ROWLETT 2.3 NW, TX US","32.932145","-96.57692","164.9","2009",,,,,,,,,,,,,"3.45"," ,N,0503, ",,,,,"50.81"," ,N",,,,,,,,
"US1TXDA0003","UNIVERSITY PARK 3.1 WNW, TX US","32.863","-96.845","159.1","2009",,,,,,,,,,,,,"5.05"," ,N,0913, ",,,,,"49.27"," ,N",,,,,,,,
"USC00418323","SILVERTON, TX US","34.47222","-101.30056","999.7","2009",,,,,"         3","0",,,,,"4.0"," ,0,0328,+","1.26"," ,0,0602, ",,,,,"22.31"," ,0","11.1"," ,0",,,,,,
"USC00419655","WHARTON, TX US","29.3177","-96.0847","33.8","2009",,,"        0",,"         0","0",,,"0"," ,0,1231,+","0.0"," ,0,1231,+","4.54"," ,0,0419, ",,,,,"38.23"," ,0","0.0"," ,0",,,,,,
"US1TXDN0003","SANGER 5.4 NW, TX US","33.407","-97.25222","251.2","2009",,,,,,,,,,,,,"3.60"," ,N,1022, ",,,,,"42.72"," ,N",,,,,,,,
"US1TXWS0003","BRIDGEPORT 12.0 SW, TX US","33.10006","-97.920005","306.0","2009",,,,,,,,,,,,,"4.12"," ,N,0611, ",,,,,"42.57"," ,N",,,,,,,,
"USC00418566","SPUR, TX US","33.47917","-100.87611","700.1","2009","1867",,"        3",,"         2","0","11","0,1226,+","3"," ,0,1225,+","3.0"," ,0,1224, ","2.35"," ,0,0417, ","104","0,0711,+","2999","1","17.33"," ,0","4.0"," ,0","61.0","0","76.3","0","45.7","0"
"USC00418326","SILVER VALLEY, TX US","31.955","-99.5438","612.6","2009",,,"        1",,"         1","0",,,"3"," ,0,1224, ","3.0"," ,0,1224, ","2.00"," ,0,0630, ",,,,,"24.40"," ,0","3.9"," ,0",,,,,,
"USC00419898","WOODVILLE, TX US","30.7677","-94.4116","86.3","2009",,,"        0",,"         0","0",,,"0"," ,0,1231,+","0.0"," ,0,1231,+","3.19"," ,0,1022, ",,,,,"48.06"," ,0","0.0"," ,0",,,,,,
"US1TXDN0008","FLOWER MOUND 2.3 NE, TX US","33.05617142","-97.07029724","180.1","2009",,,,,,,,,,,,,"3.35"," ,N,1022, ",,,,,"44.39"," ,N",,,,,,,,
"USC00419893","WOODSON, TX US","33.01784","-99.05402","378.9","2009",,,"        0",,"         0","0",,,"0"," ,0,1231,+","0.0"," ,0,1231,+","2.95"," ,0,0913, ",,,,,"25.14"," ,0","0.0"," ,0",,,,,,
"USC00417232","PRADE RANCH, TX US","29.9167","-99.7908","625.4","2009",,,,,"         0","0",,,,,"0.0"," ,0,1231,+","2.15"," ,0,0312, ",,,,,"19.26"," ,0","0.0"," ,0",,,,,,
"USC00419417","WACO DAM, TX US","31.6003","-97.2169","150.9","2009","2584",,"        0",,"         0","0","21","0,0128, ","0"," ,0,1231,+","0.0"," ,0,1231,+","2.90"," ,0,0312, ","102","0,0827,+",,,"40.16"," ,0","0.0"," ,0","66.3","0","77.3","0","55.3","0"
"USC00411934","CONCHO PARK IVIE RESERVOIR, TX US","31.55174","-99.70829","478.2","2009",,,,,"         0","0","17","0,0128, ",,,"0.0"," ,0,1231,+","1.70"," ,0,0905, ",,,,,"22.85"," ,0","0.0"," ,0",,,,,"52.8","0"
"USC00417480","RED BLUFF CROSSING, TX US","31.21767","-98.58338","382.5","2009",,,"        0",,"         0","0",,,"0"," ,0,1231,+","0.5"," ,0,0128, ","3.50"," ,0,0427, ",,,,,"34.13"," ,0","0.5"," ,0",,,,,,
"US1TXDA0016","DUNCANVILLE 1.7 NNW, TX US","32.669782","-96.921618","214.6","2009",,,,,,,,,,,,,"4.46"," ,N,0913, ",,,,,"59.66"," ,N",,,,,,,,
"USC00415060","LAREDO 2, TX US","27.5684","-99.4982","131.1","2009","4473",,"        0",,"         0","0","30","0,1205,+","0"," ,0,1231,+","0.0"," ,0,1231,+","1.44"," ,0,0929, ","107","0,0801,+","710","7","13.52"," ,0","0.0"," ,0","74.9","0","86.7","0","63.1","0"
"USC00417243","PRAIRIE MOUNTAIN, TX US","30.5768","-98.8766","441.4","2009",,,,,,,,,,,,,,,,,,,,,,,,,,,,
"USC00416119","MOUNT VERNON, TX US","33.1963","-95.2236","136.2","2009","1958",,"        0",,"         0","0","19","0,0116, ","0","T,0,0128, ","0.0","T,0,0128, ","3.94"," ,0,0503, ","103","0,0717,+","2710","4","74.34"," ,0","0.0","T,0","62.8","0","73.6","0","51.9","0"
"USW00023042","LUBBOCK INTERNATIONAL AIRPORT, TX US","33.6656","-101.8231","991.8","2009","1928",,"        5",,"         2","0","5","0,1225, ","3"," ,0,1224, ","2.9"," ,0,1224, ","1.56"," ,0,0908, ","107","0,0709, ","2957","0","12.89"," ,0","6.1"," ,0","61.4","0","75.9","0","46.8","0"
"USW00023044","EL PASO INTERNATIONAL AIRPORT, TX US","31.81111","-106.37583","1194.2","2009","2723",,"        2",,"         3","0","20","0,0111, ","2"," ,0,1204, ","3.0"," ,0,1201, ","1.85"," ,0,0628, ","105","0,0715,+","2067","2","8.70"," ,0","8.3"," ,0","66.4","0","79.4","0","53.4","0"
"USC00417206","POST, TX US","33.1985","-101.3745","795.8","2009","2333",,"        2",,"         1","0","12","0,0128, ","5"," ,0,1224, ","5.0"," ,0,1224, ","1.48"," ,0,0911, ","107","0,0710,+","2654","6","19.69"," ,0","5.8"," ,0","63.4","0","77.5","0","49.3","0"
"USW00023040","WINK FAA AIRPORT, TX US","31.7801","-103.2018","855.6","2009","2685",,,,,,"9","0,0128, ",,,,,"0.80"," ,0,0523, ","107","0,0720,+","2345","7","5.98"," ,0",,,"65.6","0","81.6","0","49.6","0"
"USW00023047","AMARILLO AIRPORT, TX US","35.2295","-101.7042","1098.5","2009","1302",,"        7",,"         5","0","4","0,0127, ","11"," ,0,0328, ","9.9"," ,0,0327, ","2.30"," ,0,0817, ","106","0,0709, ","3756","8","21.17"," ,0","18.4"," ,0","57.3","0","71.4","0","43.3","0"
"USR0000TLND","LINDEN TEXAS, TX US","33.0","-94.8","152.4","2009","2139",,,,,,"21","U,1205,+",,,,,,,"102","U,0716,+","2363","8",,,,,"64.1","U","74.4","U","53.8","U"
"USC00415271","LIVINGSTON 2 NNE, TX US","30.7394","-94.9256","54.3","2009","2987",,"        0",,"         0","0","27","0,1229,+","0"," ,0,1231,+","0.0"," ,0,1231,+","3.92"," ,0,0418, ","104","0,0625, ","1490","7","51.31"," ,0","0.0"," ,0","68.7","0","79.1","0","58.3","0"
"USC00418544","SPRING BRANCH 2 SE, TX US","29.8652","-98.3796","306.3","2009",,,"        0",,"         0","0",,,"0"," ,0,1231,+","0.0"," ,0,1231,+","3.52"," ,0,0910, ",,,,,"32.87"," ,0","0.0"," ,0",,,,,,
"USC00415272","LLANO, TX US","30.7426","-98.6543","310.9","2009",,,"        0",,"         0","0","18","0,0131, ","0"," ,0,1231,+","0.0"," ,0,1231,+","2.79"," ,0,0312, ",,,,,"35.58"," ,0","0.0"," ,0",,,,,"53.9","0"
"USC00417215","POTEET, TX US","29.028","-98.5686","129.5","2009","3553",,"        0",,"         0","0","24","0,1206,+","0"," ,0,1231,+","0.0"," ,0,1231,+","2.05"," ,0,1004, ","109","0,0706, ","1098","8","24.69"," ,0","0.0"," ,0","71.2","0","84.0","0","58.4","0"
"US1TXNV0003","KERENS 3.4 NW, TX US","32.16288","-96.26843","122.8","2009",,,,,,,,,,,,,"2.69"," ,N,0312, ",,,,,"53.58"," ,N",,,,,,,,
"USC00416368","NIXON, TX US","29.2827","-97.7675","103.6","2009",,,"        0",,"         0","0",,,"0"," ,0,1231,+","0.0"," ,0,1231,+",,,,,"1166","6",,,"0.0"," ,0",,,,,,
"USC00416367","NIX STORE 1 W, TX US","31.108","-98.3794","414.5","2009",,,"        0",,"         0","0",,,"0"," ,0,1231,+","0.0"," ,0,1231,+","3.57"," ,0,1022, ",,,,,"37.74"," ,0","0.0"," ,0",,,,,,
"US1TXJS0002","JASPER 6.7 W, TX US","30.902976","-94.106509","81.1","2009",,,,,,,,,,,,,"4.34"," ,N,0504, ",,,,,"59.84"," ,N",,,,,,,,
"US1TXJS0003","KIRBYVILLE 1.5 SE, TX US","30.64054","-93.88509","36.0","2009",,,,,,,,,,,,,"3.63"," ,N,0708, ",,,,,"58.06"," ,N",,,,,,,,
"USC00415276","LLANO 18 S, TX US","30.5013","-98.7452","420.6","2009",,,"        0",,"         0","0",,,"0"," ,0,1231,+","0.0"," ,0,1231,+",,,,,,,,,"0.0"," ,0",,,,,,
"US1TXNV0001","FROST 1.3 WNW, TX US","32.083792","-96.829318","155.4","2009",,,,,,,,,,,,,"3.75"," ,N,0312, ",,,,,"43.43"," ,N",,,,,,,,
"USW00023055","PINE SPRINGS GUADALUPE MOUNTAINS NATIONAL PARK, TX US","31.83111","-104.80889","1663.0","2009",,,,,,,,,,,,,,,,,,,,,,,,,,,,
"USC00417458","RAYMONDVILLE, TX US","26.4644","-97.7848","9.4","2009",,,"        0",,"         0","0","32","0,1231, ","0"," ,0,1231,+","0.0"," ,0,1231,+","2.73"," ,0,0525, ","104","0,0708,+",,,"23.68"," ,0","0.0"," ,0","74.3","0","86.1","0","62.5","0"
"USC00411911","COLUMBUS, TX US","29.699","-96.573","68.6","2009","3162",,"        0",,"         0","0","22","0,1205, ","0","T,0,1205, ","0.0","T,0,1205, ","5.10"," ,0,0418, ","104","0,0706, ","1405","5","35.57"," ,0","0.0","T,0","69.5","0","81.1","0","58.0","0"
"US1TXBWE001","DE KALB 0.1 SSW, TX US","33.5058","-94.6173","125.3","2009",,,,,,,,,,,,,"6.38"," ,N,0510, ",,,,,"79.69"," ,N",,,,,,,,
"US1TXPR0005","DENNIS 1.4 SW, TX US","32.605525","-97.945411","244.8","2009",,,,,,,,,,,,,"2.85"," ,N,0913, ",,,,,"34.48"," ,N",,,,,,,,
"USC00415285","LOCKHART 2 SW, TX US","29.8569","-97.6958","149.4","2009",,,"        0",,"         0","0",,,"0"," ,0,1231,+","0.0"," ,0,1231,+","3.98"," ,0,1004, ",,,,,"31.11"," ,0","0.0"," ,0",,,,,,
"USC00415048","LANGTRY, TX US","29.8097","-101.5604","393.2","2009","3751",,"        0",,"         0","0","24","0,0130, ","0"," ,0,1231,+","0.0"," ,0,1231,+","2.10"," ,0,0619, ","108","0,0709, ","1392","5","11.19"," ,0","0.0"," ,0","70.9","0","84.1","0","57.7","0"
"USC00416137","MULESHOE NWR, TX US","33.95444","-102.77833","1140.0","2009","1292",,,,"         1","0","-2","0,1225, ",,,"3.0"," ,0,1230, ","1.97"," ,0,0718, ","103","0,0710, ","3694","5","17.52"," ,0","4.0"," ,0","57.6","0","74.1","0","41.0","0"
"USR0000TFAL","FALCON LAKE TEXAS, TX US","26.5547","-99.1356","66.8","2009","4823",,,,,,"24","U,1205, ",,,,,,,"112","U,0707,+","563","0",,,,,"76.5","U","90.0","U","62.9","U"
"USR0000THEN","HENDERSON TEXAS, TX US","32.15","-94.8","152.4","2009","2582",,,,,,"22","U,1205, ",,,,,,,"103","U,0716,+","1914","5",,,,,"66.5","U","76.9","U","56.0","U"
"USC00416135","MULESHOE NUMBER 1, TX US","34.21917","-102.73278","1167.4","2009","1239",,"       11",,"         4","0","-1","0,1225, ","4"," ,0,1225,+","4.0"," ,0,1224, ","1.46"," ,0,0527, ","102","0,0715,+",,,"18.05"," ,0","8.6"," ,0","56.9","0","74.2","0","39.5","0"
"USC00418311","SILSBEE 4 N, TX US","30.3702","-94.2019","54.9","2009",,,"        0",,"         0","0",,,"0"," ,0,1231,+","0.0"," ,0,1231,+","4.12"," ,0,0731, ",,,,,"51.34"," ,0","0.0"," ,0",,,,,,
"USC00418519","SPEAKS 2, TX US","29.2728","-96.6858","43.6","2009",,,"        0",,"         0","0",,,"0","T,0,1205, ","0.0","T,0,1205, ","6.60"," ,0,0419, ",,,,,"44.43"," ,0","0.0","T,0",,,,,,
"USW00023023","MIDLAND INTERNATIONAL AIRPORT, TX US","31.9475","-102.2086","872.3","2009","2403",,"        0",,"         2","0","12","0,0128, ","0","T,0,1224,+","1.3"," ,0,1229, ","1.85"," ,0,0717, ","104","0,0709,+","2381","0","14.75"," ,0","2.9"," ,0","64.5","0","78.7","0","50.4","0"
"USC00415247","LIPSCOMB, TX US","36.23615","-100.2707","728.5","2009","1392",,"        1",,"         0","0","-2","0,1211,+","15"," ,0,0328, ","0.0"," ,0,1231,+","1.49"," ,0,0730, ","112","0,0710, ","4429","8","18.39"," ,0","0.0"," ,0","55.8","0","71.3","0","40.4","0"
"USC00419847","WINGATE, TX US","32.0444","-100.1078","613.3","2009","2315",,"        1",,"         1","0","12","0,0128, ","1"," ,0,1230, ","1.0"," ,0,1230, ","1.26"," ,0,0630, ","106","0,0710, ","2470","4","19.93"," ,0","1.0"," ,0","64.1","0","78.0","0","50.2","0"
"US1TXHPK001","CUMBY 5.6 SSE, TX US","33.055328","-95.811596","164.9","2009",,,,,,,,,,,,,"3.90"," ,N,0503, ",,,,,"61.06"," ,N",,,,,,,,
"USC00417677","ROBSTOWN, TX US","27.7895","-97.662","25.9","2009","3678",,"        0",,"         0","0","28","0,1205, ","0"," ,0,1231,+","0.0"," ,0,1231,+","1.40"," ,0,1217, ","104","0,0617, ","605","3","11.78"," ,0","0.0"," ,0","73.2","0","84.7","0","61.7","0"
"USC00416104","MOUNT LOCKE, TX US","30.7053","-104.0232","2069.6","2009",,,,,,,,,,,,,,,,,,,,,,,,,,,,
"US1TXCRL003","KEMPNER 6.7 ENE, TX US","31.091592","-97.889957","311.2","2009",,,,,,,,,,,,,"4.41"," ,N,1022, ",,,,,"33.23"," ,N",,,,,,,,
"USC00416108","MOUNT PLEASANT, TX US","33.1688","-95.0055","129.5","2009","1896",,"        0",,"         0","0","19","0,1205,+","0"," ,0,1231,+","0.0"," ,0,1231,+","4.67"," ,0,0503, ","101","0,0717,+","2711","0","66.77"," ,0","0.0"," ,0","62.5","0","74.1","0","50.9","0"
"USC00415018","LAMPASAS, TX US","31.0717","-98.1847","314.6","2009","2626",,"        0",,"         0","0","21","0,1205,+","0"," ,0,1231,+","0.0"," ,0,1231,+","2.75"," ,0,1021, ","104","0,0726,+","1980","8","36.81"," ,0","0.0"," ,0","66.5","0","79.4","0","53.7","0"
"USW00023034","SAN ANGELO MATHIS FIELD AIRPORT, TX US","31.3516","-100.495","584.0","2009","2756",,"        1",,"         1","0","17","0,0111, ","1"," ,0,1204, ","1.7"," ,0,1204, ","2.28"," ,0,0427, ","108","0,0613, ","1990","6","25.56"," ,0","1.7"," ,0","66.8","0","80.8","0","52.8","0"
"USW00053968","PALESTINE 6 WNW, TX US","31.7796","-95.7232","116.7","2009","2541",,,,,,"19","R,1205, ",,,,,"3.63"," ,R,1021, ","104","R,0702, ","1914","5","47.67"," ,R",,,"66.4","R","77.0","R","55.8","R"
"USC00410805","BISHOP, TX US","27.58417","-97.80306","20.4","2009","4099",,"        0",,"         0","0","25","0,1205, ","0"," ,0,1231,+","0.0"," ,0,1231,+","3.81"," ,0,0910, ","106","0,0706,+","783","3","20.77"," ,0","0.0"," ,0","73.6","0","85.0","0","62.1","0"
"USC00415265","LITTLEFIELD, TX US","33.8692","-102.2592","1056.4","2009","1598",,"        7",,"         3","0","9","0,1226,+","7"," ,0,1224, ","7.0"," ,0,1224, ","1.38"," ,0,0621, ","106","0,0710, ","3262","3","15.57"," ,0","10.5"," ,0","59.7","0","75.5","0","43.9","0"
"USC00418531","SPICEWOOD, TX US","30.48128","-98.16066","259.1","2009",,,"        0",,"         0","0",,,"0"," ,0,1231,+","0.0"," ,0,1231,+","5.15"," ,0,1022, ",,,,,"40.59"," ,0","0.0"," ,0",,,,,,
"USC00415229","LINDEN, TX US","33.0161","-94.3674","126.5","2009",,,"        0",,"         0","0",,,"0","T,0,0129, ","0.1"," ,0,0129, ","7.35"," ,0,0728, ",,,,,"85.52"," ,0","0.1"," ,0",,,,,,
"US1TXCMR021","LOS FRESNOS 0.3 NE, TX US","26.077132","-97.47585","11.0","2009",,,,,,,,,,,,,"3.18"," ,N,1217, ",,,,,"28.78"," ,N",,,,,,,,
"USC00414140","HIGGINS, TX US","36.1162","-100.0238","781.5","2009",,,"        0",,"         1","0",,,"0"," ,0,1231,+","10.0"," ,0,0328, ","1.80"," ,0,0328, ",,,,,"20.41"," ,0","10.0"," ,0",,,,,,
"USC00414382","HUNTSVILLE, TX US","30.7065","-95.5421","150.6","2009","3021",,"        0",,"         0","0","27","0,0130,+","0","T,0,1205, ","0.5"," ,0,1205, ","5.20"," ,0,0418, ","103","0,0625, ","1605","5","52.89"," ,0","0.5"," ,0","68.8","0","78.5","0","59.2","0"
