"STATION","NAME","LATITUDE","LONGITUDE","ELEVATION","DATE","CDSD","CDSD_ATTRIBUTES","DSND","DSND_ATTRIBUTES","DSNW","DSNW_ATTRIBUTES","EMNT","EMNT_ATTRIBUTES","EMSD","EMSD_ATTRIBUTES","EMSN","EMSN_ATTRIBUTES","EMXP","EMXP_ATTRIBUTES","EMXT","EMXT_ATTRIBUTES","HDSD","HDSD_ATTRIBUTES","PRCP","PRCP_ATTRIBUTES","SNOW","SNOW_ATTRIBUTES","TAVG","TAVG_ATTRIBUTES","TMAX","TMAX_ATTRIBUTES","TMIN","TMIN_ATTRIBUTES"
"USC00476380","PADDOCK LAKE, WI US","42.5805","-88.0902","236.2","2007","727",,"       79",,"        18","0","-15","0,0205, ","11"," ,0,1216,+","7.2"," ,0,1216, ","2.62"," ,0,0805, ","91","0,0710,+","6759","8","39.96"," ,0","59.3"," ,0","48.1","0","57.9","0","38.2","0"
"USW00004803","RHINELANDER ONEIDA CO AIRPORT, WI US","45.6314","-89.4823","495.0","2007","405",,,,,,"-27","W,0206, ",,,,,"1.65"," ,W,0726, ","93","W,0708, ","8577","3","26.57"," ,W",,,"42.3","W","52.5","W","32.1","W"
"USC00474080","JUMP RIVER 3 E, WI US","45.3497","-90.7484","385.6","2007","379",,"       95",,"        18","0","-27","0,0205, ","28"," ,0,1228, ","11.5"," ,0,1223, ","2.17"," ,0,0921, ","90","0,0708,+","8078","6","31.78"," ,0","72.3"," ,0","42.7","0","53.1","0","32.4","0"
"USC00470273","UW ARBORETUM MADISON, WI US","43.04118","-89.42872","265.2","2007","670",,,,,,"-15","0,0206,+",,,,,,,"93","0,0709, ","6812","3","41.93"," ,0","58.1"," ,0","47.4","0","57.5","0","37.3","0"
"USC00473661","HINGHAM WWTP, WI US","43.6409","-87.90967","232.6","2007","601",,"       93",,"        17","0","-14","0,0205, ","12"," ,0,1220,+","6.2"," ,0,0224, ","3.22"," ,0,0727, ","96","0,0709, ","7112","4","33.36"," ,0","65.0"," ,0","46.7","0","55.7","0","37.7","0"
"USC00475286","MELLEN 4 NE, WI US","46.3689","-90.6417","396.2","2007",,,,,,,,,,,,,,,,,"8745","1",,,,,,,,,,
"USC00475164","MATHER 3 NW, WI US","44.1746","-90.3482","298.1","2007","493",,"       90",,"        20","0","-20","0,0206, ","20"," ,0,0307, ","9.0"," ,0,0224, ","1.68"," ,0,0819, ","95","0,0709, ","7843","5","30.80"," ,0","81.6"," ,0","44.4","0","55.3","0","33.5","0"
"USC00471923","CUMBERLAND, WI US","45.5331","-92.0226","378.0","2007","506",,"       96",,"        20","0","-22","0,0206, ","19"," ,0,0303, ","10.0"," ,0,0302, ","2.08"," ,0,0723, ","92","0,0709,+","8191","6","31.65"," ,0","63.0"," ,0","43.1","0","53.0","0","33.3","0"
"USC00477464","ST. CROIX FALLS, WI US","45.4117","-92.6466","228.6","2007","739",,"       92",,"        13","0","-29","0,0206, ","14"," ,0,0303,+","8.0"," ,0,0302, ","2.45"," ,0,0919, ","96","0,0727, ","7234","9","31.24"," ,0","34.6"," ,0","45.5","0","55.9","0","35.1","0"
"USW00094994","BOSCOBEL AIRPORT, WI US","43.15611","-90.6775","204.8","2007","809",,,,,,"-23","W,0205, ",,,,,"3.69"," ,W,0819, ","95","W,0708, ","6687","1","45.69"," ,W",,,"48.4","W","59.8","W","37.0","W"
"USC00471249","BUTTERNUT 3 SW, WI US","45.9808","-90.5416","478.5","2007",,,,,,,,,,,,,,,,,,,,,,,,,,,,
"USC00477226","RIVER FALLS, WI US","44.8544","-92.6122","286.5","2007","618",,,,,,"-21","0,0206, ",,,,,"1.85"," ,0,0827, ","96","0,0723, ","7742","9","30.37"," ,0",,,"44.6","0","54.8","0","34.4","0"
"USC00477349","ROSHOLT 9 NNE, WI US","44.7511","-89.245","360.6","2007","425",,,,,,"-19","0,0205,+",,,,,"1.79"," ,0,0727, ","93","0,0709, ","8057","9","29.08"," ,0",,,"43.3","0","54.0","0","32.5","0"
"USC00478316","SULLIVAN 3 SE WEATHER FORECAST OFFICE MKX, WI US","42.9676","-88.54946","283.2","2007","714",,"       91",,"        22","0","-19","0,0206,+","16"," ,0,0225, ","12.5"," ,0,0225, ","4.09"," ,0,0819, ","93","0,0709, ","7144","1","43.11"," ,0","85.8"," ,0","47.0","0","56.9","0","37.2","0"
"USC00477480","ST GERMAIN, WI US","45.9155","-89.4894","500.8","2007","290",,"      136",,"        25","0","-26","0,0207,+","20"," ,0,0307,+","6.0"," ,0,1202,+","1.85"," ,0,1006, ","88","0,0726, ","8947","6","28.65"," ,0","63.7"," ,0","40.4","0","50.4","0","30.4","0"
"USC00470045","AFTON JANESVILLE WWTP, WI US","42.63753","-89.06424","232.3","2007",,,,,"        19","0",,,,,"6.5"," ,0,1228, ","4.22"," ,0,0805, ","91","0,0829,+","6844","0","44.20"," ,0","70.6"," ,0",,,"58.6","0",,
"USC00470287","ARGYLE WWTP, WI US","42.69948","-89.86938","242.3","2007","670",,"       94",,"        30","0","-19","0,0216,+","19"," ,0,1231,+","6.0"," ,0,0225, ","3.55"," ,0,0805, ","93","0,0802,+",,,"48.09"," ,0","83.6"," ,0","47.4","0","59.2","0","35.5","0"
"USC00471131","BRULE RANGER STATION, WI US","46.5378","-91.5919","304.8","2007",,,,,,,,,,,,,,,,,,,,,,,,,,,,
"USC00475178","MAUSTON 1 SE, WI US","43.7899","-90.0597","263.7","2007","679",,"       91",,"        20","0","-19","0,0206, ","17"," ,0,0307, ","9.0"," ,0,1223, ","3.07"," ,0,0819, ","95","0,0709, ","6944","7","37.00"," ,0","70.3"," ,0","46.8","0","57.1","0","36.4","0"
"USC00476827","PRAIRIE DU CHIEN, WI US","43.0515","-91.1349","200.6","2007","805",,"       90",,"        19","0","-20","0,0206, ","15"," ,0,1225,+","9.4"," ,0,1223, ","6.52"," ,0,0718, ","93","0,0709, ","6900","2","52.24"," ,0","61.9"," ,0","47.8","0","57.9","0","37.7","0"
"USC00477113","RHINELANDER, WI US","45.59852","-89.45081","479.1","2007",,,,,,,,,,,,,,,,,,,,,,,,,,,,
"USC00478324","SUMMIT LAKE, WI US","45.3788","-89.1941","527.9","2007",,,,,"        14","0",,,,,"6.0"," ,0,0101, ","1.11"," ,0,0704,+",,,,,"24.75"," ,0","38.8"," ,0",,,,,,
"USW00094985","MARSHFIELD MUNICIPAL AIRPORT, WI US","44.63806","-90.1875","382.5","2007","481",,,,,,"-19","W,0205, ",,,,,"2.44"," ,W,0820, ","91","W,0708, ","7764","4","24.12"," ,W",,,"44.4","W","54.0","W","34.8","W"
"USC00477115","RHINELANDER 4 NE, WI US","45.65278","-89.3075","483.4","2007",,,"      128",,"        21","0",,,"17"," ,0,0309,+","4.9"," ,0,1201, ","1.72"," ,0,0921, ",,,,,"31.33"," ,0","53.9"," ,0",,,,,,
"USC00474404","LA FARGE, WI US","43.57341","-90.63203","243.5","2007",,,"       98",,"        20","0",,,"20"," ,0,1225,+","11.8"," ,0,1223, ","6.14"," ,0,0819, ",,,,,"52.85"," ,0","68.0"," ,0",,,,,,
"USC00474523","LAKEWOOD 3 NE, WI US","45.33333","-88.49806","364.5","2007","383",,"      108",,"        15","0","-19","0,0206, ","13"," ,0,0308,+","8.0"," ,0,1202, ","1.48"," ,0,1018, ","94","0,0709, ","7751","3","26.01"," ,0","46.9"," ,0","43.0","0","54.0","0","31.9","0"
"USC00477118","RHINELANDER WJFW TV 12, WI US","45.6222","-89.41","490.4","2007",,,"      115",,"        21","0",,,"19"," ,0,0306, ","8.0"," ,0,1223, ","1.99"," ,0,0603, ",,,,,"28.59"," ,0","71.7"," ,0",,,,,,
"USC00476280","ONTARIO 3 E, WI US","43.7194","-90.5301","292.6","2007",,,"       92",,"        25","0",,,"25"," ,0,0303,+","10.0"," ,0,0224, ","5.40"," ,0,0819, ",,,,,"46.05"," ,0","81.0"," ,0",,,,,,
"USW00004826","WISCONSIN RAPIDS ALEXANDER FIELD, WI US","44.35917","-89.83694","310.6","2007","634",,,,,,"-20","W,0205, ",,,,,"1.32"," ,W,0726,+","97","W,0708, ","7440","1","26.56"," ,W",,,"45.6","W","56.0","W","35.3","W"
"USC00477132","RICE LAKE, WI US","45.41669","-91.77247","336.2","2007","565",,"       88",,"        17","0","-23","0,0205,+","23"," ,0,0304,+","11.0"," ,0,0302, ","1.74"," ,0,0727, ","93","0,0709, ","8071","7","28.20"," ,0","59.9"," ,0","43.5","0","54.0","0","33.1","0"
"USC00470175","AMERY, WI US","45.301","-92.363","326.1","2007","373",,,,"        16","0","-25","0,0204, ",,,"9.0"," ,0,0302, ","1.97"," ,0,0814, ","95","0,0727, ","9006","6","33.26"," ,0","54.6"," ,0","41.2","0","50.5","0","31.9","0"
"USC00474894","LUCK, WI US","45.5733","-92.4852","371.9","2007","625",,"       92",,"        17","0","-24","0,0205, ","20"," ,0,0307,+","8.0"," ,0,0301, ","2.45"," ,0,0524, ","93","0,0726, ","7536","6","33.47"," ,0","66.1"," ,0","45.0","0","54.9","0","35.0","0"
"USC00475189","MAZOMANIE WWTP, WI US","43.17043","-89.81968","232.9","2007",,,,,"        16","0",,,,,"8.0"," ,0,0225, ",,,,,,,,,"46.9"," ,0",,,,,,
"USC00476838","PRAIRIE DU SAC 2 N, WI US","43.31","-89.72833","237.7","2007",,,,,,,,,,,,,,,,,,,"42.14"," ,0",,,,,,,,
"USC00476718","PORTAGE WWTP, WI US","43.53056","-89.43697","239.3","2007","763",,"       91",,"        20","0","-15","0,0205, ","14"," ,0,0226, ","6.5"," ,0,0225,+","3.85"," ,0,0819, ","94","0,0710,+","6970","5","39.04"," ,0","56.1"," ,0","47.6","0","57.4","0","37.8","0"
"USC00476398","PARK FALLS DNR HQ, WI US","45.9336","-90.4506","464.8","2007","475",,,,,,"-25","0,0206, ",,,,,"2.12"," ,0,0627, ","93","0,0811,+",,,"30.98"," ,0",,,"42.2","0","52.7","0","31.7","0"
"USC00470855","BLACK RIVER FALLS SEWAGE, WI US","44.2903","-90.8538","246.9","2007",,,,,"        16","0",,,,,"9.0"," ,0,0224, ","2.45"," ,0,0819, ",,,,,"38.66"," ,0","59.6"," ,0",,,,,,
"USC00479304","WINTER, WI US","45.7992","-90.9947","413.0","2007","421",,,,"        21","0","-25","0,0204, ",,,"9.2"," ,0,1223, ","1.93"," ,0,1008, ","91","0,0728,+","8594","3","29.05"," ,0","65.2"," ,0","42.2","0","52.6","0","31.8","0"
"USC00477142","RICE RESERVOIR TOMAHAWK 2, WI US","45.5377","-89.7322","445.0","2007",,,"      117",,"        17","0",,,"13"," ,0,1231,+","5.7"," ,0,1223, ","2.42"," ,0,0604, ",,,"8419","2","30.95"," ,0","48.1"," ,0",,,,,,
"USC00478110","STANLEY WWTP, WI US","44.9529","-90.927","329.2","2007","487",,"       94",,"        16","0","-23","0,0206,+","14"," ,0,0302, ","6.6"," ,0,1202, ","1.69"," ,0,0821, ","91","0,0727,+","8185","4","27.55"," ,0","60.5"," ,0","43.6","0","54.0","0","33.1","0"
"USW00014837","MADISON DANE CO REGIONAL AIRPORT, WI US","43.1405","-89.3452","264.0","2007","758",,"       91",,"        21","0","-16","0,0205, ","12"," ,0,1215,+","6.2"," ,0,1201, ","3.39"," ,0,0818, ","92","0,0731, ","6995","4","44.44"," ,0","82.7"," ,0","47.7","0","57.1","0","38.3","0"
"USC00471280","CASHTON, WI US","43.7446","-90.7783","417.6","2007",,,,,,,,,,,,,,,,,,,,,,,,,,,,
"USW00014839","MILWAUKEE MITCHELL AIRPORT, WI US","42.95489","-87.90457","203.3","2007","776",,"       86",,"        20","0","-11","0,0205, ","13"," ,0,1216, ","7.4"," ,0,0224, ","1.51"," ,0,0403, ","94","0,0708, ","6559","9","33.09"," ,0","78.0"," ,0","48.9","0","56.7","0","41.1","0"
"USC00471155","BUCKATABON, WI US","46.03","-89.30861","504.7","2007",,,,,,,,,,,,,"1.57"," ,0,1001, ",,,,,"23.71"," ,0",,,,,,,,
"USC00474422","LA VALLE, WI US","43.5825","-90.11806","270.7","2007",,,"       91",,"        27","0",,,"19"," ,0,0227, ","8.0"," ,0,0225,+","5.25"," ,0,0819, ",,,,,"39.67"," ,0","66.9"," ,0",,,,,,
"USC00479319","WISCONSIN DELLS WWTP, WI US","43.60725","-89.76344","253.9","2007","615",,"       93",,"        21","0","-20","0,0205, ","17"," ,0,0306, ","8.0"," ,0,0223, ","3.70"," ,0,0818, ","95","0,0708, ","7306","0","39.73"," ,0","74.1"," ,0","45.8","0","57.3","0","34.2","0"
"USC00473332","GURNEY, WI US","46.4859","-90.4373","355.1","2007","307",,,,"        31","0","-35","0,0207,+",,,"14.0"," ,0,0404, ",,,"94","0,0726, ","8872","0",,,"164.6"," ,0","39.9","0","50.0","0","29.8","0"
"USC00473453","HARTFORD WWTP, WI US","43.33159","-88.41165","292.9","2007","583",,"       88",,"        18","0","-18","0,0205, ","17"," ,0,0226,+","7.0"," ,0,0224, ","2.00"," ,0,0819, ","94","0,0709, ","7319","1","37.30"," ,0","54.5"," ,0","45.8","0","55.7","0","36.0","0"
"USC00478905","WASHINGTON IS, WI US","45.3582","-86.891","209.1","2007","334",,"       97",,"        14","0","-11","0,0205,+","16"," ,0,0303, ","12.0"," ,0,0226, ",,,"89","0,0802,+","7722","2",,,"54.0"," ,0","44.7","0","51.8","0","37.7","0"
"USR0000WAUG","AUGUSTA WISCONSIN, WI US","44.6981","-91.1342","295.7","2007","605",,,,,,"-19","U,0206,+",,,,,,,"94","U,0708, ","7508","2",,,,,"45.3","U","55.6","U","34.9","U"
"USC00470742","BERLIN WWTP, WI US","43.99002","-88.94108","232.6","2007","651",,,,,,"-17","0,0205,+",,,,,,,"95","0,0709,+","6960","7",,,,,"46.2","0","56.9","0","35.6","0"
"USC00474546","LANCASTER 4 WSW, WI US","42.8278","-90.7889","317.0","2007","592",,"       93",,"        20","0","-20","0,0206,+","13"," ,0,1231,+","4.8"," ,0,0212, ","3.30"," ,0,0820, ","88","0,0709,+","7367","8","45.26"," ,0","61.4"," ,0","45.8","0","54.7","0","36.9","0"
"USC00478229","STOUGHTON WWTP, WI US","42.9111","-89.21309","254.8","2007",,,"       93",,"        21","0","-19","0,0205, ","15"," ,0,0227,+","6.8"," ,0,1229,+","6.03"," ,0,0819, ","94","0,0708, ","6732","3","45.59"," ,0","73.5"," ,0","47.8","0","57.8","0","37.7","0"
"USC00473698","HOLCOMBE, WI US","45.2237","-91.127","322.2","2007",,,,,,,"-22","0,0205, ",,,,,,,"90","0,0810,+",,,"31.52"," ,0","45.5"," ,0","42.9","0","53.9","0","31.9","0"
"USC00474424","LA VALLE 4 NNE, WI US","43.6391","-90.1077","347.5","2007",,,,,,,,,,,,,,,,,,,,,,,,,,,,
"USC00478349","SUPERIOR, WI US","46.727","-92.072","185.0","2007",,,,,,,,,,,,,,,,,,,,,,,,,,,,
"USW00004841","SHEBOYGAN CO MEMORIAL AIRPORT, WI US","43.76944","-87.85056","227.4","2007","541",,,,,,"-14","W,0205, ",,,,,"1.11"," ,W,0515, ","96","W,0708, ","7165","7","24.25"," ,W",,,"46.4","W","55.9","W","36.9","W"
"USC00478241","STRATFORD 1 NW, WI US","44.8175","-90.0899","375.2","2007",,,,,"        16","0",,,,,"6.2"," ,0,1202, ",,,,,,,,,"43.3"," ,0",,,,,,
"USC00470516","BARABOO WWTP, WI US","43.45827","-89.72691","247.8","2007","681",,"       93",,"        18","0","-19","0,0205, ","16"," ,0,0226, ","6.2"," ,0,1205,+","5.09"," ,0,0819, ","95","0,0709, ","7097","0","40.76"," ,0","68.5"," ,0","46.9","0","58.2","0","35.7","0"
"USC00471847","COUDERAY 7 W, WI US","45.8003","-91.4594","396.2","2007",,,,,,,,,,,,,,,,,"8705","4",,,,,,,,,,
"USW00004845","KENOSHA REGIONAL AIRPORT, WI US","42.595","-87.93806","226.5","2007","646",,,,,,"-12","W,0206,+",,,,,"2.73"," ,W,0819, ","93","W,0708,+","6713","3","32.71"," ,W",,,"47.9","W","57.5","W","38.4","W"
"USW00004840","FOND DU LAC CO AIRPORT, WI US","43.76944","-88.49083","246.0","2007",,,,,,,,,,,,,"1.32"," ,A,0603, ",,,"6794","7","26.72"," ,A",,,,,,,,
"USC00475091","MARINETTE, WI US","45.09828","-87.62358","179.5","2007",,,,,,,,,,,,,,,,,,,,,,,,,,,,
"USW00014897","WAUSAU ASOS, WI US","44.9288","-89.6277","365.8","2007","554",,"      108",,"        18","0","-19","0,0205, ","14"," ,0,1224,+","7.5"," ,0,1223, ","2.24"," ,0,0726, ","92","0,0708, ","7834","2","28.52"," ,0","54.4"," ,0","44.7","0","54.2","0","35.1","0"
"USW00014898","GREEN BAY A S INTERNATIONAL AIRPORT, WI US","44.4794","-88.1366","209.4","2007","592",,"       88",,"        19","0","-14","0,0206, ","14"," ,0,0307,+","9.8"," ,0,0225, ","1.51"," ,0,1016, ","93","0,0708, ","7177","5","27.19"," ,0","68.4"," ,0","46.5","0","56.4","0","36.7","0"
"USC00476859","PRENTICE NUMBER 2, WI US","45.5447","-90.3017","469.4","2007",,,,,,,,,,,,,,,,,,,,,,,,,,,,
"USC00477708","SHAWANO 2 SSW, WI US","44.76306","-88.61838","245.7","2007","599",,,,"        15","0","-17","0,0206,+",,,"6.0"," ,0,1202,+","1.41"," ,0,0703, ","96","0,0709, ","7864","1","26.59"," ,0","47.2"," ,0","44.9","0","55.7","0","34.0","0"
"USC00478919","WATERTOWN WWTP, WI US","43.17424","-88.73633","251.5","2007","660",,"       88",,"        16","0","-19","0,0206, ","12"," ,0,0228,+","7.3"," ,0,0225, ","3.00"," ,0,1202, ","92","0,0709, ","7128","2","42.61"," ,0","55.7"," ,0","46.8","0","56.4","0","37.3","0"
"USC00474790","LODI WWTP, WI US","43.32176","-89.53112","244.8","2007","696",,"       92",,"        24","0","-19","0,0206, ","18"," ,0,1212, ","6.2"," ,0,0224, ","6.20"," ,0,0819, ","93","0,0801,+","7021","5","44.52"," ,0","63.6"," ,0","47.2","0","58.3","0","36.1","0"
"USC00471840","COTTAGE GROVE, WI US","43.0769","-89.1911","264.0","2007",,,"       85",,,,,,"14"," ,0,1217,+",,,,,,,,,,,,,,,,,,
"USC00478910","WATERLOO WWTP, WI US","43.18794","-88.98496","243.8","2007",,,,,,,,,,,,,,,,,,,,,,,,,,,,
"USC00471618","CLAM LAKE 10 SW, WI US","46.0464","-91.0703","419.7","2007",,,,,,,,,,,,,,,,,,,,,,,,,,,,
"USC00472826","FLORENCE, WI US","45.93364","-88.25828","396.2","2007","395",,"       94",,"        14","0","-23","0,0306, ","12"," ,0,0303, ","6.1"," ,0,1202, ","1.32"," ,0,0921, ","94","0,0709, ","8859","8","25.67"," ,0","42.2"," ,0","41.8","0","52.6","0","30.9","0"
"USC00471970","DALTON, WI US","43.6561","-89.2027","262.1","2007",,,,,,,,,,,,,,,,,"7465","4",,,,,,,,,,
"USC00473471","HATFIELD, WI US","44.4169","-90.7314","271.9","2007","437",,"       93",,"        15","0","-22","0,0207,+","16"," ,0,0307,+","8.0"," ,0,0412, ","2.25"," ,0,0524, ","96","0,0709, ","7659","9","35.85"," ,0","54.2"," ,0","44.3","0","56.1","0","32.4","0"
"USC00470645","BEAVER DAM WWTP, WI US","43.44274","-88.84517","262.4","2007","685",,"       85",,"        23","0","-16","0,0206,+","15"," ,0,1219,+","8.0"," ,0,0224, ","3.60"," ,0,0727, ","93","0,0709, ","7000","1","39.48"," ,0","63.0"," ,0","47.1","0","57.6","0","36.6","0"
"USC00471978","DANBURY, WI US","46.0087","-92.3735","289.6","2007","525",,"       97",,"        21","0","-32","0,0205, ","30"," ,0,0308,+","12.0"," ,0,0302, ","1.64"," ,0,0723, ","93","0,0708, ","8172","0","27.75"," ,0","72.4"," ,0","43.3","0","54.0","0","32.5","0"
"USC00477158","RICHLAND CENTER, WI US","43.3314","-90.3888","221.9","2007","606",,"       90",,"        20","0","-24","0,0206,+","12"," ,0,0226, ","7.8"," ,0,0225, ","5.37"," ,0,0819, ","92","0,0709, ","7261","1","52.72"," ,0","60.8"," ,0","46.2","0","57.3","0","35.1","0"
"USC00479335","WISCONSIN RAPIDS, WI US","44.388","-89.8055","314.9","2007","706",,,,"        17","0","-18","0,0206, ",,,"10.0"," ,0,1224, ","1.64"," ,0,0820, ","96","0,0709, ","7186","3","29.94"," ,0","58.2"," ,0","46.4","0","57.0","0","35.9","0"
"USC00470882","BLAIR, WI US","44.2905","-91.23","260.6","2007",,,"       99",,"        18","0",,,"20"," ,0,0304,+","9.5"," ,0,0224, ",,,,,,,,,"66.5"," ,0",,,,,,
"USC00473116","OOSTBURG, WI US","43.63096","-87.79965","206.7","2007","468",,"       84",,"        16","0","-15","0,0205, ","10"," ,0,1229,+","6.9"," ,0,1229, ","1.65"," ,0,0727, ","94","0,0709, ",,,"25.43"," ,0","53.0"," ,0","45.9","0","54.9","0","36.9","0"
"USC00472839","FOND DU LAC WWTP, WI US","43.79535","-88.45325","228.6","2007",,,"       92",,"        18","0","-17","0,0205, ","15"," ,0,0226, ","8.0"," ,0,0224, ","1.89"," ,0,0604, ","92","0,0708, ","7296","3","27.50"," ,0","49.6"," ,0","46.2","0","55.1","0","37.3","0"
"USC00477052","REEDSBURG WWTP, WI US","43.52287","-90.00017","267.3","2007","761",,"       95",,"        23","0","-18","0,0206,+","21"," ,0,0304, ","8.0"," ,0,0225,+","6.01"," ,0,0819, ","94","0,0709, ","7199","3","44.07"," ,0","75.5"," ,0","47.2","0","57.3","0","37.1","0"
"USC00477174","RIDGELAND 1 NNE, WI US","45.2141","-91.8876","329.2","2007","459",,"       92",,"        20","0","-24","0,0205, ","22"," ,0,0307, ","7.0"," ,0,0303, ","2.56"," ,0,0921, ","94","0,0709, ","8055","2","34.41"," ,0","55.4"," ,0","43.3","0","53.7","0","32.8","0"
"USC00475786","NECEDAH 2 SE, WI US","44.0261","-90.0813","281.0","2007","622",,"       96",,"        18","0","-28","0,0206,+","18"," ,0,0307,+","7.9"," ,0,0224, ","2.47"," ,0,0819, ","98","0,0708, ","7117","7","31.01"," ,0","69.2"," ,0","45.9","0","58.3","0","33.5","0"
"USC00477725","SHEBOYGAN, WI US","43.75","-87.71667","197.5","2007","695",,"       85",,"        20","0","-13","0,0205, ","10"," ,0,1217,+","5.5"," ,0,1228,+","1.65"," ,0,0820, ","100","0,0708, ","6310","8","28.41"," ,0","60.1"," ,0","48.6","0","57.0","0","40.1","0"
"USW00014995","GRANTSBURG, WI US","45.7728","-92.6886","301.8","2007","665",,"       96",,"        18","0","-31","0,0205, ","17"," ,0,0302, ","12.0"," ,0,0302, ","1.38"," ,0,0401, ","99","0,0709,+","7740","8","30.96"," ,0","61.7"," ,0","44.6","0","56.3","0","32.9","0"
"USC00470892","BLANCHARDVILLE NUMBER 2, WI US","42.8122","-89.8622","253.9","2007",,,"       87",,"        20","0",,,"12"," ,0,1212, ","5.0"," ,0,1212,+","4.15"," ,0,0805, ",,,,,"43.15"," ,0","52.4"," ,0",,,,,,
"USC00478937","WAUKESHA WWTP, WI US","42.99991","-88.25371","240.5","2007","565",,,,"        21","0","-16","0,0206,+",,,"6.0"," ,0,1229, ","1.83"," ,0,0819, ","91","0,0801,+","6680","2","33.83"," ,0","61.6"," ,0","46.9","0","56.7","0","37.1","0"
"USC00476518","PHELPS, WI US","46.0663","-89.0752","542.5","2007",,,"      143",,"        29","0",,,"26"," ,0,0308,+","8.0"," ,0,1202,+","1.32"," ,0,0925, ",,,,,"29.31"," ,0","99.0"," ,0",,,,,,
"USC00471064","BRILLION, WI US","44.1613","-88.0802","246.9","2007","509",,"       89",,"        22","0","-15","0,0206,+","9"," ,0,0226, ","5.0"," ,0,0225, ","1.50"," ,0,0704, ","94","0,0709, ","7556","6","28.82"," ,0","46.3"," ,0","45.1","0","55.1","0","35.0","0"
"USC00471062","BROOKFIELD WWTP, WI US","43.05209","-88.17746","253.0","2007",,,,,,,,,,,,,,,,,,,,,,,,,,,,
"USC00479345","WIS RAPIDS GRAND AV B, WI US","44.3994","-89.8305","310.9","2007",,,"       95",,"        20","0",,,"20"," ,0,0308,+","8.5"," ,0,1223, ",,,,,,,,,"69.9"," ,0",,,,,,
"USW00094973","HAYWARD MUNICIPAL AIRPORT, WI US","46.02611","-91.44417","367.0","2007","603",,,,,,"-27","W,0205,+",,,,,"3.22"," ,W,0918, ","95","W,0707,+","7884","8","26.16"," ,W",,,"44.4","W","56.2","W","32.6","W"
"USC00478376","SURING, WI US","44.9958","-88.3786","241.4","2007","550",,"       91",,"        14","0","-20","0,0207,+","13"," ,0,0308,+","8.0"," ,0,0225, ","1.37"," ,0,1018, ","98","0,0709, ","7762","4","27.60"," ,0","48.0"," ,0","44.7","0","56.2","0","33.2","0"
"USC00470773","BIG FALLS HYDRO, WI US","45.5556","-90.9592","367.3","2007","425",,,,"        14","0","-27","0,0205, ",,,"8.0"," ,0,1224, ",,,"91","0,0707, ","7889","8","31.34"," ,0","55.9"," ,0","42.9","0","54.2","0","31.7","0"
"USC00476510","PESHTIGO, WI US","45.02817","-87.73588","182.9","2007",,,"       90",,"        19","0",,,"19"," ,0,0302, ","7.0"," ,0,0226, ","1.49"," ,0,1017, ",,,,,"25.51"," ,0","45.9"," ,0",,,,,,
"USC00478018","SPIRIT FALLS, WI US","45.4566","-89.9691","453.8","2007",,,,,"        25","0",,,,,"6.5"," ,0,1202, ","2.90"," ,0,0921, ",,,,,"33.26"," ,0","62.0"," ,0",,,,,,
"USC00476874","PULASKI WWTP, WI US","44.6774","-88.2275","240.5","2007",,,"       92",,"        17","0",,,"10"," ,0,0308,+","5.2"," ,0,0225, ","1.14"," ,0,1016, ",,,,,"23.19"," ,0","42.1"," ,0",,,,,,
"USW00014991","CHIPPEWA VALLEY REGIONAL AIRPORT, WI US","44.8665","-91.4879","269.7","2007","699",,,,,,"-22","X,0205, ",,,,,"2.07"," ,X,0722, ","94","X,0708,+","7507","7","30.29"," ,X",,,"45.7","X","56.0","X","35.4","X"
"USW00094855","OSHKOSH WITTMAN REGIONAL AIRPORT, WI US","43.98444","-88.55694","238.4","2007","660",,,,,,"-16","W,0205, ",,,,,"1.63"," ,W,0819, ","95","W,0708, ","6969","9","26.70"," ,W",,,"46.8","W","56.1","W","37.4","W"
"USC00472279","DURAND, WI US","44.6197","-91.9795","214.9","2007",,,,,"        13","0",,,,,"8.0"," ,0,0302, ","2.13"," ,0,0814, ",,,,,"36.98"," ,0","44.1"," ,0",,,,,,
"USC00477964","SOUTH MILWAUKEE WWTP, WI US","42.90106","-87.84957","196.0","2007",,,"       78",,"        17","0",,,"10"," ,0,0216,+","6.0"," ,0,1229,+",,,,,,,"36.59"," ,0","53.5"," ,0",,,,,,
"USC00470308","ARLINGTON, WI US","43.30417","-89.3453","320.6","2007","567",,,,"        24","0","-20","0,0204, ",,,"6.0"," ,0,0224,+",,,"92","0,0801,+","7361","3",,,"64.4"," ,0","45.4","0","56.9","0","33.9","0"
"USC00471078","BRODHEAD WWTP, WI US","42.61819","-89.38662","237.7","2007","811",,"       89",,"        19","0","-17","0,0206,+","10"," ,0,1216,+","6.0"," ,0,1229, ","3.83"," ,0,0805, ","92","0,0801,+","6875","6","42.52"," ,0","60.5"," ,0","47.9","0","58.6","0","37.3","0"
"USC00476646","PLATTEVILLE, WI US","42.7488","-90.4655","301.8","2007","677",,"       94",,"        22","0","-20","0,0205, ","15"," ,0,1212, ","8.0"," ,0,0225, ","2.44"," ,0,0819,+","90","0,0829,+","7164","9","47.70"," ,0","75.4"," ,0","47.0","0","57.0","0","37.0","0"
"USC00472165","DODGE, WI US","44.133","-91.5511","208.8","2007","782",,"       89",,"        17","0","-23","0,0205, ","16"," ,0,0226, ","12.0"," ,0,0224, ","3.38"," ,0,0819, ","96","0,0708, ","6877","8","37.60"," ,0","67.9"," ,0","47.6","0","58.2","0","36.9","0"
"USC00478827","VIROQUA, WI US","43.5595","-90.876","382.5","2007","520",,"       97",,"        22","0","-21","0,0206,+","16"," ,0,0303,+","8.0"," ,0,0412, ","9.23"," ,0,0819, ","90","0,0709, ","7601","8","53.64"," ,0","84.8"," ,0","44.9","0","54.2","0","35.6","0"
"USC00474582","LAONA 6 SW, WI US","45.5119","-88.7594","516.6","2007","214",,"      125",,"        18","0","-22","0,0204, ","18"," ,0,0303, ","7.6"," ,0,1202, ","1.94"," ,0,0604, ","87","0,0709, ","9055","7","30.17"," ,0","64.1"," ,0","40.7","0","50.1","0","31.3","0"
"USC00478267","STURGEON BAY EXPERIMENTAL FARM, WI US","44.8799","-87.33578","213.1","2007","460",,"       99",,"        25","0","-13","0,0205, ","27"," ,0,0308,+","10.0"," ,0,0226, ","1.06"," ,0,0226, ","96","0,0709, ","7448","7","25.32"," ,0","74.8"," ,0","45.6","0","54.3","0","36.8","0"
"USC00478027","SPOONER EXPERIMENTAL FARM, WI US","45.8236","-91.8761","335.3","2007","558",,"       89",,"        16","0","-23","0,0205, ","14"," ,0,0304,+","6.0"," ,0,1223, ","3.88"," ,0,0919, ","93","0,0708, ","8023","2","28.69"," ,0","53.5"," ,0","43.9","0","54.4","0","33.4","0"
"USC00479236","WILLOW RESERVOIR, WI US","45.70871","-89.8483","467.0","2007",,,,,"        23","0",,,,,"6.0"," ,0,1202, ","2.28"," ,0,0627, ",,,,,"26.92"," ,0","50.0"," ,0",,,,,,
"USC00474108","JEFFERSON WWTP, WI US","42.99417","-88.80413","238.7","2007","872",,"       88",,"        19","0","-17","0,0206, ","12"," ,0,1212, ","7.0"," ,0,0225, ","4.26"," ,0,0819, ","93","0,0802,+","6702","1","46.43"," ,0","63.0"," ,0","48.3","0","58.2","0","38.4","0"
"USC00478164","STEUBEN 4 SE, WI US","43.1343","-90.8372","309.4","2007",,,,,,,,,,,,,,,,,,,,,,,,,,,,
"USW00054903","NECEDAH 5 WNW, WI US","44.0604","-90.1737","284.4","2007","578",,,,,,"-18","R,1206, ",,,,,"1.57"," ,R,0818, ","94","R,0708, ","7271","3","30.00"," ,R",,,"45.8","R","56.2","R","35.4","R"
"USR0000WBRF","BLACK RIVER FALLS WISCONSIN, WI US","44.3003","-90.835","255.4","2007","631",,,,,,"-18","U,0205,+",,,,,,,"95","U,0708, ","7247","0",,,,,"46.2","U","56.7","U","35.8","U"
"USC00479012","WEBSTER 9 SE, WI US","45.7883","-92.2325","306.3","2007",,,"       90",,"        13","0",,,"12"," ,0,1228,+","7.2"," ,0,0225, ","2.96"," ,0,1003, ",,,,,"34.00"," ,0","46.7"," ,0",,,,,,
"USC00473271","GREEN BAY BOTANICAL, WI US","44.533","-88.098","211.5","2007",,,,,,,,,,,,,,,,,,,"28.04"," ,0","53.8"," ,0",,,,,,
"USC00473391","HALES CORNERS WHITNALL PARK BOERNER BOTANICAL GARDENS, WI US","42.93754","-88.02972","235.9","2007","626",,"       84",,"        21","0","-17","0,0206,+","13"," ,0,1219,+","7.0"," ,0,1216,+","2.05"," ,0,0819, ","95","0,0709, ","6814","6","38.62"," ,0","70.6"," ,0","47.1","0","58.4","0","35.9","0"
"USR0000WGLI","GLIDDEN WISCONSIN, WI US","46.14","-90.0","472.4","2007","327",,,,,,"-29","U,0206, ",,,,,,,"91","U,0725,+","8755","7",,,,,"41.0","U","52.2","U","29.8","U"
"USC00473268","GREEN BAY WEATHER FORECAST OFFICE, WI US","44.49824","-88.11205","207.9","2007","666",,"       87",,"        19","0","-15","0,0205, ","14"," ,0,0306, ","9.8"," ,0,0225, ","1.56"," ,0,0603, ","96","0,0708, ","7265","2","28.17"," ,0","68.5"," ,0","46.4","0","56.3","0","36.5","0"
"USC00472055","DENMARK WWTP, WI US","44.3514","-87.812","247.2","2007",,,,,,,,,,,,,,,,,,,,,,,,,,,,
"USC00475563","MONDOVI, WI US","44.5647","-91.6719","253.0","2007","722",,"       92",,"        18","0","-25","0,0206, ","16"," ,0,0302, ","7.0"," ,0,0225, ","4.02"," ,0,0723, ","95","0,0708, ","7248","5","39.44"," ,0","64.1"," ,0","46.5","0","59.1","0","34.0","0"
"USC00473022","GAYS MILLS, WI US","43.3145","-90.8486","210.0","2007","684",,"       91",,"        19","0","-28","0,0206,+","15"," ,0,1225,+","9.0"," ,0,1223,+","7.41"," ,0,0819, ","95","0,0709, ","7292","9","57.04"," ,0","71.2"," ,0","46.5","0","58.2","0","34.9","0"
"USC00472173","DODGEVILLE WWTP, WI US","42.96079","-90.116","340.8","2007",,,"       91",,"        23","0",,,"19"," ,0,1230,+","8.0"," ,0,1223, ","4.42"," ,0,0805, ",,,,,"53.41"," ,0","64.7"," ,0",,,,,,
"USC00478951","WAUPACA, WI US","44.35475","-89.05951","255.1","2007","621",,"       92",,"        17","0","-16","0,0205, ","16"," ,0,0302, ","10.3"," ,0,0225, ","2.91"," ,0,0727, ","95","0,0709, ","7264","4","31.52"," ,0","67.5"," ,0","45.6","0","55.9","0","35.3","0"
"USR0000WBAR","BARNES WISCONSIN, WI US","46.4","-91.5","368.8","2007","418",,,,,,"-31","U,0205, ",,,,,,,"94","U,0731,+","8712","1",,,,,"41.5","U","53.8","U","29.2","U"
"USC00473702","HOLY HILL 2 E, WI US","43.2422","-88.2888","294.1","2007",,,,,,,,,,,,,,,,,,,,,,,,,,,,
"USC00472851","FORESTVILLE 4E, WI US","44.6998","-87.39693","210.3","2007","370",,"       89",,"        19","0","-13","0,0204, ","22"," ,0,0308,+","12.0"," ,0,0226, ","1.66"," ,0,0619, ","93","0,0709, ","7398","2","24.03"," ,0","59.3"," ,0","45.2","0","53.3","0","37.2","0"
"USC00473820","HUSTISFORD WWTP, WI US","43.34","-88.6005","263.3","2007","580",,"       83",,"        18","0","-17","0,0205, ","14"," ,0,1217,+","7.5"," ,0,1229, ","2.68"," ,0,0819, ","94","0,0709, ","7231","2","33.79"," ,0","53.7"," ,0","46.1","0","56.7","0","35.6","0"
"USC00476413","PATTISON STATE PARK, WI US","46.5372","-92.1186","335.3","2007","326",,,,"        17","0","-24","0,0205, ",,,"13.5"," ,0,0404, ","2.22"," ,0,1008, ","94","0,0811, ",,,"32.79"," ,0","77.8"," ,0","41.3","0","52.1","0","30.5","0"
"USC00472973","FRIENDSHIP, WI US","43.975","-89.8309","288.0","2007","688",,"       90",,"        19","0","-23","0,0206, ","18"," ,0,0303, ","9.5"," ,0,1223, ","2.00"," ,0,0819, ","96","0,0709, ","7467","5","34.54"," ,0","76.0"," ,0","45.8","0","56.8","0","34.7","0"
"USC00477745","SHELDON, WI US","45.3065","-90.9606","341.4","2007",,,,,"        18","0",,,,,"10.0"," ,0,1223, ","1.72"," ,0,0921, ",,,,,"29.63"," ,0","61.9"," ,0",,,,,,
"USC00478171","STEVENS POINT, WI US","44.5115","-89.5853","328.9","2007","587",,"       98",,"        20","0","-18","0,0206, ","12"," ,0,0303, ","7.5"," ,0,0302, ","2.50"," ,0,0820, ","92","0,0709, ","7626","5","29.67"," ,0","68.8"," ,0","45.2","0","54.8","0","35.6","0"
"USC00475581","MONTELLO WWTP, WI US","43.7801","-89.31713","244.8","2007","620",,"       90",,"        21","0","-17","0,0205, ","15"," ,0,0307,+","6.0"," ,0,0225,+","2.81"," ,0,0819, ","96","0,0709, ","7232","8","34.39"," ,0","54.0"," ,0","46.4","0","56.8","0","35.9","0"
"USC00473040","GENOA CITY, WI US","42.5","-88.3786","259.1","2007",,,,,,,,,,,,,,,,,,,,,,,,,,,,
"USC00475335","MENOMONIE, WI US","44.8743","-91.9364","237.7","2007","773",,,,"        12","0","-18","0,0205, ",,,"7.0"," ,0,0225, ","2.48"," ,0,0814, ","93","0,0727,+","6872","0","36.68"," ,0","38.6"," ,0","47.3","0","57.6","0","37.1","0"
"USC00474366","LA CROSSE 4 NNW, WI US","43.867","-91.2725","201.2","2007",,,"       92",,"        18","0",,,"18"," ,0,0226, ","11.2"," ,0,0224, ","6.76"," ,0,0819, ",,,,,"44.47"," ,0","72.2"," ,0",,,,,,
"USC00478969","WAUSAU WSAW TV, WI US","44.9464","-89.6222","364.8","2007",,,"      111",,"        18","0",,,"14"," ,0,1225,+","7.5"," ,0,1223, ","2.24"," ,0,0726, ",,,,,"28.62"," ,0","54.4"," ,0",,,,,,
"USC00475573","MONROE WWTP, WI US","42.59905","-89.66707","302.1","2007",,,"       92",,"        24","0",,,"16"," ,0,0217, ","7.0"," ,0,0225, ","2.73"," ,0,0805, ",,,,,"42.79"," ,0","67.5"," ,0",,,,,,
"USR0000WANT","ANTIGO WISCONSIN, WI US","45.15","-89.15","456.9","2007","403",,,,,,"-23","U,0204, ",,,,,,,"91","U,0708, ","8234","6",,,,,"42.8","U","52.7","U","33.0","U"
"USR0000WDDG","DODGEVILLE WISCONSIN, WI US","43.1","-90.0","384.0","2007","798",,,,,,"-20","U,0205, ",,,,,,,"91","U,0731,+","6949","4",,,,,"47.5","U","56.2","U","38.8","U"
"USC00474482","LAKE MILLS WWTP, WI US","43.08029","-88.89661","247.2","2007","803",,"       90",,"        19","0","-16","0,0206,+","14"," ,0,0225, ","7.0"," ,0,0225, ","5.59"," ,0,0819, ","93","0,0709, ","6932","2","44.85"," ,0","72.3"," ,0","47.9","0","57.6","0","38.2","0"
"USC00471416","CHARMANY FARM, WI US","43.05959","-89.48185","318.8","2007","869",,"       83",,"        23","0","-16","0,0206,+","15"," ,0,0226, ","8.5"," ,0,0226, ","3.27"," ,0,0819, ","92","0,0709, ","6610","0","42.70"," ,0","75.3"," ,0","48.3","0","57.1","0","39.5","0"
"USC00472869","FORT ATKINSON WWTP, WI US","42.9051","-88.85893","239.9","2007","811",,"       88",,"        17","0","-18","0,0205, ","11"," ,0,0225, ","6.0"," ,0,1205,+","3.45"," ,0,0819, ","92","0,0709, ","6935","7","35.88"," ,0","62.8"," ,0","48.0","0","57.9","0","38.1","0"
"USC00471897","CRIVITZ HIGH FALLS, WI US","45.35807","-88.19222","289.6","2007",,,,,"        18","0",,,,,"9.0"," ,0,0225, ",,,,,,,"28.70"," ,0","56.8"," ,0",,,,,,
"USC00473038","GENOA DAM 8, WI US","43.5705","-91.2295","194.8","2007","974",,"       91",,"        14","0","-18","0,0205, ","23"," ,0,0302, ","10.0"," ,0,0224, ","7.10"," ,0,0819, ","94","0,0708, ","6557","6","48.53"," ,0","42.3"," ,0","49.1","0","58.1","0","40.1","0"
"USC00477997","SPARTA, WI US","43.9365","-90.8163","238.4","2007","766",,"       88",,"        18","0","-20","0,0205, ","12"," ,0,0303, ","8.5"," ,0,0224, ","3.10"," ,0,0819, ","97","0,0709, ","7299","1","39.59"," ,0","65.3"," ,0","46.7","0","57.3","0","36.1","0"
"USC00478723","UNION GROVE WWTP, WI US","42.69049","-88.03363","218.8","2007","698",,"       89",,"        21","0","-15","0,0204, ","12"," ,0,0224,+","8.0"," ,0,0411, ","3.96"," ,0,0818, ","92","0,0708, ","6899","9","38.63"," ,0","68.4"," ,0","47.8","0","57.5","0","38.1","0"
"USC00477092","REST LAKE, WI US","46.1222","-89.8772","491.3","2007",,,,,"        27","0",,,,,"6.0"," ,0,1223,+","1.90"," ,0,1003, ",,,,,"25.03"," ,0","68.6"," ,0",,,,,,
"USC00471308","CEDAR FALLS HYDRO PLANT, WI US","44.9355","-91.8885","251.5","2007",,,,,,,,,,,,,,,,,,,"40.07"," ,0",,,,,,,,
"USC00478978","WAUSAUKEE, WI US","45.3802","-87.9566","227.1","2007",,,,,"        12","0",,,,,"10.6"," ,0,0226, ","2.96"," ,0,0604, ",,,,,"27.34"," ,0","50.8"," ,0",,,,,,
"USW00094818","RACINE BATTEN AIRPORT, WI US","42.76111","-87.81361","205.4","2007","695",,,,,,"-14","W,0205, ",,,,,"3.64"," ,W,0819, ","93","W,0708, ","6734","3","34.02"," ,W",,,"48.3","W","56.2","W","40.3","W"
"USC00474373","LA CROSSE WEATHER FORECAST OFFICE, WI US","43.8225","-91.1915","398.4","2007","632",,"       96",,"        20","0","-16","0,0206,+","26"," ,0,0303, ","12.0"," ,0,0224, ","7.59"," ,0,0819, ","90","0,0709, ","7436","4","49.57"," ,0","87.1"," ,0","45.9","0","54.1","0","37.7","0"
"USC00474937","LYNXVILLE DAM 9, WI US","43.2118","-91.0985","192.9","2007","948",,"       92",,"        19","0","-20","0,0207, ","18"," ,0,0225, ","9.0"," ,0,0225, ","2.60"," ,0,0819, ","92","0,0708, ","6454","8","45.50"," ,0","57.2"," ,0","49.4","0","58.2","0","40.6","0"
"USC00477761","SHIOCTON, WI US","44.4388","-88.5838","234.7","2007",,,"       82",,"        16","0",,,"14"," ,0,0307,+","10.0"," ,0,1202, ","1.45"," ,0,0820, ",,,,,"28.19"," ,0","57.6"," ,0",,,,,,
"USC00471667","CLINTON WWTP, WI US","42.54907","-88.87544","281.6","2007","744",,,,,,"-20","0,0204, ",,,,,"3.79"," ,0,0806, ","90","0,0615, ","6969","7","44.43"," ,0",,,"47.5","0","57.3","0","37.8","0"
"USC00470696","BELOIT, WI US","42.50383","-89.0311","240.2","2007","793",,"       87",,"        15","0","-16","0,0206, ","11"," ,0,0214,+","7.3"," ,0,0225, ","3.75"," ,0,0806, ","91","0,0616, ","6750","8","36.30"," ,0","58.7"," ,0","48.3","0","57.9","0","38.8","0"
"USC00472996","GALESVILLE 2 WSW, WI US","44.07439","-91.3872","234.1","2007",,,"       92",,"        18","0",,,"25"," ,0,0226, ","15.0"," ,0,0224, ","3.30"," ,0,0819, ",,,,,"41.05"," ,0","72.9"," ,0",,,,,,
"USC00476796","POYNETTE 7 WNW, WI US","43.41222","-89.53083","243.5","2007",,,,,"        13","0",,,,,"8.0"," ,0,0225,+","4.50"," ,0,0819, ","96","0,0802, ",,,"41.33"," ,0","42.9"," ,0",,,"57.8","0",,
"USC00470456","BABCOCK 1 WNW, WI US","44.3077","-90.1313","297.2","2007",,,,,,,,,,,,,,,,,,,,,,,,,,,,
"USC00476678","PLYMOUTH WWTP, WI US","43.72998","-87.97146","252.4","2007","610",,,,"        19","0","-15","0,0206,+",,,"7.0"," ,0,0225, ","1.52"," ,0,1202, ","97","0,0709, ","7187","8","29.65"," ,0","57.6"," ,0","46.4","0","55.6","0","37.2","0"
"USC00470904","BLOOMER, WI US","45.0907","-91.4864","301.8","2007","613",,"       86",,"        17","0","-20","0,0205,+","13"," ,0,1230,+","6.0"," ,0,1202, ","1.93"," ,0,1003, ","94","0,0708,+","7968","8","33.19"," ,0","49.5"," ,0","44.4","0","54.6","0","34.3","0"
"USC00479046","WEST ALLIS, WI US","43.0175","-88.0017","220.4","2007","892",,"       90",,"        21","0","-13","0,0206,+","14"," ,0,1216,+","6.8"," ,0,1216,+","2.13"," ,0,0403, ","94","0,0801,+","6442","1","38.98"," ,0","83.7"," ,0","49.2","0","58.9","0","39.6","0"
"USC00473182","GOODRICH 1 E, WI US","45.149","-90.0668","423.7","2007",,,"       98",,"        17","0",,,"20"," ,0,1231,+","9.0"," ,0,1223, ","1.60"," ,0,0524, ",,,,,"27.59"," ,0","53.3"," ,0",,,,,,
"USC00474391","LADYSMITH 3 W, WI US","45.4651","-91.1236","344.4","2007","349",,"       97",,"        18","0","-23","0,0206, ","20"," ,0,1231,+","7.0"," ,0,1202, ","2.60"," ,0,0921, ","93","0,0708, ",,,"36.81"," ,0","50.5"," ,0","42.8","0","55.1","0","30.5","0"
"USC00478190","STOCKBRIDGE MUNSEE RESERVATION, WI US","44.86989","-88.90443","320.0","2007","363",,,,,,"-19","0,0204, ",,,,,,,"92","0,0709, ",,,,,,,"42.9","0","53.1","0","32.6","0"
"USC00473058","GERMANTOWN WASTEWATER UTILITY, WI US","43.23889","-88.12215","265.2","2007",,,,,"        20","0","-16","0,0206,+",,,"9.0"," ,0,0225, ","2.86"," ,0,0727, ","96","0,0709, ",,,"37.80"," ,0","88.6"," ,0","47.0","0","56.7","0","37.4","0"
"USC00476208","OCONTO 4 W, WI US","44.89186","-87.95491","201.2","2007","557",,"       89",,"        21","0","-16","0,0205,+","18"," ,0,0303, ","10.0"," ,0,0225, ","1.50"," ,0,1018, ","96","0,0709, ","7248","9","25.94"," ,0","55.9"," ,0","45.4","0","55.9","0","34.8","0"
"USC00475474","MOUNT MARY COLLEGE, WI US","43.07211","-88.02953","217.9","2007",,,"       84",,"        21","0","-14","0,0205, ","13"," ,0,1216, ","7.5"," ,0,1216, ","1.80"," ,0,0403, ","97","0,0708, ",,,"29.89"," ,0","74.1"," ,0","49.7","0","59.8","0","39.6","0"
"USW00094929","ASHLAND KENNEDY MEMORIAL AIRPORT, WI US","46.54861","-90.91889","251.8","2007","368",,,,,,"-19","W,0205, ",,,,,"1.38"," ,W,0918, ","94","W,0725,+","8483","9","22.06"," ,W",,,"42.2","W","53.1","W","31.3","W"
"USC00475473","MILTON WWTP, WI US","42.77978","-88.94412","264.9","2007",,,,,,,,,,,,,,,,,,,,,,,,,,,,
"USC00473174","GOODMAN SANITARY DISTRICT, WI US","45.62139","-88.36028","441.4","2007","318",,"      106",,"        14","0","-20","0,0204, ","13"," ,0,0305,+","7.0"," ,0,1203,+","3.36"," ,0,0604, ","92","0,0709, ","7879","2","28.46"," ,0","46.6"," ,0","42.5","0","53.5","0","31.6","0"
"USC00474383","LAC VIEUX DESERT, WI US","46.1211","-89.0758","536.4","2007",,,"      144",,"        37","0",,,"23"," ,0,1230,+","10.5"," ,0,1202, ","1.27"," ,0,0524, ",,,,,"25.85"," ,0","119.1"," ,0",,,,,,
"USC00477892","SOLON SPRINGS, WI US","46.3576","-91.8318","344.4","2007",,,,,"        16","0",,,,,"12.0"," ,0,0302, ",,,"97","0,0811, ",,,,,"55.6"," ,0",,,"54.3","0",,
"USC00470347","ASHLAND 3 S, WI US","46.5522","-90.9161","251.8","2007",,,"       99",,"        19","0",,,"20"," ,0,1231,+","12.0"," ,0,1202,+","1.57"," ,0,0919, ","92","0,0725,+",,,"23.74"," ,0","97.4"," ,0",,,"51.5","0",,
"USC00476200","OCONOMOWOC WWTP, WI US","43.10027","-88.50352","261.5","2007","747",,"       91",,"        18","0","-17","0,0206, ","14"," ,0,0225, ","8.8"," ,0,0225, ","2.12"," ,0,0819, ","91","0,0709,+","6897","6","37.54"," ,0","70.3"," ,0","47.4","0","57.3","0","37.6","0"
"USC00478984","WAUTOMA 4 N, WI US","44.1405","-89.2977","321.9","2007",,,"       99",,"        20","0",,,"17"," ,0,0302, ","7.5"," ,0,0224, ","4.35"," ,0,0726, ",,,,,"39.32"," ,0","71.9"," ,0",,,,,,
"USC00472889","FOXBORO, WI US","46.4856","-92.2875","284.1","2007",,,,,"        15","0","-24","0,0204, ",,,"11.2"," ,0,0302, ",,,,,,,,,"76.1"," ,0",,,,,"31.0","0"
"USC00471676","CLINTONVILLE, WI US","44.6227","-88.7483","244.4","2007","566",,"       84",,"        15","0","-17","0,0205, ","14"," ,0,0302,+","9.0"," ,0,0225, ","1.40"," ,0,0820, ","96","0,0709, ","7465","3","26.85"," ,0","49.6"," ,0","45.5","0","56.2","0","34.8","0"
"USC00479053","WEST BEND FIRE STATION NUMBER 2, WI US","43.43183","-88.16037","272.8","2007",,,"       91",,"        22","0",,,"13"," ,0,0228,+","7.0"," ,0,0223, ","2.64"," ,0,0820, ",,,,,"40.63"," ,0","63.1"," ,0",,,,,,
"USC00479176","WHITE LAKE 1 SE, WI US","45.1452","-88.7416","392.9","2007",,,,,"        12","0",,,,,"7.0"," ,0,0303, ","1.64"," ,0,1231, ",,,,,"24.24"," ,0","40.1"," ,0",,,,,,
"USC00475808","NEILLSVILLE 3 ESE, WI US","44.5378","-90.535","329.2","2007",,,,,,,,,,,,,,,,,,,,,,,,,,,,
"USC00478080","SPRING VALLEY, WI US","44.841","-92.2455","278.9","2007",,,,,,,,,,,,,,,,,,,,,,,,,,,,
"USC00473186","GORDON, WI US","46.245","-91.8047","317.0","2007",,,,,,,,,,,,,,,,,"8540","5",,,,,,,,,,
"USC00475364","MERRILL, WI US","45.17849","-89.66154","381.0","2007","536",,"      111",,"        13","0","-23","0,0207,+","12"," ,0,0309,+","6.5"," ,0,1202, ","1.76"," ,0,0627, ","92","0,0801,+","8242","2","28.35"," ,0","43.5"," ,0","43.5","0","54.2","0","32.9","0"
"USC00475120","MARSHFIELD EXPERIMENTAL FARM, WI US","44.64113","-90.13332","377.0","2007","522",,"       87",,"        16","0","-19","0,0205, ","15"," ,0,1224,+","9.0"," ,0,1202, ","4.02"," ,0,0820, ","90","0,0709, ","7812","1","37.70"," ,0","64.0"," ,0","44.3","0","53.7","0","34.8","0"
"USC00476330","OSHKOSH, WI US","44.02055","-88.55783","228.6","2007","808",,"       85",,"        14","0","-17","0,0206,+","12"," ,0,0304, ","5.0"," ,0,1202,+","1.69"," ,0,0820, ","96","0,0709, ","6823","5","28.47"," ,0","37.4"," ,0","47.6","0","56.4","0","38.7","0"
"USC00478750","UPSON, WI US","46.3678","-90.4122","456.3","2007",,,,,,,,,,,,,,,,,,,,,,,,,,,,
"USC00471205","BURLINGTON WWTP, WI US","42.65081","-88.25433","236.8","2007","565",,"       82",,"        18","0","-19","0,0206, ","11"," ,0,0214, ","6.0"," ,0,1229,+","3.50"," ,0,0819, ","90","0,0709, ","7208","5","39.10"," ,0","56.4"," ,0","46.4","0","56.5","0","36.4","0"
"USC00471568","CHILTON, WI US","44.03279","-88.14683","256.0","2007","727",,"       91",,"        18","0","-15","0,0206,+","12"," ,0,0308,+","6.0"," ,0,0225, ","1.54"," ,0,0501, ","97","0,0709, ","7085","0","28.28"," ,0","54.3"," ,0","46.8","0","56.4","0","37.3","0"
"USC00470239","ANTIGO, WI US","45.16043","-89.11304","463.0","2007","423",,"       96",,"        12","0","-23","0,0204, ","13"," ,0,0308,+","7.0"," ,0,1202, ","1.77"," ,0,0718, ","91","0,0709, ",,,"26.62"," ,0","38.7"," ,0","42.6","0","52.6","0","32.6","0"
"USC00474953","MADELINE ISLAND, WI US","46.778","-90.7654","201.2","2007","322",,,,"        19","0","-19","0,0206, ",,,"13.5"," ,0,0404, ","1.78"," ,0,0727,+","93","0,0801,+","8520","4","31.07"," ,0","86.7"," ,0","42.3","0","52.4","0","32.3","0"
"USC00479062","WESTBY 3 ENE, WI US","43.6749","-90.8077","390.8","2007",,,"       89",,"        24","0",,,"22"," ,0,0303, ","9.1"," ,0,0225, ","7.17"," ,0,0819, ",,,,,"46.50"," ,0","94.7"," ,0",,,,,,
"USC00475017","MANITOWOC, WI US","44.08688","-87.65219","178.0","2007","693",,,,"        18","0","-15","0,0205, ",,,"10.0"," ,0,0225, ","1.83"," ,0,0820, ","94","0,0731,+","6635","3","30.00"," ,0","59.7"," ,0","48.0","0","56.6","0","39.4","0"
"USC00475932","NEW LONDON, WI US","44.3587","-88.71877","243.8","2007",,,,,"        16","0","-17","0,0206,+",,,"6.0"," ,0,1202, ","1.57"," ,0,0820, ",,,,,"29.86"," ,0","48.2"," ,0",,,,,"35.3","0"
"USC00475255","MEDFORD, WI US","45.1307","-90.3438","448.1","2007","452",,"       96",,"        19","0","-22","0,0205,+","18"," ,0,1226,+","11.5"," ,0,1223, ","1.45"," ,0,1001, ","91","0,0709, ","8349","1","29.43"," ,0","56.8"," ,0","42.9","0","52.9","0","32.9","0"
"USC00473636","ARGONNE 1.5 NW, WI US","45.67347","-88.90426","509.9","2007",,,"      116",,"        24","0",,,"13"," ,0,0303, ","6.0"," ,0,1202, ","2.14"," ,0,0604, ",,,,,"29.60"," ,0","54.1"," ,0",,,,,,
"USC00470124","ALMA DAM 4, WI US","44.32684","-91.91933","204.2","2007","967",,"       86",,"        14","0","-16","0,0205, ","21"," ,0,0303, ","9.0"," ,0,0115, ","2.75"," ,0,0819, ","94","0,0707, ","6683","8","38.77"," ,0","52.8"," ,0","48.4","0","57.0","0","39.8","0"
"USC00473756","HORICON WWTP, WI US","43.4388","-88.63133","268.5","2007","627",,"       88",,"        16","0","-17","0,0206,+","17"," ,0,0226, ","6.0"," ,0,1202,+","3.05"," ,0,0727, ","94","0,0709, ","7093","5","39.30"," ,0","58.6"," ,0","46.5","0","56.4","0","36.6","0"
"USC00470486","BALDWIN, WI US","44.9633","-92.3905","335.3","2007",,,"       93",,"        16","0",,,"18"," ,0,0303, ","12.0"," ,0,0225, ","2.84"," ,0,0814, ",,,,,"35.44"," ,0","55.5"," ,0",,,,,,
"USC00471578","CHIPPEWA FALLS, WI US","44.9277","-91.4081","249.9","2007",,,,,"         9","0",,,,,"5.0"," ,0,1202,+",,,,,,,,,"31.4"," ,0",,,,,,
"USC00472425","EAU CLAIRE 3 SW, WI US","44.7878","-91.5165","268.2","2007",,,"       86",,"        17","0",,,"12"," ,0,1230,+","8.3"," ,0,0225, ","1.72"," ,0,0814, ",,,,,"26.36"," ,0","58.1"," ,0",,,,,,
"US1WIOG0001","KIMBERLY 0.3 ESE, WI US","44.268644","-88.335437","224.9","2007",,,,,"        16","N",,,,,"6.3"," ,N,0225, ","2.74"," ,N,0604, ",,,,,"31.17"," ,N","53.7"," ,N",,,,,,
"USC00473511","HAYWARD RANGER STATION, WI US","46.0002","-91.5074","365.8","2007","567",,"      103",,"        19","0","-30","0,0205,+","18"," ,0,0303,+","10.0"," ,0,0302, ","2.73"," ,0,0919, ","93","0,0811,+","8048","0","29.65"," ,0","63.4"," ,0","44.4","0","56.4","0","32.5","0"
"USC00476360","OXFORD 6 N, WI US","43.8619","-89.5619","290.2","2007",,,"       81",,"        21","0",,,"19"," ,0,0302,+","8.0"," ,0,0225, ",,,,,,,,,"64.6"," ,0",,,,,,
"USC00478540","TOWN OF WESTFORD, WI US","43.47201","-88.88246","266.7","2007",,,"      102",,"        25","0",,,"20"," ,0,0226, ","8.1"," ,0,0225, ","3.35"," ,0,0819, ","93","0,0709, ",,,"40.77"," ,0","88.3"," ,0",,,"56.6","0",,
"USC00479190","WHITEWATER WWTP, WI US","42.85077","-88.72486","246.0","2007","681",,"       87",,"        18","0","-17","0,0205, ","13"," ,0,1216, ","10.0"," ,0,0225, ","4.00"," ,0,0819, ","91","0,0709, ","7046","3","38.57"," ,0","56.1"," ,0","47.1","0","57.3","0","36.9","0"
"USC00477209","RIPON 5 NE, WI US","43.8863","-88.7444","283.5","2007","547",,"       90",,"        19","0","-19","0,0206, ","12"," ,0,0226, ","7.0"," ,0,1202, ","3.20"," ,0,0604, ","92","0,0709, ","7372","5","32.67"," ,0","58.1"," ,0","45.6","0","54.8","0","36.5","0"
"USC00474174","KENOSHA WWTP, WI US","42.56082","-87.81556","181.4","2007","685",,,,"        18","0","-13","0,0205, ",,,"6.5"," ,0,1204, ","2.45"," ,0,0925, ","94","0,0708, ","6483","9","42.11"," ,0","51.4"," ,0","48.9","0","56.5","0","41.3","0"
"USC00473405","HANCOCK EXPERIMENTAL FARM, WI US","44.11869","-89.53587","332.8","2007","678",,"       83",,"        18","0","-15","0,0205, ","15"," ,0,0308,+","7.0"," ,0,0303,+","2.50"," ,0,0820, ","97","0,0615, ","6796","7","33.56"," ,0","62.1"," ,0","46.6","0","56.6","0","36.6","0"
"USC00472314","EAGLE RIVER, WI US","45.9169","-89.2563","494.7","2007","387",,"      119",,"        22","0","-20","0,0204, ","21"," ,0,0306,+","4.9"," ,0,0302, ","1.80"," ,0,1006, ","93","0,0727, ","8090","7","27.13"," ,0","64.3"," ,0","43.3","0","53.3","0","33.2","0"
"USC00472556","ELLSWORTH 1 E, WI US","44.7303","-92.4586","313.9","2007","737",,,,"        10","0","-21","0,0205, ",,,"8.0"," ,0,0302, ","2.71"," ,0,0819, ","93","0,0727,+","7228","7","34.26"," ,0","37.8"," ,0","46.2","0","56.1","0","36.4","0"
"USC00476357","OWEN 1 E, WI US","44.94613","-90.55178","377.3","2007","407",,"       90",,"        15","0","-23","0,0206, ","16"," ,0,0303,+","10.3"," ,0,1223, ","1.48"," ,0,0925, ","91","0,0709, ","8254","5","29.14"," ,0","62.5"," ,0","42.8","0","53.4","0","32.1","0"
"USC00471913","CUBA CITY, WI US","42.6001","-90.4237","296.6","2007",,,"       93",,"        23","0",,,"14"," ,0,1220,+","7.0"," ,0,0225, ","1.84"," ,0,0820, ",,,,,"40.04"," ,0","67.0"," ,0",,,,,,
"USC00478672","TWO RIVERS, WI US","44.143","-87.5677","179.5","2007","309",,"       88",,"        15","0","-13","0,0206,+","23"," ,0,0226, ","9.0"," ,0,0225, ","2.27"," ,0,0322, ","94","0,0709, ","7433","7","29.49"," ,0","62.7"," ,0","44.8","0","51.8","0","37.8","0"
"USC00474195","KEWAUNEE, WI US","44.4628","-87.50491","180.7","2007","349",,"       89",,"        23","0","-13","0,0206,+","18"," ,0,0228,+","9.0"," ,0,0226, ","1.36"," ,0,0704, ","95","0,0709, ","7641","3","25.69"," ,0","64.3"," ,0","44.7","0","52.5","0","36.9","0"
"USC00476922","RACINE WWTP, WI US","42.70287","-87.78576","180.4","2007",,,"       74",,"        20","0","-13","0,0205, ","13"," ,0,0216,+","6.5"," ,0,1206, ","4.10"," ,0,0819, ","93","0,0709, ","6753","6","41.71"," ,0","59.6"," ,0","48.3","0","55.2","0","41.3","0"
"USC00470265","APPLETON, WI US","44.27703","-88.43772","241.4","2007","768",,"       90",,"        19","0","-16","0,0206,+","14"," ,0,0307,+","8.5"," ,0,0225, ","1.63"," ,0,0820, ","97","0,0709, ","7407","1","31.92"," ,0","61.1"," ,0","47.0","0","56.3","0","37.7","0"
"USW00014920","LA CROSSE MUNICIPAL AIRPORT, WI US","43.8788","-91.2527","198.7","2007","977",,"       89",,"        17","0","-19","0,0205, ","17"," ,0,0226,+","8.0"," ,0,0225,+","4.05"," ,0,0818, ","97","0,0708, ","6826","4","41.12"," ,0","73.0"," ,0","48.5","0","58.2","0","38.9","0"
"USW00014921","LONE ROCK TRI CO AIRPORT, WI US","43.21194","-90.18139","218.5","2007","682",,,,,,"-27","W,0205, ",,,,,"3.84"," ,W,0818, ","92","W,0615, ","7036","8","42.31"," ,W",,,"47.2","W","57.8","W","36.6","W"
"USC00470382","AUGUSTA RANGER STATION, WI US","44.6825","-91.1357","292.6","2007","621",,"       94",,"        14","0","-19","0,0206,+","14"," ,0,0303,+","6.2"," ,0,1223, ","1.47"," ,0,0819, ","93","0,0709, ","7959","6","28.72"," ,0","54.0"," ,0","44.4","0","54.5","0","34.3","0"
"USC00472447","EAU PLEINE RESERVOIR, WI US","44.7722","-89.76745","356.6","2007",,,,,"        11","0",,,,,"5.5"," ,0,1223, ","2.53"," ,0,0619, ",,,,,"32.17"," ,0","30.7"," ,0",,,,,,
"USC00473654","HILLSBORO, WI US","43.6541","-90.3339","286.5","2007","684",,"       89",,"        19","0","-24","0,0205, ","14"," ,0,0303,+","9.5"," ,0,1223, ","4.50"," ,0,0819, ","94","0,0710,+","7077","7","41.96"," ,0","68.6"," ,0","47.1","0","57.9","0","36.2","0"
