"STATION","NAME","LATITUDE","LONGITUDE","ELEVATION","DATE","CDSD","CDSD_ATTRIBUTES","DSND","DSND_ATTRIBUTES","DSNW","DSNW_ATTRIBUTES","EMNT","EMNT_ATTRIBUTES","EMSD","EMSD_ATTRIBUTES","EMSN","EMSN_ATTRIBUTES","EMXP","EMXP_ATTRIBUTES","EMXT","EMXT_ATTRIBUTES","HDSD","HDSD_ATTRIBUTES","PRCP","PRCP_ATTRIBUTES","SNOW","SNOW_ATTRIBUTES","TAVG","TAVG_ATTRIBUTES","TMAX","TMAX_ATTRIBUTES","TMIN","TMIN_ATTRIBUTES"
"USC00484442","HECLA 1 E, WY US","41.15","-105.1667","2039.1","2008","216",,,,"        17","0","-17","0,1215, ",,,"6.2"," ,0,0214, ","1.76"," ,0,0815, ","94","0,0802,+","7702","9","11.80"," ,0","42.8"," ,0","44.0","0","57.5","0","30.5","0"
"USC00485770","LOVELL, WY US","44.83772","-108.404","1172.6","2008","337",,,,"         4","0","-29","0,0122, ",,,"3.5"," ,0,0119, ","1.32"," ,0,0902, ","99","0,0802, ","7751","1","6.39"," ,0","8.0"," ,0","43.5","0","56.7","0","30.3","0"
"USW00094088","SUNDANCE 8 NNW, WY US","44.5169","-104.4363","1765.4","2008","111",,,,,,"-27","R,1215,+",,,,,,,"86","R,0830, ",,,,,,,"39.0","R","48.0","R","30.0","R"
"USC00488124","SHELL, WY US","44.53514","-107.7774","1293.0","2008","479",,"       58",,"        20","0","-27","0,1215,+","12"," ,0,1227, ","6.3"," ,0,1223, ","0.92"," ,0,0902, ","100","0,0802, ","7883","5","12.41"," ,0","50.8"," ,0","43.8","0","58.2","0","29.5","0"
"USS0010F30S","GRAND TARGHEE, WY US","43.78","-110.93","2822.4","2008","4",,"      283",,,,"-12","T,1220, ","144"," ,T,0327, ",,,"1.30"," ,T,1112,+","75","T,0807, ","10540","5","52.19"," ,T",,,"35.9","T","43.8","T","28.1","T"
"USC00488808","SYBILLE RESEARCH UNI, WY US","41.76444","-105.375","1855.0","2008",,,,,"        14","0",,,,,"6.5"," ,0,1203, ","2.40"," ,0,0521, ",,,"7412","8","15.41"," ,0","36.8"," ,0",,,,,,
"USS0005G05S","WINDY PEAK, WY US","42.28","-105.58","2407.9","2008","64",,,,,,"-19","T,1214, ",,,,,"1.50"," ,T,0522, ","87","T,0801, ","9333","9","22.11"," ,T",,,"39.3","T","49.3","T","29.3","T"
"USC00480761","BITTER CREEK 4 NE, WY US","41.58959","-108.50939","2048.9","2008",,,,,"         0","0","-21","0,0122, ",,,"0.0","T,0,0106, ","0.60"," ,0,0902, ",,,,,"3.92"," ,0","0.0","T,0",,,,,"26.7","0"
"USC00481855","CODY 21 SW, WY US","44.3366","-109.3913","1780.0","2008","201",,"       35",,"        15","0","-13","0,1215, ","7"," ,0,1012,+","5.9"," ,0,1011, ","1.68"," ,0,0522, ","96","0,0801,+","7359","6","13.16"," ,0","50.7"," ,0","45.2","0","58.0","0","32.4","0"
"USC00487836","ROCK RIVER 13 NNW, WY US","41.9167","-106.0369","2026.3","2008",,,,,,,,,,,,,,,,,,,,,,,,,,,,
"USC00481850","CODY 12 SE, WY US","44.4138","-108.90055","1599.6","2008",,,,,"         4","0",,,,,"3.0"," ,0,1225, ","1.36"," ,0,0521, ","101","0,0731, ",,,"8.56"," ,0","7.0"," ,0",,,"58.7","0",,
"USC00481730","CHUGWATER, WY US","41.7594","-104.8222","1616.7","2008","390",,"       37",,"        12","0","-18","0,1215, ","5"," ,0,0218,+","5.3"," ,0,0214, ","1.93"," ,0,0815, ","99","0,0802, ","7076","0","16.28"," ,0","39.1"," ,0","46.2","0","60.0","0","32.4","0"
"USS0007E39S","TIE CREEK, WY US","44.81","-107.41","2094.0","2008","37",,"      197",,,,"-28","T,1214, ","35"," ,T,0411, ",,,"1.30"," ,T,1011, ","88","T,0801, ","9507","8","30.23"," ,T",,,"38.6","T","49.5","T","27.6","T"
"USS0010G08S","SALT RIVER SUMMIT, WY US","42.51","-110.91","2365.2","2008","98",,,,,,"-6","T,0116, ",,,,,"0.80"," ,T,0920, ","87","T,0726, ","9183","8","25.91"," ,T",,,"40.2","T","50.7","T","29.7","T"
"USS0004E07S","COLE CANYON, WY US","44.49","-104.41","1801.4","2008","125",,"      204",,,,"-26","T,1214, ","32"," ,T,0502,+",,,"1.90"," ,T,0605, ","87","T,0801, ","8630","6","33.52"," ,T",,,"41.1","T","49.9","T","32.3","T"
"USS0005G04S","LAPRELE CREEK, WY US","42.44","-105.86","2552.7","2008",,,,,,,,,,,,,"1.80"," ,T,0522, ",,,,,"23.02"," ,T",,,,,,,,
"USC00486195","MIDWEST, WY US","43.41316","-106.27727","1481.3","2008","373",,"       63",,"        17","0","-22","0,1221, ","8"," ,0,1013,+","5.0"," ,0,1012, ","1.35"," ,0,0524, ","100","0,0727, ","7614","1","15.39"," ,0","45.9"," ,0","44.4","0","58.5","0","30.2","0"
"USS0006H19S","SOUTH BRUSH CREEK, WY US","41.33","-106.5","2572.5","2008","3",,,,,,"-16","T,0116, ",,,,,"0.70"," ,T,1130, ","84","T,0801, ","10060","7","26.49"," ,T",,,"37.0","T","49.2","T","24.8","T"
"USC00489580","WESTON 1 E, WY US","44.64021","-105.30095","1139.3","2008",,,,,,,,,,,,,,,,,,,,,,,,,,,,
"USC00481284","BURRIS, WY US","43.36556","-109.27545","1866.9","2008","85",,"       18",,"         9","0","-23","0,0122, ","16"," ,0,1012, ","13.0"," ,0,1012, ","0.86"," ,0,1012, ","91","0,0727, ","8546","9","6.41"," ,0","33.0"," ,0","41.5","0","55.9","0","27.1","0"
"USC00486852","OLD FORT LARAMIE, WY US","42.2058","-104.5561","1295.4","2008",,,,,,,,,,,,,,,,,"7288","2",,,,,,,,,,
"US1WYPK0007","CODY 2.4 WSW, WY US","44.5103","-109.0994","1573.1","2008",,,,,"         8","N",,,,,"3.0"," ,N,1227,+","1.55"," ,N,0522, ",,,,,"12.17"," ,N","20.0"," ,N",,,,,,
"US1WYPK0008","POWELL 4.2 SW, WY US","44.7128","-108.8204","1367.0","2008",,,,,"         6","N",,,,,"4.0"," ,N,1012, ","1.00"," ,N,0523, ",,,,,"5.48"," ,N","17.4"," ,N",,,,,,
"USC00481165","BUFFALO, WY US","44.35447","-106.69937","1414.0","2008","390",,,,"        29","0","-20","0,1215, ",,,"4.7"," ,0,1012, ","1.80"," ,0,0523, ","99","0,0802, ","7926","2","13.84"," ,0","58.3"," ,0","43.7","0","56.1","0","31.3","0"
"USC00482375","DARWIN RANCH, WY US","43.41269","-110.16331","2496.3","2008","0",,"      180",,"        39","0","-36","0,0122, ","30"," ,0,0407,+","7.0"," ,0,0509,+","0.70"," ,0,0901, ","79","0,0801,+","12230","6","12.63"," ,0","104.6"," ,0","29.7","0","45.8","0","13.7","0"
"USC00489205","UPTON, WY US","44.0928","-104.6114","1316.7","2008","442",,,,"        28","0","-23","0,0122, ",,,"8.0"," ,0,1106, ","1.98"," ,0,0524, ","96","0,0830,+","8027","7","20.45"," ,0","55.9"," ,0","43.6","0","56.4","0","30.8","0"
"US1WYPK0003","POWELL 1.1 ESE, WY US","44.7537","-108.7372","1331.1","2008",,,,,"         6","N",,,,,"4.0"," ,N,0118, ","0.95"," ,N,0523, ",,,,,"4.82"," ,N","13.7"," ,N",,,,,,
"USC00487388","POWELL FIELD STATION, WY US","44.77638","-108.75904","1332.6","2008","332",,"       22",,"         6","0","-19","0,0122, ","5"," ,0,0125,+","3.5"," ,0,0327, ","0.90"," ,0,0523, ","98","0,0802, ",,,"6.10"," ,0","15.4"," ,0","42.7","0","56.6","0","28.8","0"
"USW00094078","LANDER 11 SSE, WY US","42.6754","-108.6686","1759.6","2008",,,,,,,,,,,,,"0.91"," ,R,0522, ",,,,,"13.41"," ,R",,,,,,,,
"US1WYPK0004","POWELL 11.8 W, WY US","44.7321","-108.9973","1538.0","2008",,,,,"        15","N",,,,,"6.0"," ,N,0327, ","1.38"," ,N,0523, ",,,,,"9.77"," ,N","32.3"," ,N",,,,,,
"USC00483582","FOSSIL BUTTE, WY US","41.83683","-110.77056","2068.4","2008","56",,"      134",,"        35","0","-28","0,0122, ","29"," ,0,0207,+","4.7"," ,0,0201, ","0.67"," ,0,0901, ","91","0,0727,+","9589","0","7.55"," ,0","93.1"," ,0","37.2","0","53.0","0","21.4","0"
"USS0010E20S","SYLVAN ROAD, WY US","44.46","-110.14","2170.2","2008","0",,"      199",,,,"-28","T,0122, ","57"," ,T,0330, ",,,"1.40"," ,T,0521, ","84","T,0825, ","10954","6","28.33"," ,T",,,"34.6","T","49.0","T","20.1","T"
"US1WYLM0063","CARPENTER 3.9 NNE, WY US","41.101512","-104.321213","1653.8","2008",,,,,"        12","N",,,,,"4.0"," ,N,1114, ","1.57"," ,N,0816, ",,,,,"13.44"," ,N","29.2"," ,N",,,,,,
"USC00481167","BUFFALO 5 WSW, WY US","44.33641","-106.7887","1673.4","2008",,,,,"        29","0",,,,,"5.5"," ,0,0424, ","2.10"," ,0,0523, ",,,,,"17.02"," ,0","72.2"," ,0",,,,,,
"USC00482135","CRANDALL CREEK, WY US","44.8675","-109.6436","1983.9","2008","10",,"      143",,"        38","0","-26","0,0121, ","29"," ,0,0328, ","8.0"," ,0,0319, ","1.43"," ,0,0521, ","90","0,0726, ",,,"15.13"," ,0","99.8"," ,0","36.4","0","51.1","0","21.6","0"
"USC00485525","LEO 6 SW, WY US","42.1952","-106.8555","1839.5","2008",,,"       31",,"        15","0",,,"6"," ,0,0411, ","7.0"," ,0,0411, ",,,,,,,,,"43.2"," ,0",,,,,,
"USC00481840","CODY, WY US","44.5021","-109.1112","1609.3","2008","569",,"       24",,"        23","0","-20","0,1215, ","5"," ,0,0213, ","5.0"," ,0,0213, ","1.98"," ,0,0522, ","97","0,0801, ","7014","7","10.44"," ,0","46.9"," ,0","46.8","0","58.9","0","34.6","0"
"USS0009F08S","LITTLE WARM, WY US","43.5","-109.75","2856.0","2008","0",,"      235",,,,"-20","T,0116, ","47"," ,T,0330,+",,,"0.90"," ,T,0831, ","79","T,0726, ","11230","0","26.00"," ,T",,,"34.2","T","45.4","T","23.0","T"
"USW00004111","EVANSTON UINTA CO BURNS FIELD, WY US","41.27306","-111.03056","2183.3","2008","196",,,,,,"-7","W,0116, ",,,,,"0.86"," ,W,0809, ","90","W,0726, ","9219","6","7.78"," ,W",,,"40.6","W","51.7","W","29.4","W"
"USC00484799","IML AIR SCIENCE, WY US","44.7812","-106.9644","1174.4","2008",,,,,,,,,,,,,,,,,,,,,,,,,,,,
"USC00489208","UPTON 14 ENE, WY US","44.1619","-104.3541","1594.1","2008","152",,"      158",,"        43","0","-29","0,0122, ","21"," ,0,0125,+","9.0"," ,0,0502, ","1.30"," ,0,1010, ","92","0,0802, ","9333","2","26.79"," ,0","118.7"," ,0","38.8","0","52.0","0","25.6","0"
"USS0007F01S","BEAR TRAP MEADOW, WY US","43.89","-107.06","2499.4","2008","34",,"      224",,,,"-27","T,1214, ","41"," ,T,0331, ",,,"1.60"," ,T,0522,+","83","T,0801, ","10235","0","25.31"," ,T",,,"36.6","T","45.6","T","27.5","T"
"USC00487031","PAHASKA, WY US","44.50269","-109.96418","2039.7","2008",,,,,,,,,,,,,,,,,,,,,,,,,,,,
"USC00480080","ALBIN, WY US","41.4","-104.1016","1629.2","2008",,,"       79",,"        31","0",,,"12"," ,0,0101, ","8.5"," ,0,0410, ",,,,,"6928","8",,,"70.5"," ,0",,,,,,
"USS0009E10S","BEARTOOTH LAKE, WY US","44.94","-109.57","2852.9","2008","0",,"      277",,,,"-23","T,1214, ","94"," ,T,0329,+",,,"1.20"," ,T,0319, ","76","T,0726, ","12299","0","33.61"," ,T",,,"31.1","T","41.6","T","20.5","T"
"USC00480540","BASIN, WY US","44.37985","-108.03495","1170.4","2008","558",,"       52",,"        13","0","-35","0,0121, ","8"," ,0,0124,+","5.0"," ,0,1012, ","0.74"," ,0,0901, ","105","0,0801, ","7581","6","7.90"," ,0","29.0"," ,0","44.6","0","59.3","0","30.0","0"
"USC00482725","DULL CENTER 1 SE, WY US","43.4117","-104.9614","1345.7","2008","525",,"       35",,"        16","0","-17","0,1215,+","6"," ,0,0331, ","5.5"," ,0,0316, ","1.62"," ,0,0523, ","101","0,0801, ","6979","5","15.07"," ,0","48.3"," ,0","46.4","0","60.1","0","32.7","0"
"USC00488705","SUNDANCE, WY US","44.4121","-104.3567","1431.0","2008",,,,,,,,,,,,,,,,,,,,,,,,,,,,
"USC00485435","LARAMIE 2 NW, WY US","41.34002","-105.60647","2176.3","2008",,,"        0",,"         0","0",,,"0"," ,0,1231,+","0.0"," ,0,1231,+",,,,,,,,,"0.0"," ,0",,,,,,
"USS0009G09S","BIG SANDY OPENING, WY US","42.65","-109.26","2767.6","2008","0",,"      234",,,,"-26","T,0101, ","58"," ,T,0327, ",,,"1.20"," ,T,1225, ","79","T,0801, ","11819","4","22.94"," ,T",,,"32.0","T","46.3","T","17.7","T"
"USS0010F09S","TOGWOTEE PASS, WY US","43.75","-110.06","2920.0","2008","0",,"      273",,,,"-17","T,0116, ","98"," ,T,0331,+",,,"0.90"," ,T,0831,+","76","T,0801, ","11852","7","43.21"," ,T",,,"31.7","T","41.7","T","21.8","T"
"USC00483936","GLENDO 6 NE, WY US","42.5283","-104.9152","1444.4","2008",,,"       41",,"        15","N",,,"4"," ,N,0219, ","4.0"," ,N,0219, ","4.02"," ,N,0522, ",,,"8078","9","14.39"," ,N","34.2"," ,N",,,,,,
"USS0007F02S","MIDDLE POWDER, WY US","43.63","-107.18","2365.2","2008","56",,"      221",,,,"-26","T,1214, ","49"," ,T,0501, ",,,"1.20"," ,T,0605,+","84","T,0801,+","9851","8","24.02"," ,T",,,"37.8","T","45.9","T","29.6","T"
"US1WYWH0001","TEN SLEEP 4.8 NNW, WY US","44.10219","-107.47344","1381.0","2008",,,,,"        15","N",,,,,"4.1"," ,N,0425, ","0.62"," ,N,0527, ",,,,,"10.67"," ,N","41.5"," ,N",,,,,,
"USS0006H09S","WEBBER SPRINGS, WY US","41.16","-106.93","2819.4","2008","7",,,,,,"-9","T,0116, ",,,,,"1.50"," ,T,0410, ","83","T,0725, ","10069","1","45.33"," ,T",,,"37.1","T","48.5","T","25.6","T"
"USW00024089","CASPER NATRONA CO AIRPORT, WY US","42.89779","-106.47371","1620.9","2008","361",,"       54",,"        30","0","-20","0,1215, ","5"," ,0,1012, ","5.0"," ,0,1011, ","0.95"," ,0,0522, ","99","0,0801,+","7922","2","11.92"," ,0","64.9"," ,0","44.1","0","58.5","0","29.6","0"
"USS0008G03S","SOUTH PASS, WY US","42.57","-108.84","2755.4","2008","4",,"      251",,,,"-16","T,1214, ","64"," ,T,0410, ",,,"1.20"," ,T,0604, ","81","T,0727, ","10355","0","30.83"," ,T",,,"36.5","T","48.9","T","24.0","T"
"USW00004131","MOOSE 1 NNE, WY US","43.6615","-110.712","1970.8","2008","3",,,,,,"-25","R,0124, ",,,,,"0.90"," ,R,1225, ","88","R,0801, ","10718","5","22.20"," ,R",,,"35.2","R","49.0","R","21.4","R"
"USC00489905","YELLOWSTONE PARK MAMMOTH, WY US","44.97668","-110.6964","1888.2","2008",,,"      150",,"        38","0",,,"14"," ,0,0406,+","5.0"," ,0,0329, ","1.30"," ,0,0722, ",,,,,"14.57"," ,0","83.5"," ,0",,,,,,
"USC00480778","BLACK MOUNTAIN, WY US","43.65606","-107.73741","1717.5","2008","785",,,,,,"-16","0,1215,+",,,,,"1.03"," ,0,0521, ","98","0,0801,+","7146","1","14.24"," ,0",,,"46.7","0","57.5","0","36.0","0"
"USC00482399","DAYTON, WY US","44.8767","-107.2631","1194.8","2008",,,,,,,,,,,,,,,,,"7904","1",,,,,,,,,,
"US1WYGS0016","LA GRANGE 4.4 ESE, WY US","41.6223","-104.0813","1435.0","2008",,,,,"        16","N",,,,,"3.9"," ,N,0214, ","1.56"," ,N,0816, ",,,,,"15.80"," ,N","44.1"," ,N",,,,,,
"US1WYCR0004","ELK MOUNTAIN 2.1 S, WY US","41.6524","-106.4101","2283.9","2008",,,,,"        50","N",,,,,"9.4"," ,N,0214, ","1.10"," ,N,0523, ",,,,,"15.67"," ,N","140.4"," ,N",,,,,,
"USC00489902","YELLOWSTONE NATIONAL PARK EAST ENT, WY US","44.48874","-110.0038","2119.6","2008",,,,,,,,,,,,,,,,,,,,,,,,,,,,
"US1WYCR0005","ROCK RIVER 9.6 WSW, WY US","41.65972","-106.13325","2194.9","2008",,,,,,,,,,,,,"1.48"," ,N,0523, ",,,,,"14.76"," ,N",,,,,,,,
"USS0007E06S","POWDER RIVER PASS, WY US","44.16","-107.13","2889.5","2008","0",,"      253",,,,"-18","T,0116, ","50"," ,T,0327, ",,,"1.40"," ,T,0522, ","78","T,0801, ","11640","5","30.91"," ,T",,,"32.7","T","43.3","T","22.2","T"
"USS0007E18S","BONE SPRINGS DIV, WY US","44.68","-107.58","2849.9","2008","1",,"      256",,,,"-24","T,1214, ","68"," ,T,0501, ",,,"1.10"," ,T,0524, ","78","T,0801, ","11902","5","32.72"," ,T",,,"32.4","T","41.4","T","23.3","T"
"USC00483396","FONTENELLE DAM, WY US","41.98604","-110.06113","1976.6","2008",,,,,"        14","0",,,,,"6.0"," ,0,0203, ","0.32"," ,0,0831, ",,,,,"4.35"," ,0","29.9"," ,0",,,,,,
"US1WYSH0005","BANNER 3.5 E, WY US","44.6209","-106.8029","1323.1","2008",,,,,"        32","N",,,,,"5.0"," ,N,0120, ","2.08"," ,N,0523, ",,,,,"17.19"," ,N","74.6"," ,N",,,,,,
"USC00480680","BIG HORN, WY US","44.6828","-107.0089","1282.6","2008","352",,"       89",,"        25","0","-20","0,1220,+","10"," ,0,0120, ","6.0"," ,0,0120, ","1.84"," ,0,0523, ","100","0,0802, ","7521","1","18.60"," ,0","77.1"," ,0","44.3","0","57.4","0","31.2","0"
"USS0008F01S","OWL CREEK, WY US","43.66","-109.01","2735.6","2008","16",,"      222",,,,"-22","T,1214, ","31"," ,T,0331, ",,,"1.50"," ,T,0522, ","82","T,0801, ","10307","0","16.53"," ,T",,,"36.8","T","47.1","T","26.4","T"
"USC00483031","EMBLEM, WY US","44.4971","-108.39057","1355.8","2008","335",,,,"         1","0","-24","0,0122, ",,,"3.0"," ,0,0117, ","0.90"," ,0,0522, ","97","0,0801, ","7807","1","6.72"," ,0","3.5"," ,0","43.9","0","57.5","0","30.3","0"
"USC00486660","NEWCASTLE, WY US","43.8497","-104.1886","1345.7","2008","609",,,,"        22","0","-19","0,1215,+",,,"6.0"," ,0,1106, ","1.30"," ,0,0524, ","99","0,0803, ","7105","1","17.71"," ,0","43.0"," ,0","45.4","0","58.5","0","32.3","0"
"USS0008G10S","DEER PARK, WY US","42.59","-108.9","2956.6","2008","0",,"      257",,,,"-15","T,0116, ","64"," ,T,0410, ",,,"1.50"," ,T,0105, ","76","T,0726, ","11200","5","34.12"," ,T",,,"34.2","T","45.4","T","23.0","T"
"USC00484925","JEFFREY CITY, WY US","42.4942","-107.82908","1926.0","2008","202",,"       83",,"        30","0","-28","0,0123,+","8"," ,0,1012, ","7.0"," ,0,1012, ","0.85"," ,0,0523, ","95","0,0802, ","9060","6","7.70"," ,0","59.0"," ,0","40.6","0","54.4","0","26.8","0"
"USS0009E08S","WOLVERINE, WY US","44.8","-109.66","2331.7","2008","1",,"      190",,,,"-21","T,1214, ","47"," ,T,0326, ",,,"1.40"," ,T,0522, ","81","T,0801,+","9867","5","22.61"," ,T",,,"37.9","T","48.4","T","27.4","T"
"USC00486428","MOOSE, WY US","43.65358","-110.71681","1964.1","2008",,,,,,,,,,,,,,,,,"9790","8",,,,,,,,,,
"USC00481775","CLARK 3 NE, WY US","44.93651","-109.13736","1254.9","2008","313",,"       35",,"        13","0","-23","0,1221, ","5"," ,0,1012, ","6.0"," ,0,1012, ","0.93"," ,0,0522, ","101","0,0802, ",,,"7.64"," ,0","26.5"," ,0","43.8","0","58.8","0","28.8","0"
"USS0010F19S","GROS VENTRE SUMMIT, WY US","43.39","-110.13","2667.0","2008","0",,"      237",,,,"-21","T,1227,+","58"," ,T,0329, ",,,"1.40"," ,T,0831, ","80","T,0801, ","12176","7","23.04"," ,T",,,"31.0","T","45.4","T","16.6","T"
"USS0007E23S","SHELL CREEK, WY US","44.5","-107.43","2920.0","2008","0",,"      287",,,,"-18","T,1214, ","70"," ,T,0502, ",,,"1.30"," ,T,0901, ","74","T,0801, ","12505","3","33.21"," ,T",,,"30.3","T","39.4","T","21.1","T"
"US1WYHS0005","THERMOPOLIS 0.2 SSW, WY US","43.644925","-108.215807","1323.1","2008",,,,,"        15","N",,,,,"8.5"," ,N,1012, ","2.00"," ,N,0523, ",,,,,"13.62"," ,N","52.6"," ,N",,,,,,
"USC00482054","CORA, WY US","42.9588","-109.9958","2239.4","2008",,,,,,,,,,,,,,,,,,,,,,,,,,,,
"US1WYSH0014","SHERIDAN 1.7 NW, WY US","44.81217","-106.97627","1175.9","2008",,,,,"        28","N",,,,,"8.2"," ,N,0120, ","1.91"," ,N,0523, ",,,,,"17.59"," ,N","73.3"," ,N",,,,,,
"USR0000WBUH","BURRO HILL WYOMING, WY US","43.8397","-110.3708","2511.6","2008","18",,,,,,"-14","U,0122, ",,,,,,,"88","U,0725, ","10218","5",,,,,"36.8","U","49.7","U","23.8","U"
"US1WYLM0026","CHEYENNE 2.1 ESE, WY US","41.137925","-104.752217","1834.9","2008",,,,,,,,,,,,,"1.73"," ,N,0806, ",,,,,"19.62"," ,N",,,,,,,,
"US1WYSH0017","SHERIDAN 12.9 ESE, WY US","44.715041","-106.717998","1238.1","2008",,,,,"        23","N",,,,,"7.0"," ,N,0404, ","2.14"," ,N,0523, ",,,,,"19.85"," ,N","59.3"," ,N",,,,,,
"US1WYLM0023","WARREN AFB 20.6 WSW, WY US","41.0844","-105.2486","2338.7","2008",,,,,"        29","N",,,,,"10.5"," ,N,0410, ","2.49"," ,N,0605, ",,,,,"19.65"," ,N","90.7"," ,N",,,,,,
"US1WYLM0022","CHEYENNE 5.3 NE, WY US","41.1898","-104.7089","1854.1","2008",,,"       55",,"        15","N",,,"6"," ,N,1205,+","6.1"," ,N,1204, ","2.03"," ,N,0524, ",,,,,"17.05"," ,N","44.5"," ,N",,,,,,
"USC00480552","BATES CREEK NUMBER 2, WY US","42.62336","-106.35659","1841.6","2008","243",,"      108",,"        27","0","-14","0,1215,+","13"," ,0,0123, ","6.3"," ,0,0305, ","0.93"," ,0,0524, ","92","0,0727, ","8427","6","13.57"," ,0","75.8"," ,0","42.2","0","54.9","0","29.5","0"
"USS0009F04S","BURROUGHS CREEK, WY US","43.7","-109.67","2667.0","2008","0",,"      252",,,,"-16","T,0116, ","65"," ,T,0328, ",,,"0.90"," ,T,0522,+","83","T,0801, ","10953","1","26.10"," ,T",,,"34.9","T","47.5","T","22.2","T"
"USC00489805","WRIGHT 12 W, WY US","43.7472","-105.733","1530.1","2008","350",,"       97",,"        22","0","-20","0,1215, ","11"," ,0,1013,+","8.0"," ,0,1012, ","1.62"," ,0,0522, ","98","0,0802,+","8287","9","15.43"," ,0","69.5"," ,0","42.7","0","55.6","0","29.9","0"
"USS0009F28S","GUNSIGHT PASS, WY US","43.38","-109.88","2993.1","2008","0",,,,,,"-14","T,0116, ",,,,,"1.00"," ,T,0831, ","75","T,0726, ","11721","7","24.92"," ,T",,,"32.8","T","42.6","T","22.9","T"
"USC00489925","YODER 2 WSW, WY US","41.913","-104.388","1319.8","2008",,,,,,,,,,,,,,,"100","0,0802, ",,,,,,,,,"64.5","0",,
"USR0000WBEA","BEAR LODGE WYOMING, WY US","44.5972","-104.4275","1609.3","2008","366",,,,,,"-24","U,1214, ",,,,,,,"93","U,0830, ","7572","6",,,,,"43.6","U","54.1","U","33.2","U"
"USS0009E07S","PARKER PEAK, WY US","44.73","-109.91","2865.1","2008","0",,"      268",,,,"-19","T,1213, ","95"," ,T,0328,+",,,"1.90"," ,T,0522, ","75","T,0825, ","11542","3","38.52"," ,T",,,"32.8","T","42.3","T","23.3","T"
"USC00484910","JACKSON, WY US","43.48629","-110.76153","1892.8","2008","23",,,,"        37","0","-23","0,0124, ",,,"13.0"," ,0,1225, ","0.77"," ,0,1103, ","90","0,0801, ","9523","8","13.12"," ,0","117.1"," ,0","38.0","0","53.0","0","23.0","0"
"USS0010E09S","LEWIS LAKE DIVIDE, WY US","44.21","-110.67","2392.7","2008","10",,"      239",,,,"-18","T,0122, ","115"," ,T,0327, ",,,"1.60"," ,T,1112, ","81","T,0825, ","9966","5","49.18"," ,T",,,"37.8","T","47.7","T","27.8","T"
"USS0007E12S","SUCKER CREEK, WY US","44.72","-107.4","2706.6","2008","9",,"      256",,,,"-30","T,1214, ","67"," ,T,0502,+",,,"1.30"," ,T,0901, ","80","T,0801, ","10895","0","38.43"," ,T",,,"34.7","T","45.0","T","24.5","T"
"USS0007E36S","CLOUD PEAK RESERVOIR, WY US","44.4","-107.06","3005.3","2008","0",,"      262",,,,"-23","T,0121, ","67"," ,T,0411,+",,,"3.50"," ,T,0522, ","78","T,0801, ","11681","3","36.81"," ,T",,,"32.7","T","45.3","T","20.2","T"
"USC00488160","SHERIDAN FIELD STATION, WY US","44.8405","-106.8383","1143.0","2008","379",,"       95",,"        16","0","-22","0,1221,+","12"," ,0,1231,+","6.0"," ,0,0120, ","1.85"," ,0,0523, ","105","0,0826, ","7863","6","16.97"," ,0","31.2"," ,0","43.6","0","58.7","0","28.4","0"
"USS0010G15S","TRIPLE PEAK, WY US","42.76","-110.59","2590.8","2008","0",,"      251",,,,"-16","T,1218, ","95"," ,T,0330,+",,,"1.10"," ,T,0526, ","82","T,0801,+","10654","2","42.81"," ,T",,,"34.9","T","47.2","T","22.6","T"
"USC00486440","MORAN 5 WNW, WY US","43.85664","-110.58876","2074.2","2008","0",,"      177",,"        75","0","-29","0,0124, ","53"," ,0,0329, ","13.0"," ,0,1226, ","0.97"," ,0,1226, ","88","0,0805, ","10549","6","26.66"," ,0","256.3"," ,0","35.1","0","50.3","0","19.9","0"
"US1WYLM0036","CHEYENNE 2.0 E, WY US","41.1449","-104.7547","1825.1","2008",,,,,"         8","N",,,,,"4.7"," ,N,1204, ","1.62"," ,N,0806, ",,,,,"15.42"," ,N","26.9"," ,N",,,,,,
"USC00488626","STORY, WY US","44.5767","-106.9062","1575.2","2008","135",,"      157",,"        43","0","-24","0,1215, ","21"," ,0,0307,+","11.5"," ,0,0322, ","2.34"," ,0,0523, ","95","0,0802, ","8645","6","27.73"," ,0","163.6"," ,0","41.1","0","53.1","0","29.2","0"
"USC00481676","CHEYENNE WEATHER FORECAST OFFICE, WY US","41.15166","-104.80622","1865.1","2008","321",,"       21",,"        10","0","-14","0,1215,+","5"," ,0,1204, ","4.5"," ,0,1203, ","2.21"," ,0,0815, ","97","0,0801, ","7372","6","15.81"," ,0","32.2"," ,0","45.4","0","58.2","0","32.7","0"
"USS0010G02S","BLIND BULL SUM, WY US","42.96","-110.61","2636.5","2008","11",,"      261",,,,"-9","T,0116, ","89"," ,T,0331,+",,,"1.00"," ,T,0920, ","84","T,0801, ","10264","0","29.12"," ,T",,,"36.2","T","46.5","T","25.9","T"
"US1WYPK0011","POWELL 0.9 W, WY US","44.75842","-108.7769","1344.2","2008",,,,,"         6","N",,,,,"3.0"," ,N,1012, ","0.74"," ,N,0523, ",,,,,"5.64"," ,N","17.4"," ,N",,,,,,
"USS0010F17S","EAST RIM DIVIDE, WY US","43.13","-110.2","2417.1","2008","13",,,,,,"-9","T,1221,+",,,,,"1.00"," ,T,1225, ","84","T,0801, ","10036","8","19.50"," ,T",,,"37.4","T","47.3","T","27.6","T"
"USS0010F29S","GRANITE CREEK, WY US","43.34","-110.43","2063.5","2008","0",,,,,,"-23","T,0122, ",,,,,"1.20"," ,T,1225, ","84","T,0801,+","10176","4","34.43"," ,T",,,"36.8","T","50.5","T","23.0","T"
"USC00488192","SHIRLEY BASIN, WY US","42.3703","-106.1049","2151.0","2008","15",,"      143",,"        31","0","-35","0,0122, ","17"," ,0,0218,+","5.5"," ,0,0331, ","0.75"," ,0,0523, ","88","0,0801, ","11117","0","9.63"," ,0","83.0"," ,0","33.5","0","49.2","0","17.9","0"
"USC00486555","MOUNTAIN VIEW, WY US","41.26587","-110.33747","2072.6","2008",,,,,,,,,,,,,,,,,,,,,,,,,,,,
"USW00094173","YELLOWSTONE LAKE, WY US","44.54444","-110.42111","2388.1","2008","0",,,,,,"-33","W,0122, ",,,,,"1.73"," ,W,0117, ","81","W,0801, ","12349","6","22.56"," ,W",,,"30.3","W","43.5","W","17.2","W"
"USC00487885","ROCKYPOINT 7 NNE, WY US","44.9916","-105.0472","1191.8","2008",,,,,,,,,,,,,,,,,"8284","2",,,,,,,,,,
"USW00094053","TORRINGTON MUNICIPAL AIRPORT, WY US","42.0613","-104.1584","1279.9","2008",,,,,,,,,,,,,"1.17"," ,W,0523, ",,,,,"12.66"," ,W",,,,,,,,
"USC00488852","TENSLEEP 4 NE, WY US","44.06479","-107.38198","1447.2","2008",,,"       90",,"        27","0",,,"15"," ,0,0123,+","6.0"," ,0,1012, ","0.68"," ,0,0522, ",,,,,"13.53"," ,0","62.5"," ,0",,,,,,
"USW00094054","BUFFALO JOHNSON CO AIRPORT, WY US","44.38139","-106.72111","1513.9","2008",,,,,,,,,,,,,"3.32"," ,W,0522, ",,,"7707","7","14.60"," ,W",,,,,,,,
"USC00489025","TOWER FALLS, WY US","44.91653","-110.42033","1912.6","2008","3",,"      160",,"        48","0","-32","0,0122, ","31"," ,0,0329, ","7.0"," ,0,0329,+","0.56"," ,0,0512, ","91","0,0826, ","9903","6","11.12"," ,0","125.8"," ,0","35.3","0","51.5","0","19.1","0"
"USW00094057","CONVERSE CO AIRPORT ASOS, WY US","42.79611","-105.38028","1504.5","2008",,,,,,,,,,,,,"2.52"," ,W,0522, ",,,,,"11.46"," ,W",,,,,,,,
"USC00487760","RIVERTON, WY US","43.03068","-108.37432","1510.3","2008",,,"       57",,"        13","0",,,"8"," ,0,1012, ","6.1"," ,0,1011, ","1.40"," ,0,0527, ","99","0,0802, ",,,"9.61"," ,0","38.3"," ,0",,,"58.3","0",,
"USS0009G03S","HOBBS PARK, WY US","42.87","-109.09","3078.5","2008","0",,"      257",,,,"-18","T,0116, ","64"," ,T,0410, ",,,"1.30"," ,T,0526, ","75","T,0801, ","11590","8","27.40"," ,T",,,"33.2","T","45.0","T","21.5","T"
"USC00485105","KEMMERER 2 N, WY US","41.81814","-110.53328","2114.4","2008","10",,,,"        20","0","-26","0,0123, ",,,"8.0"," ,0,0214, ","1.00"," ,0,0807, ","87","0,0802,+","10716","1","6.81"," ,0","57.0"," ,0","35.1","0","50.5","0","19.7","0"
"USC00488858","TENSLEEP 16 SSE, WY US","43.81106","-107.36527","1426.5","2008","274",,,,"        28","0","-38","0,0122, ",,,"7.0"," ,0,0425, ","0.65"," ,0,0501, ","99","0,0727, ","8718","1","13.45"," ,0","67.7"," ,0","41.3","0","57.4","0","25.1","0"
"USS0009F18S","YOUNTS PEAK, WY US","43.93","-109.82","2545.1","2008","0",,"      252",,,,"-17","T,0116, ","64"," ,T,0329,+",,,"1.50"," ,T,0521, ","80","T,0801, ","11201","9","26.53"," ,T",,,"34.2","T","46.2","T","22.3","T"
"USC00482995","ELK MOUNTAIN, WY US","41.6877","-106.4136","2214.4","2008",,,,,,,,,,,,,,,,,,,,,,,,,,,,
"USS0009E09S","MARQUETTE, WY US","44.3","-109.24","2670.0","2008","22",,"      248",,,,"-25","T,1214, ","38"," ,T,0331, ",,,"2.40"," ,T,0522, ","78","T,0801, ","9978","3","25.94"," ,T",,,"37.8","T","46.0","T","29.6","T"
"USS0005H02S","CROW CREEK, WY US","41.23","-105.38","2539.0","2008","48",,,,,,"-7","T,0116, ",,,,,"2.10"," ,T,0522, ","85","T,0802, ","8640","8","22.21"," ,T",,,"41.1","T","51.3","T","30.8","T"
"USS0010G13S","SNIDER BASIN, WY US","42.49","-110.53","2456.7","2008","0",,"      211",,,,"-20","T,0122, ","54"," ,T,0331,+",,,"1.10"," ,T,0526, ","86","T,0726, ","10564","0","22.39"," ,T",,,"35.7","T","50.4","T","20.8","T"
"USC00483170","FARSON 2 NNE, WY US","42.13976","-109.43088","2017.8","2008",,,,,,,,,,,,,,,,,,,,,,,,,,,,
"USS0010E07S","THUMB DIVIDE, WY US","44.37","-110.58","2432.3","2008","0",,"      220",,,,"-31","T,0122, ","80"," ,T,0328, ",,,"1.00"," ,T,1225, ","81","T,0825, ","11050","7","30.81"," ,T",,,"34.4","T","48.4","T","20.4","T"
"USS0010G25S","COTTONWOOD CREEK, WY US","42.65","-110.81","2337.8","2008","9",,,,,,"-9","T,0101, ",,,,,"1.40"," ,T,1129, ","86","T,0726, ","9935","4","38.93"," ,T",,,"37.6","T","50.6","T","24.7","T"
"USS0010F16S","LOOMIS PARK, WY US","43.17","-110.14","2511.6","2008","0",,,,,,"-20","T,0122, ",,,,,"1.40"," ,T,1225, ","81","T,0801, ","11221","2","28.44"," ,T",,,"34.0","T","47.4","T","20.6","T"
"USC00488888","THERMOPOLIS 25 WNW, WY US","43.723","-108.6963","1679.4","2008",,,,,"        16","0",,,,,"12.0"," ,0,1011, ",,,,,,,,,"48.3"," ,0",,,,,,
"USS0006H10S","OLD BATTLE, WY US","41.15","-106.97","3048.0","2008","1",,,,,,"-10","T,0117,+",,,,,"1.40"," ,T,1222, ","76","T,0801, ","11105","7","56.24"," ,T",,,"34.0","T","41.6","T","26.5","T"
"USS0006G01S","CASPER MOUNTAIN, WY US","42.73","-106.32","2407.9","2008","48",,,,,,"-23","T,1214, ",,,,,"3.40"," ,T,0605, ","83","T,0801, ","9803","4","31.91"," ,T",,,"38.0","T","46.5","T","29.5","T"
"USC00487555","REDBIRD, WY US","43.245","-104.288","1185.7","2008","596",,"       52",,"        23","0","-34","0,0122, ","9"," ,0,0125,+","5.0"," ,0,0502,+","1.62"," ,0,0524, ","98","0,0821,+","7369","2","11.98"," ,0","49.8"," ,0","46.3","0","60.9","0","31.7","0"
"USC00480484","BAGGS, WY US","41.0383","-107.6577","1926.0","2008","156",,,,,,"-21","0,0122, ",,,,,,,"93","0,0801,+","8761","0",,,,,"41.2","0","55.7","0","26.7","0"
"USC00485374","LANCE CREEK 8 N, WY US","43.1827","-104.6036","1281.4","2008","606",,"       34",,"        13","0","-21","0,1215,+","4"," ,0,0126,+","3.9"," ,0,0121, ","1.67"," ,0,0524, ","101","0,0802, ","7504","9","11.19"," ,0","31.1"," ,0","45.8","0","59.8","0","31.9","0"
"USC00488884","THERMOPOLIS 9 NE, WY US","43.75327","-108.14303","1305.2","2008",,,,,,,,,,,,,,,,,"8449","2",,,,,,,,,,
"USR0000WDEV","DEVILS TOWER WYOMING, WY US","44.5817","-104.7194","1188.7","2008","336",,,,,,"-27","U,1215, ",,,,,,,"98","U,0801, ","8095","2",,,,,"42.5","U","57.5","U","27.5","U"
"USC00485252","LA BARGE, WY US","42.2644","-110.195","2011.1","2008",,,,,"         9","0",,,,,"6.0"," ,0,1225, ","0.30"," ,0,0911, ","93","0,0727, ",,,"5.43"," ,0","45.1"," ,0",,,"53.6","0",,
"USS0009F25S","COLD SPRINGS, WY US","43.28","-109.45","2935.2","2008","0",,"      227",,,,"-15","T,0121, ","32"," ,T,0409, ",,,"1.10"," ,T,1011,+","78","T,0726, ","10970","5","21.41"," ,T",,,"35.1","T","45.8","T","24.4","T"
"USW00024018","CHEYENNE WSFO AIRPORT, WY US","41.15778","-104.80694","1863.2","2008","354",,"       23",,"        10","0","-13","0,1215,+","5"," ,0,1205,+","4.5"," ,0,1203, ","2.07"," ,0,0815, ","98","0,0802,+","7420","4","15.29"," ,0","32.2"," ,0","45.4","0","58.1","0","32.7","0"
"USC00489615","WHEATLAND 4 N, WY US","42.1106","-104.9492","1413.7","2008","482",,"       15",,"        14","0","-22","0,0122, ","4"," ,0,0410,+","4.0"," ,0,0410,+","3.10"," ,0,0522, ","100","0,0717, ","6063","4","15.74"," ,0","25.4"," ,0","48.4","0","63.2","0","33.7","0"
"USC00485260","LA GRANGE, WY US","41.6377","-104.1669","1399.0","2008","584",,"       55",,"        15","0","-16","0,1215, ","12"," ,0,0102,+","7.0"," ,0,0214, ","1.90"," ,0,0815, ","100","0,0802, ","6259","2","15.14"," ,0","44.3"," ,0","49.0","0","64.3","0","33.8","0"
"USS0010G12S","KELLEY RANGER STATION, WY US","42.27","-110.81","2493.3","2008","0",,,,,,"-13","T,0122, ",,,,,"0.90"," ,T,1225, ","81","T,0726, ","11065","3","27.13"," ,T",,,"34.2","T","45.9","T","22.4","T"
"USS0010G24S","HAMS FORK, WY US","42.15","-110.68","2389.6","2008","3",,,,,,"-10","T,0116, ",,,,,"0.70"," ,T,1225,+","82","T,0726, ","10041","4","18.80"," ,T",,,"37.2","T","48.8","T","25.6","T"
"USS0010E06S","SYLVAN LAKE, WY US","44.48","-110.16","2566.4","2008","0",,"      239",,,,"-23","T,0122, ","76"," ,T,0331,+",,,"1.20"," ,T,0521, ","79","T,0726, ","11158","1","38.81"," ,T",,,"34.0","T","46.3","T","21.7","T"
"USS0010F15S","KENDALL RANGER STATION, WY US","43.25","-110.02","2359.2","2008","0",,"      207",,,,"-24","T,0101, ","50"," ,T,0331,+",,,"0.90"," ,T,1113, ","84","T,0801, ","10828","5","21.75"," ,T",,,"34.8","T","49.2","T","20.4","T"
"USC00488997","TORRINGTON 29 N, WY US","42.488","-104.1563","1481.3","2008","388",,"       65",,"        15","0","-24","0,1215, ","5"," ,0,0126,+","5.5"," ,0,0331, ","0.93"," ,0,0524, ","102","0,0803, ","7998","1","13.78"," ,0","37.7"," ,0","43.8","0","57.6","0","30.1","0"
"USC00488875","THERMOPOLIS, WY US","43.64832","-108.20367","1317.0","2008","549",,,,,,"-22","0,0122, ",,,,,,,"101","0,0801,+",,,"11.55"," ,0",,,"46.6","0","61.0","0","32.2","0"
"USW00024021","LANDER AIRPORT, WY US","42.81538","-108.72611","1704.4","2008","495",,"       97",,"        22","0","-22","0,0122, ","22"," ,0,1012, ","14.5"," ,0,1011, ","1.91"," ,0,0526, ","98","0,0801, ","8190","2","14.16"," ,0","93.2"," ,0","44.3","0","57.5","0","31.1","0"
"USW00024022","LARAMIE AIRPORT, WY US","41.3167","-105.6833","2214.7","2008","70",,,,,,"-18","X,0122, ",,,,,"2.11"," ,X,0522, ","90","X,0801, ","9089","3","10.28"," ,X",,,"40.1","X","53.6","X","26.5","X"
"USS0006H23S","SAND LAKE, WY US","41.46","-106.28","3063.2","2008","0",,,,,,"-11","T,0116, ",,,,,"1.10"," ,T,0522,+","76","T,0801, ","11835","9","44.94"," ,T",,,"32.0","T","41.6","T","22.4","T"
"USS0006G02S","RENO HILL, WY US","42.57","-106.09","2560.3","2008","33",,,,,,"-27","T,1214, ",,,,,"1.70"," ,T,0410, ","83","T,0801, ","9792","8","33.41"," ,T",,,"37.0","T","46.3","T","27.7","T"
"USS0009F24S","KIRWIN, WY US","43.86","-109.32","2910.8","2008","0",,"      249",,,,"-19","T,0121, ","57"," ,T,0409, ",,,"1.50"," ,T,0522, ","79","T,0801, ","11860","7","25.91"," ,T",,,"32.8","T","43.8","T","21.7","T"
"USC00482415","DEAVER, WY US","44.89201","-108.59291","1251.2","2008",,,"       29",,"         8","0",,,"7"," ,0,0123, ","4.0"," ,0,0118, ",,,,,"8142","2",,,"17.0"," ,0",,,,,,
"USS0009E03S","TIMBER CREEK, WY US","44.03","-109.18","2423.2","2008","11",,"      226",,,,"-29","T,1214, ","28"," ,T,0410, ",,,"2.30"," ,T,0522, ","86","T,0801, ","9904","0","23.75"," ,T",,,"37.9","T","50.1","T","25.7","T"
"USC00481569","CASPER WASTE WATER TREATMENT PLANT, WY US","42.86149","-106.29239","1553.6","2008",,,,,,,,,,,,,,,,,"6988","0",,,,,,,,,,
"USW00024029","SHERIDAN AIRPORT, WY US","44.7694","-106.9688","1202.4","2008","336",,,,,,"-22","0,0121, ",,,,,"1.76"," ,0,0522, ","103","0,0801, ","7861","3","15.63"," ,0",,,"43.7","0","58.1","0","29.3","0"
"US1WYPT0001","GUERNSEY 3.1 SSE, WY US","42.2298","-104.7101","1371.9","2008",,,,,"         6","N",,,,,"4.5"," ,N,0410, ","1.76"," ,N,0523, ",,,,,"12.47"," ,N","14.0"," ,N",,,,,,
"USW00024027","ROCK SPRINGS AIRPORT, WY US","41.59466","-109.05296","2055.0","2008","321",,,,,,"-16","0,0122, ",,,,,"0.91"," ,0,0901, ","94","0,0801, ","8685","8","6.05"," ,0",,,"41.9","0","53.8","0","29.9","0"
"USC00488758","SUNSHINE 3 NE, WY US","44.07597","-108.95481","1897.1","2008",,,"      109",,"        29","0",,,"16"," ,0,1012, ","10.5"," ,0,1012, ","1.67"," ,0,0523, ","89","0,0802, ","9699","6","14.64"," ,0","86.2"," ,0",,,"53.0","0",,
"USS0007H03S","SANDSTONE RANGER STATION, WY US","41.11","-107.17","2484.1","2008","16",,,,,,"-10","T,0116, ",,,,,"1.30"," ,T,1222, ","82","T,0801, ","9480","6","32.04"," ,T",,,"38.7","T","49.7","T","27.8","T"
"USS0010F02S","BASE CAMP, WY US","43.95","-110.45","2142.7","2008","1",,,,,,"-15","T,0122, ",,,,,"0.70"," ,T,1228,+","85","T,0825, ","10364","0","31.44"," ,T",,,"36.3","T","49.7","T","22.9","T"
"USS0010G23S","WILLOW CREEK, WY US","42.82","-110.84","2554.2","2008","18",,,,,,"-7","T,0116, ",,,,,"1.40"," ,T,1104, ","83","T,0726, ","9853","0","58.64"," ,T",,,"38.1","T","48.9","T","27.3","T"
"USS0007E32S","BIG GOOSE, WY US","44.58","-107.2","2435.4","2008","17",,"      234",,,,"-27","T,1214, ","43"," ,T,0502,+",,,"1.60"," ,T,0522, ","85","T,0801, ","9888","4","26.81"," ,T",,,"37.5","T","48.4","T","26.6","T"
"USS0010E17S","TWO OCEAN PLATEAU, WY US","44.15","-110.22","2816.4","2008","0",,"      273",,,,"-15","T,1220, ","119"," ,T,0329,+",,,"1.00"," ,T,0521, ","76","T,0825, ","11299","4","42.21"," ,T",,,"33.7","T","45.2","T","22.1","T"
"USR0000WCAS","CASPER MOUNTAIN WYOMING, WY US","42.7131","-106.3461","2359.2","2008","196",,,,,,"-21","U,1214, ",,,,,,,"92","U,0726, ","9558","2",,,,,"38.9","U","49.7","U","28.2","U"
"USS0006H24S","CINNABAR PARK, WY US","41.24","-106.23","2918.2","2008","1",,"      305",,,,"-10","T,0205,+","70"," ,T,0407,+",,,"1.00"," ,T,0111, ","81","T,0801, ","10692","3","32.70"," ,T",,,"35.3","T","46.8","T","23.8","T"
"USW00094023","GILLETTE CAMPBELL CO AIRPORT, WY US","44.33944","-105.54194","1327.1","2008",,,,,,,,,,,,,"1.64"," ,W,0523, ",,,"7867","5","16.23"," ,W",,,,,,,,
"USC00486120","MEDICINE BOW, WY US","41.897","-106.206","2022.3","2008",,,,,,,,,,,,,,,,,,,,,,,,,,,,
"USR0000WAND","ANDERSON RIDGE WYOMING, WY US","42.4372","-108.9408","2475.0","2008","99",,,,,,"-15","U,1214, ",,,,,,,"86","U,0801,+","10475","6",,,,,"36.6","U","47.2","U","26.0","U"
"USC00480140","ALTA 1 NNW, WY US","43.7727","-111.03386","1962.9","2008","62",,"      161",,"        37","0","-11","0,0122, ","40"," ,0,0315,+","12.0"," ,0,0314, ","1.30"," ,0,0314, ","86","0,0805,+","9680","6","26.12"," ,0","140.3"," ,0","38.7","0","50.2","0","27.2","0"
"USC00484065","GREEN RIVER, WY US","41.51671","-109.47017","1877.6","2008",,,,,,,,,,,,,,,,,,,,,,,,,,,,
"USS0009F27S","ST. LAWRENCE ALT, WY US","43.03","-109.17","2627.4","2008","2",,"      231",,,,"-22","T,1214, ","32"," ,T,0410,+",,,"1.30"," ,T,0526, ","82","T,0726, ","10471","0","19.13"," ,T",,,"36.4","T","49.1","T","23.6","T"
"USC00482685","DOUGLAS 1 SE, WY US","42.7467","-105.3603","1484.4","2008","429",,"       73",,"        24","0","-20","0,1221, ","6"," ,0,0125,+","4.0"," ,0,0331, ","1.83"," ,0,0523, ","99","0,0802, ",,,"13.41"," ,0","51.7"," ,0","44.8","0","59.1","0","30.5","0"
"USC00485833","LUSK 25 NE, WY US","42.9366","-104.0669","1260.7","2008",,,,,,,,,,,,,,,,,,,,,,,,,,,,
"USC00480027","AFTON, WY US","42.73303","-110.92168","1904.4","2008",,,,,,,,,,,,,,,,,,,"19.64"," ,0","120.2"," ,0",,,,,,
"USS0007H04S","BATTLE MOUNTAIN, WY US","41.05","-107.27","2267.7","2008","29",,,,,,"-10","T,0116, ",,,,,"0.90"," ,T,0330, ","86","T,0720, ",,,"24.73"," ,T",,,"40.4","T","52.4","T","28.4","T"
"USS0007E33S","BURGESS JUNCTION, WY US","44.79","-107.53","2401.8","2008","1",,"      252",,,,"-35","T,1214, ","66"," ,T,0502, ",,,"1.10"," ,T,0521, ","83","T,0801, ","10863","8","30.52"," ,T",,,"34.7","T","45.8","T","23.5","T"
"USS0007E21S","BALD MOUNTAIN, WY US","44.8","-107.84","2859.0","2008","0",,"      269",,,,"-25","T,1214, ","70"," ,T,0502, ",,,"1.50"," ,T,0524, ","76","T,0801, ","11815","8","34.19"," ,T",,,"32.2","T","40.4","T","24.0","T"
"USS0010G22S","INDIAN CREEK, WY US","42.3","-110.68","2872.7","2008","4",,,,,,"-9","T,0116, ",,,,,"1.30"," ,T,1225, ","79","T,0726, ","10934","7","35.00"," ,T",,,"35.0","T","44.3","T","25.6","T"
"USR0000WCAM","CAMP CREEK WYOMING, WY US","42.3458","-107.5528","2249.4","2008","349",,,,,,"-13","U,1214,+",,,,,,,"93","U,0801, ","8665","0",,,,,"42.1","U","51.8","U","32.3","U"
"US1WYLM0008","CHEYENNE 3.0 NE, WY US","41.1648","-104.7726","1845.0","2008",,,,,"        10","N",,,,,"5.2"," ,N,0410, ","1.60"," ,N,0806, ",,,,,"16.95"," ,N","36.7"," ,N",,,,,,
"USC00481220","BURGESS JUNCTION, WY US","44.7741","-107.5216","2456.7","2008",,,"      214",,,,,,"67"," ,0,0307, ",,,,,,,,,"25.43"," ,0","333.8"," ,0",,,,,,
"US1WYLM0005","CHEYENNE 3.3 ENE, WY US","41.151","-104.7547","1823.0","2008",,,,,"         6","N",,,,,"6.0"," ,N,1203,+","1.56"," ,N,0805, ",,,,,"14.12"," ,N","23.0"," ,N",,,,,,
"USC00487200","PHILLIPS, WY US","41.6263","-104.4936","1518.5","2008","302",,"       50",,,,"-22","0,1215, ","7"," ,0,0101, ",,,,,"99","0,0802, ","7103","4",,,,,"46.0","0","60.6","0","31.5","0"
"USS0010G20S","SPRING CREEK DIVIDE, WY US","42.53","-110.66","2743.2","2008","38",,"      257",,,,"-11","T,0116, ","90"," ,T,0326, ",,,"1.50"," ,T,1113, ","87","T,0825, ","10836","8","37.13"," ,T",,,"35.9","T","46.4","T","25.4","T"
"US1WYLM0006","CHEYENNE 7.5 ENE, WY US","41.1592","-104.6742","1836.1","2008",,,,,,,,,,,,,,,,,,,"13.76"," ,N",,,,,,,,
"USS0006H13S","BROOKLYN LAKE, WY US","41.36","-106.23","3121.2","2008","0",,,,,,"-11","T,0116, ",,,,,"0.90"," ,T,1021, ","75","T,0801, ","11606","0","32.49"," ,T",,,"32.7","T","41.7","T","23.7","T"
"USS0006H25S","LITTLE SNAKE RIVER, WY US","41.07","-106.94","2717.3","2008","2",,,,,,"-11","T,0117, ",,,,,"1.20"," ,T,0201, ","81","T,0801, ","10266","5","48.00"," ,T",,,"36.4","T","47.5","T","25.3","T"
"USS0007H06S","SAGE CREEK BASIN, WY US","41.4","-107.26","2392.7","2008","25",,,,,,"-9","T,0116, ",,,,,"0.70"," ,T,1222,+","86","T,0801, ","9088","2","23.72"," ,T",,,"39.9","T","51.7","T","28.1","T"
"USC00481905","COLONY, WY US","44.8711","-104.1533","1060.7","2008",,,,,"        17","0","-20","0,1214, ",,,"7.1"," ,0,1107, ","1.73"," ,0,0605, ",,,,,"18.31"," ,0","43.3"," ,0",,,,,"33.4","0"
"USS0007H05S","DIVIDE PEAK, WY US","41.3","-107.15","2706.6","2008","78",,,,,,"-6","T,0116, ",,,,,"0.90"," ,T,1222, ","82","T,0801, ","9464","8","36.10"," ,T",,,"38.8","T","46.8","T","30.9","T"
"USS0007E34S","DOME LAKE, WY US","44.57","-107.3","2706.6","2008","2",,"      252",,,,"-27","T,1214, ","56"," ,T,0322, ",,,"1.50"," ,T,0522, ","79","T,0801, ","10945","8","32.89"," ,T",,,"34.6","T","45.4","T","23.8","T"
"USC00485392","LANDER 1 N, WY US","42.84496","-108.73721","1621.5","2008",,,,,"        12","0",,,,,"4.7"," ,0,0214, ","1.17"," ,0,0526, ",,,,,"12.69"," ,0","33.7"," ,0",,,,,,
"USS0010E15S","GRASSY LAKE, WY US","44.13","-110.83","2214.4","2008","1",,"      242",,,,"-24","T,0122, ","126"," ,T,0327, ",,,"1.30"," ,T,1228,+","84","T,0825, ","10846","4","55.46"," ,T",,,"34.4","T","48.1","T","20.7","T"
"USS0010E03S","CANYON, WY US","44.72","-110.51","2398.8","2008","0",,"      227",,,,"-33","T,0122, ","70"," ,T,0329, ",,,"0.70"," ,T,0606,+","82","T,0825, ","11490","4","26.21"," ,T",,,"33.1","T","46.3","T","20.0","T"
"US1WYJN0007","KAYCEE 17 E, WY US","43.7061","-106.2982","1348.1","2008",,,,,"        14","N",,,,,"3.1"," ,N,0207,+","1.18"," ,N,0523, ",,,,,"14.41"," ,N","32.8"," ,N",,,,,,
"USS0006E03S","HANSEN SAWMILL, WY US","44.26","-106.98","2548.1","2008","4",,"      219",,,,"-27","T,1214, ","33"," ,T,0322, ",,,"3.30"," ,T,0522, ","81","T,0801, ","10408","5","28.59"," ,T",,,"36.1","T","48.1","T","24.2","T"
"US1WYGS0009","TORRINGTON, WY US","42.0586","-104.1684","1249.1","2008",,,,,"         7","N",,,,,"3.0"," ,N,0214, ","1.13"," ,N,0605, ",,,,,"14.41"," ,N","13.5"," ,N",,,,,,
"USC00481131","BUCKBOARD MARINA, WY US","41.2468","-109.5966","1853.2","2008","273",,"       54",,"        13","0","-15","0,0122, ","4"," ,0,0316,+","4.0"," ,0,0316,+","1.30"," ,0,0901, ","96","0,0802, ","8460","1","6.17"," ,0","30.1"," ,0","42.6","0","58.0","0","27.2","0"
"USC00484760","HULETT, WY US","44.6855","-104.6027","1145.4","2008","324",,,,"        31","0","-26","0,1216,+",,,"12.0"," ,0,0502, ","1.40"," ,0,0502, ","97","0,0831,+","8102","4","23.39"," ,0","71.1"," ,0","42.5","0","56.3","0","28.8","0"
"USW00024057","RAWLINS AIRPORT, WY US","41.8","-107.2","2053.1","2008","228",,,,,,"-19","X,0122, ",,,,,"0.67"," ,X,0910, ","95","X,0801, ","8822","4","9.85"," ,X",,,"41.4","X","54.2","X","28.5","X"
"USS0009F21S","NEW FORK LAKE, WY US","43.11","-109.95","2542.0","2008","0",,"      200",,,,"-15","T,0116, ","41"," ,T,0331,+",,,"0.70"," ,T,1225,+","83","T,0825,+","10413","9","19.19"," ,T",,,"35.8","T","48.6","T","23.0","T"
"USC00482580","DILLINGER, WY US","44.0991","-105.1175","1313.7","2008","405",,,,,,"-25","0,0122, ",,,,,"1.52"," ,0,0523, ","100","0,0801, ","7952","7","19.97"," ,0",,,"43.5","0","57.5","0","29.6","0"
"USC00487473","RAIRDEN 2 WSW, WY US","44.17859","-107.93813","1225.3","2008",,,"       58",,"        13","0",,,"7"," ,0,1226, ","6.0"," ,0,1011, ","0.59"," ,0,0522, ",,,,,"6.37"," ,0","31.0"," ,0",,,,,,
"USC00485055","KAYCEE, WY US","43.71434","-106.63765","1420.4","2008","478",,,,"         4","0","-23","0,0122, ",,,"4.0"," ,0,0206, ","2.00"," ,0,0527, ","101","0,0801, ",,,"10.70"," ,0","10.5"," ,0","43.8","0","59.3","0","28.3","0"
"US1WYGS0001","YODER 4.1 S, WY US","41.8567","-104.2994","1313.1","2008",,,,,"         7","N",,,,,"4.5"," ,N,0214, ","1.17"," ,N,0816, ",,,,,"11.70"," ,N","20.0"," ,N",,,,,,
"USC00482466","DEVILS TOWER NUMBER 2, WY US","44.5833","-104.7147","1177.1","2008",,,,,,,,,,,,,,,,,"7935","6",,,,,,,,,,
"USC00488209","SHOSHONI, WY US","43.23716","-108.10964","1474.3","2008",,,,,"         4","0",,,,,"2.5"," ,0,1011, ",,,,,,,,,"10.7"," ,0",,,,,,
"US1WYGS0008","VETERAN 3.0 W, WY US","42.002008","-104.381716","1282.9","2008",,,,,"        12","N",,,,,"3.5"," ,N,0410, ","1.20"," ,N,0605, ",,,,,"13.68"," ,N","25.1"," ,N",,,,,,
"USR0000WECH","ECHETA WYOMING, WY US","44.4667","-105.8461","1316.7","2008","535",,,,,,"-20","U,1215, ",,,,,,,"100","U,0801, ","7319","3",,,,,"45.9","U","57.1","U","34.8","U"
"US1WYNT0024","CASPER 4.3 WSW, WY US","42.8167","-106.4108","1570.0","2008",,,"       54",,"        24","N",,,"10"," ,N,1012, ","7.5"," ,N,1209,+","1.14"," ,N,0524, ",,,,,"17.32"," ,N","77.2"," ,N",,,,,,
"USR0000WCOW","COW CREEK WYOMING, WY US","41.2708","-107.5819","2204.9","2008","319",,,,,,"-6","U,0117,+",,,,,,,"91","U,0720, ","8754","5",,,,,"42.2","U","52.4","U","32.0","U"
"USC00480603","BEDFORD 3 SE, WY US","42.87311","-110.90691","1937.0","2008","27",,,,,,"-20","0,0122,+",,,,,"1.07"," ,0,0611, ","89","0,0726, ","9416","9","26.95"," ,0",,,"37.7","0","52.6","0","22.8","0"
"USR0000WEST","ESTERBROOK WYOMING, WY US","42.4153","-105.3611","1990.3","2008","301",,,,,,"-17","U,1214, ",,,,,,,"93","U,0801, ","7975","8",,,,,"43.2","U","53.4","U","33.1","U"
"US1WYGS0011","YODER 6.5 SSE, WY US","41.8284","-104.2531","1314.0","2008",,,,,"        15","N",,,,,"5.0"," ,N,0410, ","1.02"," ,N,0816, ",,,,,"13.12"," ,N","38.7"," ,N",,,,,,
"USC00481816","CLEARMONT 5 SW, WY US","44.578","-106.4472","1217.7","2008","272",,"       37",,"         6","0","-29","0,0122, ","9"," ,0,0125,+","5.0"," ,0,0118, ","2.02"," ,0,0522, ","99","0,0801, ","8114","9","15.31"," ,0","16.2"," ,0","42.7","0","57.7","0","27.7","0"
"USC00487240","PINE BLUFFS 5 W, WY US","41.1722","-104.1583","1578.9","2008",,,,,,,,,,,,,,,,,"7288","7",,,,,,,,,,
"USS0010F23S","PHILLIPS BENCH, WY US","43.52","-110.91","2499.4","2008","22",,"      256",,,,"-8","T,0122, ","109"," ,T,0327, ",,,"1.70"," ,T,1225, ","83","T,0726, ","9677","0","47.40"," ,T",,,"38.4","T","49.5","T","27.2","T"
"US1WYAB0008","LARAMIE 0.8 NNE, WY US","41.3221","-105.5837","2186.0","2008",,,,,"        17","N",,,,,"4.0"," ,N,1214,+","1.55"," ,N,0523, ",,,,,"15.39"," ,N","42.7"," ,N",,,,,,
"USC00488315","SNAKE RIVER, WY US","44.13632","-110.66631","2097.6","2008",,,,,,,,,,,,,,,,,,,,,,,,,,,,
"USC00481000","BOYSEN DAM, WY US","43.40536","-108.16338","1485.9","2008","740",,"       15",,"        10","0","-22","0,0124, ","3"," ,0,0401,+","4.0"," ,0,0425, ","1.95"," ,0,0523, ","101","0,0802, ","7561","7","9.28"," ,0","18.4"," ,0","45.8","0","59.2","0","32.4","0"
"US1WYNB0012","LUSK 10.1 SSE, WY US","42.635","-104.35056","1517.0","2008",,,,,,,,,,,,,"1.09"," ,N,0723, ",,,,,"12.46"," ,N",,,,,,,,
"USS0009E11S","EVENING STAR, WY US","44.65","-109.78","2804.2","2008","3",,"      272",,,,"-23","T,1214, ","109"," ,T,0328, ",,,"1.30"," ,T,0611,+","76","T,0725, ","11174","6","49.92"," ,T",,,"34.3","T","43.2","T","25.4","T"
"USW00024061","RIVERTON REGIONAL AIRPORT, WY US","43.06417","-108.45889","1659.6","2008","522",,,,,,"-25","W,0122, ",,,,,"2.00"," ,W,0526, ","99","W,0801, ","8106","4","8.19"," ,W",,,"44.2","W","57.3","W","31.2","W"
"USW00024062","WORLAND MUNICIPAL AIRPORT, WY US","43.96583","-107.95083","1271.6","2008","507",,,,,,"-32","0,0122, ",,,,,"0.98"," ,0,0522, ","100","0,0801, ","8012","2","8.31"," ,0",,,"44.2","0","58.6","0","29.8","0"
"USC00480951","BOULDER REARING STATION, WY US","42.71554","-109.68956","2115.3","2008",,,,,,,,,,,,,,,,,,,,,,,,,,,,
"USC00489770","WORLAND, WY US","44.01134","-107.96838","1236.9","2008","594",,,,"         0","0","-28","0,0123,+",,,"0.0"," ,0,1231,+","0.97"," ,0,0527, ","103","0,0802, ","7984","7","7.99"," ,0","0.0"," ,0","44.5","0","59.2","0","29.9","0"
"USS0006H20S","NORTH FRENCH CREEK, WY US","41.33","-106.38","3087.6","2008",,,,,,,,,,,,,"1.30"," ,T,0111, ",,,,,"44.22"," ,T",,,,,,,,
"USC00482242","DANIEL FISH HATCHERY, WY US","42.92815","-110.12729","2237.5","2008","1",,"      151",,"        33","0","-29","0,0122, ","15"," ,0,0227,+","11.0"," ,0,1012, ","0.71"," ,0,1012, ","87","0,0802,+","11776","4","10.77"," ,0","82.8"," ,0","32.3","0","49.2","0","15.5","0"
"USC00487376","POWDER RIVER NUMBER 2, WY US","43.035","-106.98833","1737.4","2008",,,"       42",,"        14","0",,,"7"," ,0,1012,+","6.0"," ,0,0510, ","1.60"," ,0,0522, ",,,,,"11.69"," ,0","37.0"," ,0",,,,,,
"US1WYCV0011","LOST SPRINGS 11.9 NW, WY US","42.90422","-105.06349","1545.9","2008",,,,,"        15","N",,,,,"5.2"," ,N,0323, ","1.64"," ,N,0522, ",,,,,"13.53"," ,N","50.4"," ,N",,,,,,
"USS0009F23S","ELKHART PARK G.S., WY US","43.01","-109.76","2865.1","2008","18",,,,,,"-8","T,0116, ",,,,,"1.40"," ,T,1225, ","82","T,0801, ","10300","0","22.61"," ,T",,,"36.9","T","47.0","T","26.8","T"
"USC00480740","BILLY CREEK, WY US","44.1241","-106.7319","1516.4","2008","373",,"       51",,"        15","0","-24","0,1221,+","3"," ,0,1227,+","3.0"," ,0,1012, ","2.77"," ,0,0523, ","102","0,0802, ","7660","5","14.68"," ,0","32.1"," ,0","44.0","0","58.2","0","29.7","0"
"USC00486603","MULE CREEK JCT, WY US","43.3836","-104.2302","1155.2","2008",,,,,"         5","0",,,,,"4.0"," ,0,0314, ","1.85"," ,0,0523, ",,,,,"12.19"," ,0","15.0"," ,0",,,,,,
"USC00486845","OLD FAITHFUL, WY US","44.45684","-110.83269","2240.6","2008",,,,,"        75","0",,,,,"12.0"," ,0,0128, ",,,"88","0,0723, ",,,"24.43"," ,0","248.9"," ,0",,,"46.9","0",,
"USC00480865","BONDURANT, WY US","43.2095","-110.40323","2040.0","2008",,,,,,,,,,,,,,,,,,,,,,,,,,,,
"US1WYTT0001","MOOSE .4 S, WY US","43.6528","-110.7105","1980.0","2008",,,,,,,,,,,,,,,,,,,"17.68"," ,N",,,,,,,,
"USR0000WEAG","EAGLE WYOMING, WY US","44.4856","-109.8964","2286.0","2008","38",,,,,,"-16","U,1214,+",,,,,,,"86","U,0819,+","9826","2",,,,,"38.1","U","48.5","U","27.7","U"
"USS0007F06S","GRAVE SPRINGS, WY US","43.47","-107.24","2606.0","2008","18",,"      235",,,,"-27","T,1214, ","45"," ,T,0331, ",,,"1.60"," ,T,0522, ","82","T,0801, ","10509","3","21.43"," ,T",,,"35.8","T","45.0","T","26.5","T"
"US1WYNT0004","CASPER 10.9 WSW, WY US","42.7893","-106.5353","1616.0","2008",,,,,"        29","N",,,,,"8.6"," ,N,1012, ","1.14"," ,N,1012, ",,,,,"17.56"," ,N","91.6"," ,N",,,,,,
"US1WYNT0003","CASPER 4.4 WSW, WY US","42.8264","-106.3988","1569.1","2008",,,"       55",,"        24","N",,,"10"," ,N,1012, ","7.5"," ,N,1012, ","1.15"," ,N,0524, ",,,,,"16.30"," ,N","72.9"," ,N",,,,,,
"USC00487260","PINEDALE, WY US","42.87443","-109.85809","2197.6","2008","7",,,,"        30","0","-24","0,0122, ",,,"12.0"," ,0,1012, ","1.10"," ,0,0522, ","88","0,0801, ","10744","8","10.87"," ,0","98.3"," ,0","35.3","0","50.4","0","20.1","0"
"USS0010E12S","SNAKE RIVER STATION, WY US","44.13","-110.67","2109.2","2008","2",,"      208",,,,"-25","T,0124, ","79"," ,T,0326, ",,,"0.90"," ,T,0326, ","88","T,0807, ","9884","4","34.05"," ,T",,,"37.5","T","53.3","T","21.7","T"
"US1WYLN0002","SMOOT 4.9 SSE, WY US","42.5519166","-110.8884333","2135.1","2008",,,,,"        95","N",,,,,"10.0"," ,N,1226,+","1.18"," ,N,0809, ",,,,,"28.24"," ,N","269.8"," ,N",,,,,,
"USR0000WDOD","DODGE CREEK WYOMING, WY US","41.9675","-105.5194","2164.1","2008","187",,,,,,"-9","U,1214, ",,,,,,,"91","U,0801, ","8918","6",,,,,"40.6","U","50.8","U","30.5","U"
"USS0008G07S","TOWNSEND CREEK, WY US","42.7","-108.9","2651.8","2008","0",,"      237",,,,"-25","T,1214, ","44"," ,T,0410, ",,,"1.30"," ,T,0526, ","81","T,0801, ","10878","6","24.55"," ,T",,,"34.9","T","49.0","T","20.8","T"
"USC00482595","DIVERSION DAM, WY US","43.23348","-108.91332","1700.2","2008","216",,,,"         9","0","-26","0,0122, ",,,"8.8"," ,0,1011, ","1.60"," ,0,0522, ","95","0,0801, ","8266","3","7.67"," ,0","30.1"," ,0","43.1","0","57.6","0","28.5","0"
"USC00484411","HEART MOUNTAIN, WY US","44.7052","-108.9558","1460.0","2008",,,,,,,,,,,,,,,,,"7571","9",,,,,,,,,,
"USW00024164","BIG PINEY MARBLETON AIRPORT, WY US","42.58444","-110.1075","2124.5","2008","38",,,,,,"-27","W,0122, ",,,,,"0.40"," ,W,1229, ","91","W,0726, ","10835","7","5.93"," ,W",,,"35.4","W","50.8","W","19.9","W"
"USS0009E13S","BLACKWATER, WY US","44.38","-109.79","2980.9","2008","0",,"      277",,,,"-18","T,0121, ","100"," ,T,0331, ",,,"1.00"," ,T,0522, ","72","T,0801,+","11879","6","39.11"," ,T",,,"32.4","T","41.0","T","23.8","T"
"USC00485506","LEITER 9 N, WY US","44.85","-106.2888","1268.0","2008","539",,"       81",,"        19","0","-21","0,1215, ","12"," ,0,0124,+","6.0"," ,0,1012, ","1.88"," ,0,0605, ","101","0,0801, ","7417","6","19.04"," ,0","57.6"," ,0","45.5","0","58.6","0","32.5","0"
"USW00024048","GREYBULL SOUTH BIG HORN CO AIRPORT, WY US","44.51694","-108.08222","1198.8","2008","611",,,,,,"-33","W,0122, ",,,,,"0.73"," ,W,0901, ","104","W,0801, ","7895","3","6.41"," ,W",,,"44.7","W","58.6","W","30.7","W"
